[
{
"Name": "Qarku i Beratit",
"Code": "40",
"Provinces": [
{
"Name": "Bashkia Berat",
"Code": "10944368",
"Communities": [
{
"Places": [
{
"Name": "Berati 1",
"PostCode": "5002",
"Location": {
"Latitude": 40.7665,
"Longitude": 19.887
}
},
{
"Name": "Berati 2",
"PostCode": "5003",
"Location": {
"Latitude": 40.7665,
"Longitude": 19.887
}
},
{
"Name": "Berati 4",
"PostCode": "5004",
"Location": {
"Latitude": 40.7665,
"Longitude": 19.887
}
},
{
"Name": "Berati 5",
"PostCode": "5005",
"Location": {
"Latitude": 40.7665,
"Longitude": 19.887
}
},
{
"Name": "Berati 6",
"PostCode": "5006",
"Location": {
"Latitude": 40.7665,
"Longitude": 19.887
}
},
{
"Name": "Cukalat",
"PostCode": "5018",
"Location": {
"Latitude": 40.7303,
"Longitude": 19.7906
}
},
{
"Name": "Cukalat 1",
"PostCode": "5019",
"Location": {
"Latitude": 40.6767,
"Longitude": 19.9511
}
},
{
"Name": "Kutalli",
"PostCode": "5009",
"Location": {
"Latitude": 40.7839,
"Longitude": 19.7867
}
},
{
"Name": "Lapardha",
"PostCode": "5020",
"Location": {
"Latitude": 40.7547,
"Longitude": 19.9481
}
},
{
"Name": "Lumas",
"PostCode": "5013",
"Location": {
"Latitude": 40.6767,
"Longitude": 19.9511
}
},
{
"Name": "Mbrakull",
"PostCode": "5016",
"Location": {
"Latitude": 40.6292,
"Longitude": 20.0667
}
},
{
"Name": "Otllak",
"PostCode": "5010",
"Location": {
"Latitude": 40.7439,
"Longitude": 19.9353
}
},
{
"Name": "Poshnje",
"PostCode": "5008",
"Location": {
"Latitude": 40.7803,
"Longitude": 19.8442
}
},
{
"Name": "Qender Berat",
"PostCode": "5001",
"Location": {
"Latitude": 40.7328,
"Longitude": 20.0394
}
},
{
"Name": "Roshnik",
"PostCode": "5014",
"Location": {
"Latitude": 40.7328,
"Longitude": 20.0394
}
},
{
"Name": "Sinje",
"PostCode": "5011",
"Location": {
"Latitude": 40.6468,
"Longitude": 19.8692
}
},
{
"Name": "Syzez",
"PostCode": "5022",
"Location": {
"Latitude": 40.8233,
"Longitude": 19.8199
}
},
{
"Name": "Terpan",
"PostCode": "5015",
"Location": {
"Latitude": 40.5522,
"Longitude": 20.0244
}
},
{
"Name": "Ura e Kucit",
"PostCode": "5021",
"Location": {
"Latitude": 40.789,
"Longitude": 19.884
}
},
{
"Name": "Ura Vajgurore",
"PostCode": "5007",
"Location": {
"Latitude": 40.7689,
"Longitude": 19.8778
}
},
{
"Name": "Velabisht",
"PostCode": "5012",
"Location": {
"Latitude": 40.7017,
"Longitude": 19.9322
}
},
{
"Name": "Vertop 1",
"PostCode": "5017",
"Location": {
"Latitude": 40.6767,
"Longitude": 19.9511
}
}
]
}
]
},
{
"Name": "Bashkia Kuçovë",
"Code": "10944369",
"Communities": [
{
"Places": [
{
"Name": "Gege",
"PostCode": "5307",
"Location": {
"Latitude": 40.8369,
"Longitude": 19.9261
}
},
{
"Name": "Kozare",
"PostCode": "5305",
"Location": {
"Latitude": 40.8308,
"Longitude": 19.9006
}
},
{
"Name": "Kucove 2",
"PostCode": "5302",
"Location": {
"Latitude": 40.8101,
"Longitude": 19.9075
}
},
{
"Name": "Kucove 3",
"PostCode": "5303",
"Location": {
"Latitude": 40.8101,
"Longitude": 19.9075
}
},
{
"Name": "Kucove 4",
"PostCode": "5304",
"Location": {
"Latitude": 40.8101,
"Longitude": 19.9075
}
},
{
"Name": "Kucove Qender",
"PostCode": "5301",
"Location": {
"Latitude": 40.8101,
"Longitude": 19.9075
}
},
{
"Name": "Perondi",
"PostCode": "5306",
"Location": {
"Latitude": 40.7789,
"Longitude": 19.9231
}
},
{
"Name": "Tapi",
"PostCode": "5308",
"Location": {
"Latitude": 40.7936,
"Longitude": 19.8803
}
}
]
}
]
},
{
"Name": "Bashkia Skrapar",
"Code": "10944371",
"Communities": [
{
"Places": [
{
"Name": "Bogove",
"PostCode": "5405",
"Location": {
"Latitude": 40.5711,
"Longitude": 20.15
}
},
{
"Name": "Cepan",
"PostCode": "5406",
"Location": {
"Latitude": 40.4206,
"Longitude": 20.2606
}
},
{
"Name": "Çorovode 2",
"PostCode": "5402",
"Location": {
"Latitude": 40.5337,
"Longitude": 20.1974
}
},
{
"Name": "Çorovode Qender",
"PostCode": "5401",
"Location": {
"Latitude": 40.5337,
"Longitude": 20.1974
}
},
{
"Name": "Gjerbes",
"PostCode": "5408",
"Location": {
"Latitude": 40.6292,
"Longitude": 20.2511
}
},
{
"Name": "Konak",
"PostCode": "5410",
"Location": {
"Latitude": 40.6697,
"Longitude": 20.2392
}
},
{
"Name": "Polican 1",
"PostCode": "5403",
"Location": {
"Latitude": 40.5594,
"Longitude": 19.9522
}
},
{
"Name": "Polican 2",
"PostCode": "5404",
"Location": {
"Latitude": 40.5337,
"Longitude": 20.1974
}
},
{
"Name": "Potom",
"PostCode": "5407",
"Location": {
"Latitude": 40.4883,
"Longitude": 20.3733
}
},
{
"Name": "Radesh",
"PostCode": "5413",
"Location": {
"Latitude": 40.5364,
"Longitude": 20.2533
}
},
{
"Name": "Velush",
"PostCode": "5412",
"Location": {
"Latitude": 40.6031,
"Longitude": 20.2462
}
},
{
"Name": "Vendresh",
"PostCode": "5409",
"Location": {
"Latitude": 40.5337,
"Longitude": 20.1974
}
},
{
"Name": "Verzhezh",
"PostCode": "5411",
"Location": {
"Latitude": 40.6031,
"Longitude": 20.2462
}
}
]
}
]
}
]
},
{
"Name": "Qarku i Dibrës",
"Code": "41",
"Provinces": [
{
"Name": "Bashkia Bulqizë",
"Code": "10944373",
"Communities": [
{
"Places": [
{
"Name": "Bulqiza 1",
"PostCode": "8402",
"Location": {
"Latitude": 41.4904,
"Longitude": 20.3628
}
},
{
"Name": "Fushe-Bulqize",
"PostCode": "8409",
"Location": {
"Latitude": 41.5219,
"Longitude": 20.2822
}
},
{
"Name": "Gjorice",
"PostCode": "8407",
"Location": {
"Latitude": 41.5344,
"Longitude": 20.45
}
},
{
"Name": "Martanesh/Kraste",
"PostCode": "8403",
"Location": {
"Latitude": 41.4228,
"Longitude": 20.205
}
},
{
"Name": "Ostren",
"PostCode": "8405",
"Location": {
"Latitude": 41.4308,
"Longitude": 20.4556
}
},
{
"Name": "Qender Bulqize",
"PostCode": "8401",
"Location": {
"Latitude": 41.4904,
"Longitude": 20.3628
}
},
{
"Name": "Shupenze",
"PostCode": "8404",
"Location": {
"Latitude": 41.53,
"Longitude": 20.4236
}
},
{
"Name": "Zerqan",
"PostCode": "8406",
"Location": {
"Latitude": 41.5022,
"Longitude": 20.3606
}
},
{
"Name": "Zyrat Postare Trebisht",
"PostCode": "8408",
"Location": {
"Latitude": 41.4904,
"Longitude": 20.3628
}
}
]
}
]
},
{
"Name": "Bashkia Dibër",
"Code": "10944374",
"Communities": [
{
"Places": [
{
"Name": "Arras",
"PostCode": "8311",
"Location": {
"Latitude": 41.7358,
"Longitude": 20.3242
}
},
{
"Name": "Fushe-Cidhen",
"PostCode": "8306",
"Location": {
"Latitude": 41.7606,
"Longitude": 20.3411
}
},
{
"Name": "Kala e Dodes",
"PostCode": "8308",
"Location": {
"Latitude": 41.8319,
"Longitude": 20.4603
}
},
{
"Name": "Kastriot",
"PostCode": "8305",
"Location": {
"Latitude": 41.7294,
"Longitude": 20.3772
}
},
{
"Name": "Lure",
"PostCode": "8312",
"Location": {
"Latitude": 41.714,
"Longitude": 20.3244
}
},
{
"Name": "Luzni",
"PostCode": "8314",
"Location": {
"Latitude": 41.6508,
"Longitude": 20.3674
}
},
{
"Name": "Maqellare",
"PostCode": "8302",
"Location": {
"Latitude": 41.5889,
"Longitude": 20.4831
}
},
{
"Name": "Melan",
"PostCode": "8303",
"Location": {
"Latitude": 41.6542,
"Longitude": 20.4653
}
},
{
"Name": "Muhur",
"PostCode": "8315",
"Location": {
"Latitude": 41.6797,
"Longitude": 20.3314
}
},
{
"Name": "Peshkopi",
"PostCode": "8301",
"Location": {
"Latitude": 41.685,
"Longitude": 20.4289
}
},
{
"Name": "Rec",
"PostCode": "8310",
"Location": {
"Latitude": 41.8761,
"Longitude": 20.32
}
},
{
"Name": "Selishte",
"PostCode": "8313",
"Location": {
"Latitude": 41.6275,
"Longitude": 20.2792
}
},
{
"Name": "Sllove",
"PostCode": "8307",
"Location": {
"Latitude": 41.8011,
"Longitude": 20.4083
}
},
{
"Name": "Tomin",
"PostCode": "8304",
"Location": {
"Latitude": 41.6908,
"Longitude": 20.4217
}
},
{
"Name": "Zalle - Dardhe",
"PostCode": "8309",
"Location": {
"Latitude": 41.7177,
"Longitude": 20.4232
}
}
]
}
]
},
{
"Name": "Bashkia Mat",
"Code": "10944376",
"Communities": [
{
"Places": [
{
"Name": "Baz",
"PostCode": "8004",
"Location": {
"Latitude": 41.6319,
"Longitude": 19.9292
}
},
{
"Name": "Bejn",
"PostCode": "8014",
"Location": {
"Latitude": 41.5042,
"Longitude": 20.1169
}
},
{
"Name": "Burrel",
"PostCode": "8001",
"Location": {
"Latitude": 41.6103,
"Longitude": 20.0089
}
},
{
"Name": "Cerruje",
"PostCode": "8013",
"Location": {
"Latitude": 41.5328,
"Longitude": 20.1319
}
},
{
"Name": "Derjan",
"PostCode": "8010",
"Location": {
"Latitude": 41.6736,
"Longitude": 20.0583
}
},
{
"Name": "Gurre",
"PostCode": "8006",
"Location": {
"Latitude": 41.57,
"Longitude": 20.0246
}
},
{
"Name": "Klos",
"PostCode": "8002",
"Location": {
"Latitude": 41.5069,
"Longitude": 20.0867
}
},
{
"Name": "Komsi",
"PostCode": "8005",
"Location": {
"Latitude": 41.5817,
"Longitude": 19.9856
}
},
{
"Name": "Lis",
"PostCode": "8009",
"Location": {
"Latitude": 41.6275,
"Longitude": 20.0853
}
},
{
"Name": "Macukull",
"PostCode": "8011",
"Location": {
"Latitude": 41.6886,
"Longitude": 20.1103
}
},
{
"Name": "Rukaj/Bruç",
"PostCode": "8012",
"Location": {
"Latitude": 41.6922,
"Longitude": 20.0053
}
},
{
"Name": "Suç",
"PostCode": "8007",
"Location": {
"Latitude": 41.5769,
"Longitude": 20.0514
}
},
{
"Name": "Ulez (qytet)",
"PostCode": "8003",
"Location": {
"Latitude": 41.57,
"Longitude": 20.0246
}
},
{
"Name": "Xiber",
"PostCode": "8008",
"Location": {
"Latitude": 41.4547,
"Longitude": 20.0256
}
}
]
}
]
}
]
},
{
"Name": "Qarku i Durrësit",
"Code": "42",
"Provinces": [
{
"Name": "Bashkia Durrës",
"Code": "10944377",
"Communities": [
{
"Places": [
{
"Name": "4 Rruget e Shijakut",
"PostCode": "2018",
"Location": {
"Latitude": 41.3959,
"Longitude": 19.5409
}
},
{
"Name": "Draç",
"PostCode": "2016",
"Location": {
"Latitude": 41.3235,
"Longitude": 19.4547
}
},
{
"Name": "Durres Qender",
"PostCode": "2001",
"Location": {
"Latitude": 41.3239,
"Longitude": 19.467
}
},
{
"Name": "Durresi 1",
"PostCode": "2002",
"Location": {
"Latitude": 41.3239,
"Longitude": 19.467
}
},
{
"Name": "Durresi 2",
"PostCode": "2003",
"Location": {
"Latitude": 41.3239,
"Longitude": 19.467
}
},
{
"Name": "Durresi 3",
"PostCode": "2004",
"Location": {
"Latitude": 41.3239,
"Longitude": 19.467
}
},
{
"Name": "Durresi 4",
"PostCode": "2005",
"Location": {
"Latitude": 41.3239,
"Longitude": 19.467
}
},
{
"Name": "Durresi 5",
"PostCode": "2006",
"Location": {
"Latitude": 41.3239,
"Longitude": 19.467
}
},
{
"Name": "Gjepalaj",
"PostCode": "2022",
"Location": {
"Latitude": 41.3331,
"Longitude": 19.5781
}
},
{
"Name": "Ishem",
"PostCode": "2015",
"Location": {
"Latitude": 41.5453,
"Longitude": 19.6
}
},
{
"Name": "Katundi i Ri",
"PostCode": "2017",
"Location": {
"Latitude": 41.4031,
"Longitude": 19.5181
}
},
{
"Name": "Kulle",
"PostCode": "2012",
"Location": {
"Latitude": 41.4289,
"Longitude": 19.5608
}
},
{
"Name": "Maminas",
"PostCode": "2020",
"Location": {
"Latitude": 41.3792,
"Longitude": 19.6075
}
},
{
"Name": "Manze 1",
"PostCode": "2011",
"Location": {
"Latitude": 41.3959,
"Longitude": 19.5409
}
},
{
"Name": "Plazh",
"PostCode": "2008",
"Location": {
"Latitude": 41.3066,
"Longitude": 19.4902
}
},
{
"Name": "Rrashbull",
"PostCode": "2021",
"Location": {
"Latitude": 41.3228,
"Longitude": 19.5103
}
},
{
"Name": "Shijak",
"PostCode": "2013",
"Location": {
"Latitude": 41.3456,
"Longitude": 19.5672
}
},
{
"Name": "Shijak/1",
"PostCode": "2014",
"Location": {
"Latitude": 41.3959,
"Longitude": 19.5409
}
},
{
"Name": "Shkozet",
"PostCode": "2007",
"Location": {
"Latitude": 41.3239,
"Longitude": 19.467
}
},
{
"Name": "Spitalle",
"PostCode": "2009",
"Location": {
"Latitude": 41.3411,
"Longitude": 19.4439
}
},
{
"Name": "Sukth",
"PostCode": "2010",
"Location": {
"Latitude": 41.3806,
"Longitude": 19.5378
}
},
{
"Name": "Xhafzotaj",
"PostCode": "2019",
"Location": {
"Latitude": 41.3444,
"Longitude": 19.5475
}
}
]
}
]
},
{
"Name": "Bashkia Krujë",
"Code": "10944378",
"Communities": [
{
"Places": [
{
"Name": "Bruz",
"PostCode": "1508",
"Location": {
"Latitude": 41.4839,
"Longitude": 19.8922
}
},
{
"Name": "Bubq",
"PostCode": "1505",
"Location": {
"Latitude": 41.4742,
"Longitude": 19.6517
}
},
{
"Name": "Fushe Kruje",
"PostCode": "1502",
"Location": {
"Latitude": 41.5047,
"Longitude": 19.7234
}
},
{
"Name": "Kruja",
"PostCode": "1501",
"Location": {
"Latitude": 41.5092,
"Longitude": 19.7928
}
},
{
"Name": "Nikel",
"PostCode": "1504",
"Location": {
"Latitude": 41.4442,
"Longitude": 19.7483
}
},
{
"Name": "Sukth",
"PostCode": "1507",
"Location": {
"Latitude": 41.5264,
"Longitude": 19.6231
}
},
{
"Name": "Thumane",
"PostCode": "1503",
"Location": {
"Latitude": 41.5475,
"Longitude": 19.6778
}
},
{
"Name": "Thumane",
"PostCode": "1506",
"Location": {
"Latitude": 41.5475,
"Longitude": 19.6778
}
}
]
}
]
}
]
},
{
"Name": "Qarku i Elbasanit",
"Code": "43",
"Provinces": [
{
"Name": "Bashkia Elbasan",
"Code": "10944380",
"Communities": [
{
"Places": [
{
"Name": "Belsh",
"PostCode": "3008",
"Location": {
"Latitude": 40.975,
"Longitude": 19.8819
}
},
{
"Name": "Bradashesh",
"PostCode": "3009",
"Location": {
"Latitude": 41.105,
"Longitude": 20.0225
}
},
{
"Name": "Cerrik",
"PostCode": "3007",
"Location": {
"Latitude": 41.05,
"Longitude": 19.95
}
},
{
"Name": "Elbasan 1",
"PostCode": "3001",
"Location": {
"Latitude": 41.0433,
"Longitude": 19.9515
}
},
{
"Name": "Elbasan 2",
"PostCode": "3002",
"Location": {
"Latitude": 41.0433,
"Longitude": 19.9515
}
},
{
"Name": "Elbasan 3",
"PostCode": "3003",
"Location": {
"Latitude": 41.0433,
"Longitude": 19.9515
}
},
{
"Name": "Elbasan 4",
"PostCode": "3004",
"Location": {
"Latitude": 41.0433,
"Longitude": 19.9515
}
},
{
"Name": "Elbasan 5",
"PostCode": "3005",
"Location": {
"Latitude": 41.0433,
"Longitude": 19.9515
}
},
{
"Name": "Elbasan 6",
"PostCode": "3006",
"Location": {
"Latitude": 41.0433,
"Longitude": 19.9515
}
},
{
"Name": "Fierze",
"PostCode": "3023",
"Location": {
"Latitude": 40.9206,
"Longitude": 19.8469
}
},
{
"Name": "Funar",
"PostCode": "3013",
"Location": {
"Latitude": 41.1964,
"Longitude": 20.0597
}
},
{
"Name": "Gjergjan",
"PostCode": "3027",
"Location": {
"Latitude": 41.0431,
"Longitude": 20.0297
}
},
{
"Name": "Gjinar",
"PostCode": "3014",
"Location": {
"Latitude": 41.0225,
"Longitude": 20.1889
}
},
{
"Name": "Gostime",
"PostCode": "3018",
"Location": {
"Latitude": 40.9947,
"Longitude": 20.0203
}
},
{
"Name": "Gracen",
"PostCode": "3012",
"Location": {
"Latitude": 41.1519,
"Longitude": 19.9636
}
},
{
"Name": "Grekan",
"PostCode": "3021",
"Location": {
"Latitude": 40.9333,
"Longitude": 19.95
}
},
{
"Name": "Kajan",
"PostCode": "3022",
"Location": {
"Latitude": 40.9142,
"Longitude": 19.8894
}
},
{
"Name": "Klos",
"PostCode": "3020",
"Location": {
"Latitude": 40.9461,
"Longitude": 20.0097
}
},
{
"Name": "Labinot Fushe",
"PostCode": "3010",
"Location": {
"Latitude": 41.0417,
"Longitude": 20.0532
}
},
{
"Name": "Labinot Mal",
"PostCode": "3024",
"Location": {
"Latitude": 40.9828,
"Longitude": 19.9932
}
},
{
"Name": "Mollas",
"PostCode": "3019",
"Location": {
"Latitude": 40.9269,
"Longitude": 20.0036
}
},
{
"Name": "Paper",
"PostCode": "3016",
"Location": {
"Latitude": 41.0517,
"Longitude": 19.9608
}
},
{
"Name": "Shales",
"PostCode": "3017",
"Location": {
"Latitude": 40.9986,
"Longitude": 19.9478
}
},
{
"Name": "Shirgjan",
"PostCode": "3011",
"Location": {
"Latitude": 41.0519,
"Longitude": 20.0533
}
},
{
"Name": "Shushice",
"PostCode": "3025",
"Location": {
"Latitude": 41.0975,
"Longitude": 20.1483
}
},
{
"Name": "Tregan",
"PostCode": "3026",
"Location": {
"Latitude": 41.0247,
"Longitude": 20.0783
}
},
{
"Name": "Zavaline",
"PostCode": "3015",
"Location": {
"Latitude": 40.9808,
"Longitude": 20.2808
}
}
]
}
]
},
{
"Name": "Bashkia Librazhd",
"Code": "10944384",
"Communities": [
{
"Places": [
{
"Name": "Hotolisht",
"PostCode": "3408",
"Location": {
"Latitude": 41.1567,
"Longitude": 20.3972
}
},
{
"Name": "Komune Qender",
"PostCode": "3411",
"Location": {
"Latitude": 41.1811,
"Longitude": 20.4363
}
},
{
"Name": "Librazhd 1",
"PostCode": "3401",
"Location": {
"Latitude": 41.0958,
"Longitude": 20.4206
}
},
{
"Name": "Librazhd 2",
"PostCode": "3402",
"Location": {
"Latitude": 41.0958,
"Longitude": 20.4206
}
},
{
"Name": "Lunik",
"PostCode": "3410",
"Location": {
"Latitude": 41.2892,
"Longitude": 20.3236
}
},
{
"Name": "Polis",
"PostCode": "3409",
"Location": {
"Latitude": 41.1333,
"Longitude": 20.2583
}
},
{
"Name": "Prrenjas",
"PostCode": "3413",
"Location": {
"Latitude": 41.0731,
"Longitude": 20.5489
}
},
{
"Name": "Prrenjas 1",
"PostCode": "3403",
"Location": {
"Latitude": 41.0958,
"Longitude": 20.4206
}
},
{
"Name": "Prrenjas 2",
"PostCode": "3404",
"Location": {
"Latitude": 41.0958,
"Longitude": 20.4206
}
},
{
"Name": "Qukes",
"PostCode": "3407",
"Location": {
"Latitude": 41.0933,
"Longitude": 20.4478
}
},
{
"Name": "Rrajce",
"PostCode": "3405",
"Location": {
"Latitude": 41.0903,
"Longitude": 20.5764
}
},
{
"Name": "Stebleve",
"PostCode": "3412",
"Location": {
"Latitude": 41.1811,
"Longitude": 20.4363
}
},
{
"Name": "Stravaj",
"PostCode": "3406",
"Location": {
"Latitude": 41.0053,
"Longitude": 20.4231
}
}
]
}
]
}
]
},
{
"Name": "Qarku i Fierit",
"Code": "44",
"Provinces": [
{
"Name": "Bashkia Fier",
"Code": "10944388",
"Communities": [
{
"Places": [
{
"Name": "Aranitas",
"PostCode": "9330",
"Location": {
"Latitude": 40.5944,
"Longitude": 19.8067
}
},
{
"Name": "Ballsh",
"PostCode": "9308",
"Location": {
"Latitude": 40.5989,
"Longitude": 19.7347
}
},
{
"Name": "Buzemadh",
"PostCode": "9325",
"Location": {
"Latitude": 40.5814,
"Longitude": 19.6131
}
},
{
"Name": "Cakran",
"PostCode": "9311",
"Location": {
"Latitude": 40.6033,
"Longitude": 19.6261
}
},
{
"Name": "Deremenas",
"PostCode": "9309",
"Location": {
"Latitude": 40.7456,
"Longitude": 19.4939
}
},
{
"Name": "Dukas",
"PostCode": "9333",
"Location": {
"Latitude": 40.6075,
"Longitude": 19.7278
}
},
{
"Name": "Fier 1",
"PostCode": "9302",
"Location": {
"Latitude": 40.7334,
"Longitude": 19.5954
}
},
{
"Name": "Fier 2",
"PostCode": "9303",
"Location": {
"Latitude": 40.9017,
"Longitude": 19.4267
}
},
{
"Name": "Fier 3",
"PostCode": "9304",
"Location": {
"Latitude": 40.7334,
"Longitude": 19.5954
}
},
{
"Name": "Fier 4",
"PostCode": "9305",
"Location": {
"Latitude": 40.7334,
"Longitude": 19.5954
}
},
{
"Name": "Fier Qender",
"PostCode": "9301",
"Location": {
"Latitude": 40.7334,
"Longitude": 19.5954
}
},
{
"Name": "Fier-Ferme",
"PostCode": "9322",
"Location": {
"Latitude": 40.6457,
"Longitude": 19.6338
}
},
{
"Name": "Frakull",
"PostCode": "9313",
"Location": {
"Latitude": 40.7099,
"Longitude": 19.6388
}
},
{
"Name": "Fratar",
"PostCode": "9328",
"Location": {
"Latitude": 40.5,
"Longitude": 19.8167
}
},
{
"Name": "Greshice",
"PostCode": "9331",
"Location": {
"Latitude": 40.5519,
"Longitude": 19.7783
}
},
{
"Name": "Hekal",
"PostCode": "9332",
"Location": {
"Latitude": 40.5619,
"Longitude": 19.7358
}
},
{
"Name": "Kreshpan",
"PostCode": "9324",
"Location": {
"Latitude": 40.6294,
"Longitude": 19.5843
}
},
{
"Name": "Kuman",
"PostCode": "9315",
"Location": {
"Latitude": 40.7267,
"Longitude": 19.6867
}
},
{
"Name": "Kurjan",
"PostCode": "9316",
"Location": {
"Latitude": 40.7175,
"Longitude": 19.7456
}
},
{
"Name": "Kute",
"PostCode": "9329",
"Location": {
"Latitude": 40.4733,
"Longitude": 19.7664
}
},
{
"Name": "Levan",
"PostCode": "9314",
"Location": {
"Latitude": 40.6761,
"Longitude": 19.4897
}
},
{
"Name": "Libofshe",
"PostCode": "9310",
"Location": {
"Latitude": 40.8344,
"Longitude": 19.5522
}
},
{
"Name": "Ngjeqar",
"PostCode": "9321",
"Location": {
"Latitude": 40.6733,
"Longitude": 19.79
}
},
{
"Name": "Ngracan",
"PostCode": "9334",
"Location": {
"Latitude": 40.6444,
"Longitude": 19.7925
}
},
{
"Name": "Patos",
"PostCode": "9307",
"Location": {
"Latitude": 40.6833,
"Longitude": 19.6194
}
},
{
"Name": "Portez",
"PostCode": "9318",
"Location": {
"Latitude": 40.6992,
"Longitude": 19.5744
}
},
{
"Name": "Povelce",
"PostCode": "9323",
"Location": {
"Latitude": 40.7289,
"Longitude": 19.4208
}
},
{
"Name": "Roskovec",
"PostCode": "9306",
"Location": {
"Latitude": 40.7375,
"Longitude": 19.7022
}
},
{
"Name": "Ruzhdie",
"PostCode": "9312",
"Location": {
"Latitude": 40.6708,
"Longitude": 19.6983
}
},
{
"Name": "Selite",
"PostCode": "9335",
"Location": {
"Latitude": 40.5475,
"Longitude": 19.8481
}
},
{
"Name": "Seman",
"PostCode": "9326",
"Location": {
"Latitude": 40.7911,
"Longitude": 19.4551
}
},
{
"Name": "Strum",
"PostCode": "9319",
"Location": {
"Latitude": 40.7511,
"Longitude": 19.7375
}
},
{
"Name": "Suk",
"PostCode": "9320",
"Location": {
"Latitude": 40.6457,
"Longitude": 19.6338
}
},
{
"Name": "Verri",
"PostCode": "9327",
"Location": {
"Latitude": 40.7881,
"Longitude": 19.6242
}
},
{
"Name": "Zharez",
"PostCode": "9317",
"Location": {
"Latitude": 40.7099,
"Longitude": 19.6388
}
}
]
}
]
},
{
"Name": "Bashkia Lushnje",
"Code": "10944389",
"Communities": [
{
"Places": [
{
"Name": "Allkaj",
"PostCode": "9005",
"Location": {
"Latitude": 40.8575,
"Longitude": 19.7553
}
},
{
"Name": "Ballagat",
"PostCode": "9017",
"Location": {
"Latitude": 40.9953,
"Longitude": 19.7653
}
},
{
"Name": "Bubullime",
"PostCode": "9016",
"Location": {
"Latitude": 40.8181,
"Longitude": 19.6408
}
},
{
"Name": "Divjake",
"PostCode": "9022",
"Location": {
"Latitude": 40.9967,
"Longitude": 19.5294
}
},
{
"Name": "Dushk",
"PostCode": "9010",
"Location": {
"Latitude": 40.9002,
"Longitude": 19.6344
}
},
{
"Name": "Fiershegan",
"PostCode": "9013",
"Location": {
"Latitude": 40.9002,
"Longitude": 19.6344
}
},
{
"Name": "Golem",
"PostCode": "9012",
"Location": {
"Latitude": 40.9678,
"Longitude": 19.6853
}
},
{
"Name": "Gorre",
"PostCode": "9019",
"Location": {
"Latitude": 40.8589,
"Longitude": 19.6347
}
},
{
"Name": "Grabijan",
"PostCode": "9011",
"Location": {
"Latitude": 40.9531,
"Longitude": 19.5808
}
},
{
"Name": "Gradishte",
"PostCode": "9014",
"Location": {
"Latitude": 40.8881,
"Longitude": 19.5858
}
},
{
"Name": "Hysgjokaj",
"PostCode": "9009",
"Location": {
"Latitude": 40.9717,
"Longitude": 19.7897
}
},
{
"Name": "Karbunare e Madhe",
"PostCode": "9008",
"Location": {
"Latitude": 40.9275,
"Longitude": 19.7408
}
},
{
"Name": "Karbunare e Vogel",
"PostCode": "9002",
"Location": {
"Latitude": 40.9219,
"Longitude": 19.7178
}
},
{
"Name": "Kashte Bardhe",
"PostCode": "9020",
"Location": {
"Latitude": 40.9446,
"Longitude": 19.5814
}
},
{
"Name": "Kemishtaj",
"PostCode": "9021",
"Location": {
"Latitude": 40.8925,
"Longitude": 19.6333
}
},
{
"Name": "Kolonje",
"PostCode": "9007",
"Location": {
"Latitude": 40.8242,
"Longitude": 19.6039
}
},
{
"Name": "Krutje",
"PostCode": "9006",
"Location": {
"Latitude": 40.8982,
"Longitude": 19.6865
}
},
{
"Name": "Lushnje Qender",
"PostCode": "9001",
"Location": {
"Latitude": 40.8982,
"Longitude": 19.6865
}
},
{
"Name": "Pluk",
"PostCode": "9018",
"Location": {
"Latitude": 40.6806,
"Longitude": 19.5683
}
},
{
"Name": "Remas",
"PostCode": "9004",
"Location": {
"Latitude": 40.8864,
"Longitude": 19.5114
}
},
{
"Name": "Saver (agjent postar)",
"PostCode": "9003",
"Location": {
"Latitude": 40.8982,
"Longitude": 19.6865
}
},
{
"Name": "Terbuf",
"PostCode": "9015",
"Location": {
"Latitude": 41.04,
"Longitude": 19.6142
}
}
]
}
]
}
]
},
{
"Name": "Qarku i Gjirokastrës",
"Code": "45",
"Provinces": [
{
"Name": "Bashkia Gjirokastër",
"Code": "10944394",
"Communities": [
{
"Places": [
{
"Name": "Antigone",
"PostCode": "6017",
"Location": {
"Latitude": 40.0905,
"Longitude": 20.1925
}
},
{
"Name": "Dervican",
"PostCode": "6010",
"Location": {
"Latitude": 40.0325,
"Longitude": 20.1733
}
},
{
"Name": "Dhoksat",
"PostCode": "6018",
"Location": {
"Latitude": 40.1217,
"Longitude": 20.1822
}
},
{
"Name": "Erind",
"PostCode": "6008",
"Location": {
"Latitude": 40.1569,
"Longitude": 20.1636
}
},
{
"Name": "Gjirokastra 1",
"PostCode": "6002",
"Location": {
"Latitude": 40.0776,
"Longitude": 20.2504
}
},
{
"Name": "Jorgucat",
"PostCode": "6011",
"Location": {
"Latitude": 39.9353,
"Longitude": 20.2636
}
},
{
"Name": "Labove",
"PostCode": "6015",
"Location": {
"Latitude": 40.0905,
"Longitude": 20.1925
}
},
{
"Name": "Lazarat",
"PostCode": "6004",
"Location": {
"Latitude": 40.0467,
"Longitude": 20.1475
}
},
{
"Name": "Libohove",
"PostCode": "6003",
"Location": {
"Latitude": 40.0311,
"Longitude": 20.2631
}
},
{
"Name": "Nivan",
"PostCode": "6012",
"Location": {
"Latitude": 40.1797,
"Longitude": 20.2903
}
},
{
"Name": "Palokaster",
"PostCode": "6009",
"Location": {
"Latitude": 40.1586,
"Longitude": 20.1014
}
},
{
"Name": "Picar",
"PostCode": "6019",
"Location": {
"Latitude": 40.1667,
"Longitude": 20.0483
}
},
{
"Name": "Polican",
"PostCode": "6007",
"Location": {
"Latitude": 40.13,
"Longitude": 20.3503
}
},
{
"Name": "Qender",
"PostCode": "6001",
"Location": {
"Latitude": 40.2094,
"Longitude": 20.4183
}
},
{
"Name": "Sofratike",
"PostCode": "6005",
"Location": {
"Latitude": 39.9922,
"Longitude": 20.2133
}
},
{
"Name": "Suhe",
"PostCode": "6016",
"Location": {
"Latitude": 40.0722,
"Longitude": 20.2558
}
},
{
"Name": "Ura e Kardhiqit",
"PostCode": "6014",
"Location": {
"Latitude": 40.0905,
"Longitude": 20.1925
}
},
{
"Name": "Valare",
"PostCode": "6013",
"Location": {
"Latitude": 40.1256,
"Longitude": 20.1342
}
},
{
"Name": "Vrisera",
"PostCode": "6006",
"Location": {
"Latitude": 39.8958,
"Longitude": 20.3456
}
}
]
}
]
}
]
},
{
"Name": "Qarku i Korçës",
"Code": "46",
"Provinces": [
{
"Name": "Bashkia Kolonjë",
"Code": "10944401",
"Communities": [
{
"Places": [
{
"Name": "Barmash",
"PostCode": "7404",
"Location": {
"Latitude": 40.2778,
"Longitude": 20.6183
}
},
{
"Name": "Clirim",
"PostCode": "7406",
"Location": {
"Latitude": 40.4175,
"Longitude": 20.5503
}
},
{
"Name": "Mollas",
"PostCode": "7403",
"Location": {
"Latitude": 40.4256,
"Longitude": 20.6744
}
},
{
"Name": "Novosele",
"PostCode": "7405",
"Location": {
"Latitude": 40.335,
"Longitude": 20.5908
}
},
{
"Name": "Qender Ersek",
"PostCode": "7401",
"Location": {
"Latitude": 40.364,
"Longitude": 20.6085
}
},
{
"Name": "Qender Leskovik",
"PostCode": "7402",
"Location": {
"Latitude": 40.364,
"Longitude": 20.6085
}
}
]
}
]
},
{
"Name": "Bashkia Korçë",
"Code": "10944402",
"Communities": [
{
"Places": [
{
"Name": "Bitincke",
"PostCode": "7008",
"Location": {
"Latitude": 40.6478,
"Longitude": 20.9836
}
},
{
"Name": "Bulgarec",
"PostCode": "7013",
"Location": {
"Latitude": 40.663,
"Longitude": 20.7943
}
},
{
"Name": "Dishnice",
"PostCode": "7024",
"Location": {
"Latitude": 40.6514,
"Longitude": 20.8136
}
},
{
"Name": "Drenove",
"PostCode": "7023",
"Location": {
"Latitude": 40.5833,
"Longitude": 20.7922
}
},
{
"Name": "Fitore",
"PostCode": "7010",
"Location": {
"Latitude": 40.5533,
"Longitude": 20.9522
}
},
{
"Name": "Hocisht",
"PostCode": "7009",
"Location": {
"Latitude": 40.6083,
"Longitude": 20.9142
}
},
{
"Name": "Korca 1",
"PostCode": "7002",
"Location": {
"Latitude": 40.5884,
"Longitude": 20.942
}
},
{
"Name": "Korca 2",
"PostCode": "7003",
"Location": {
"Latitude": 40.5884,
"Longitude": 20.942
}
},
{
"Name": "Korca 3",
"PostCode": "7004",
"Location": {
"Latitude": 40.5884,
"Longitude": 20.942
}
},
{
"Name": "Lekas",
"PostCode": "7022",
"Location": {
"Latitude": 40.6022,
"Longitude": 20.5125
}
},
{
"Name": "Libonik",
"PostCode": "7021",
"Location": {
"Latitude": 40.7044,
"Longitude": 20.7086
}
},
{
"Name": "Liqenas",
"PostCode": "7020",
"Location": {
"Latitude": 40.7867,
"Longitude": 20.9022
}
},
{
"Name": "Lumalas",
"PostCode": "7019",
"Location": {
"Latitude": 40.6586,
"Longitude": 20.7364
}
},
{
"Name": "Miras",
"PostCode": "7007",
"Location": {
"Latitude": 40.5092,
"Longitude": 20.9283
}
},
{
"Name": "Moglice",
"PostCode": "7018",
"Location": {
"Latitude": 40.7075,
"Longitude": 20.3947
}
},
{
"Name": "Mollaj",
"PostCode": "7017",
"Location": {
"Latitude": 40.5603,
"Longitude": 20.7403
}
},
{
"Name": "Pirg",
"PostCode": "7016",
"Location": {
"Latitude": 40.785,
"Longitude": 20.7061
}
},
{
"Name": "Plase",
"PostCode": "7015",
"Location": {
"Latitude": 40.6856,
"Longitude": 20.8442
}
},
{
"Name": "Pojan",
"PostCode": "7014",
"Location": {
"Latitude": 40.7258,
"Longitude": 20.8375
}
},
{
"Name": "Proger",
"PostCode": "7011",
"Location": {
"Latitude": 40.6942,
"Longitude": 20.9403
}
},
{
"Name": "Qender",
"PostCode": "7001",
"Location": {
"Latitude": 40.5884,
"Longitude": 20.942
}
},
{
"Name": "Qender Bilisht",
"PostCode": "7006",
"Location": {
"Latitude": 40.5884,
"Longitude": 20.942
}
},
{
"Name": "Qender Maliq",
"PostCode": "7005",
"Location": {
"Latitude": 40.5884,
"Longitude": 20.942
}
},
{
"Name": "Vishocice",
"PostCode": "7012",
"Location": {
"Latitude": 40.5964,
"Longitude": 20.9967
}
},
{
"Name": "Vithkuq",
"PostCode": "7025",
"Location": {
"Latitude": 40.525,
"Longitude": 20.5825
}
},
{
"Name": "Voskop",
"PostCode": "7026",
"Location": {
"Latitude": 40.6119,
"Longitude": 20.6903
}
},
{
"Name": "Voskopoje",
"PostCode": "7029",
"Location": {
"Latitude": 40.6331,
"Longitude": 20.5889
}
},
{
"Name": "Vreshtas",
"PostCode": "7028",
"Location": {
"Latitude": 40.7969,
"Longitude": 20.7769
}
},
{
"Name": "Zvarisht",
"PostCode": "7027",
"Location": {
"Latitude": 40.7236,
"Longitude": 20.565
}
}
]
}
]
},
{
"Name": "Bashkia Pogradec",
"Code": "10944404",
"Communities": [
{
"Places": [
{
"Name": "Bucimas",
"PostCode": "7304",
"Location": {
"Latitude": 40.8914,
"Longitude": 20.6814
}
},
{
"Name": "Cerrave",
"PostCode": "7306",
"Location": {
"Latitude": 40.8514,
"Longitude": 20.725
}
},
{
"Name": "Dardhas",
"PostCode": "7309",
"Location": {
"Latitude": 40.8458,
"Longitude": 20.6572
}
},
{
"Name": "Pogradec 1",
"PostCode": "7302",
"Location": {
"Latitude": 40.9086,
"Longitude": 20.6264
}
},
{
"Name": "Pogradec 2",
"PostCode": "7303",
"Location": {
"Latitude": 40.9086,
"Longitude": 20.6264
}
},
{
"Name": "Proptisht",
"PostCode": "7308",
"Location": {
"Latitude": 40.9861,
"Longitude": 20.5025
}
},
{
"Name": "Qender Pogradec",
"PostCode": "7301",
"Location": {
"Latitude": 40.9086,
"Longitude": 20.6264
}
},
{
"Name": "Trebinje",
"PostCode": "7307",
"Location": {
"Latitude": 40.9133,
"Longitude": 20.5531
}
},
{
"Name": "Udenisht",
"PostCode": "7305",
"Location": {
"Latitude": 40.9633,
"Longitude": 20.6392
}
},
{
"Name": "Velçan",
"PostCode": "7310",
"Location": {
"Latitude": 40.9547,
"Longitude": 20.4622
}
}
]
}
]
}
]
},
{
"Name": "Qarku i Kukësit",
"Code": "47",
"Provinces": [
{
"Name": "Bashkia Has",
"Code": "10944406",
"Communities": [
{
"Places": [
{
"Name": "Fajza",
"PostCode": "8604",
"Location": {
"Latitude": 42.1669,
"Longitude": 20.3508
}
},
{
"Name": "Gjinaj",
"PostCode": "8605",
"Location": {
"Latitude": 42.1181,
"Longitude": 20.4358
}
},
{
"Name": "Golaj",
"PostCode": "8603",
"Location": {
"Latitude": 42.2475,
"Longitude": 20.3803
}
},
{
"Name": "Krume 1",
"PostCode": "8602",
"Location": {
"Latitude": 42.1775,
"Longitude": 20.389
}
},
{
"Name": "Qender",
"PostCode": "8601",
"Location": {
"Latitude": 42.1775,
"Longitude": 20.389
}
}
]
}
]
},
{
"Name": "Bashkia Kukës",
"Code": "10944407",
"Communities": [
{
"Places": [
{
"Name": "Arren",
"PostCode": "8509",
"Location": {
"Latitude": 41.9131,
"Longitude": 20.2883
}
},
{
"Name": "Bardhoc",
"PostCode": "8514",
"Location": {
"Latitude": 42.1064,
"Longitude": 20.5053
}
},
{
"Name": "Bicaj",
"PostCode": "8504",
"Location": {
"Latitude": 41.9947,
"Longitude": 20.4125
}
},
{
"Name": "Borje",
"PostCode": "8519",
"Location": {
"Latitude": 42.0153,
"Longitude": 20.5864
}
},
{
"Name": "Bushtrice",
"PostCode": "8506",
"Location": {
"Latitude": 41.8786,
"Longitude": 20.4219
}
},
{
"Name": "Dogana |Morine",
"PostCode": "8520",
"Location": {
"Latitude": 41.9984,
"Longitude": 20.4413
}
},
{
"Name": "Gryk-Caje",
"PostCode": "8507",
"Location": {
"Latitude": 41.94,
"Longitude": 20.3903
}
},
{
"Name": "Kalis",
"PostCode": "8508",
"Location": {
"Latitude": 41.8389,
"Longitude": 20.3667
}
},
{
"Name": "Kolsh",
"PostCode": "8511",
"Location": {
"Latitude": 42.0781,
"Longitude": 20.3419
}
},
{
"Name": "Kukes 2",
"PostCode": "8502",
"Location": {
"Latitude": 42.1064,
"Longitude": 20.5053
}
},
{
"Name": "Kukes 3",
"PostCode": "8503",
"Location": {
"Latitude": 41.94,
"Longitude": 20.3903
}
},
{
"Name": "Novosej",
"PostCode": "8518",
"Location": {
"Latitude": 41.9828,
"Longitude": 20.5881
}
},
{
"Name": "Qender",
"PostCode": "8501",
"Location": {
"Latitude": 41.94,
"Longitude": 20.3903
}
},
{
"Name": "Shemri",
"PostCode": "8512",
"Location": {
"Latitude": 42.1042,
"Longitude": 20.2383
}
},
{
"Name": "Shishtavec",
"PostCode": "8517",
"Location": {
"Latitude": 41.98,
"Longitude": 20.6058
}
},
{
"Name": "Shtiqen",
"PostCode": "8513",
"Location": {
"Latitude": 42.0406,
"Longitude": 20.4342
}
},
{
"Name": "Surroj",
"PostCode": "8510",
"Location": {
"Latitude": 41.9922,
"Longitude": 20.3442
}
},
{
"Name": "Topojan",
"PostCode": "8516",
"Location": {
"Latitude": 41.9847,
"Longitude": 20.5222
}
},
{
"Name": "Ujmisht",
"PostCode": "8505",
"Location": {
"Latitude": 41.9083,
"Longitude": 20.3469
}
},
{
"Name": "Zapod",
"PostCode": "8515",
"Location": {
"Latitude": 42.0506,
"Longitude": 20.5525
}
}
]
}
]
},
{
"Name": "Bashkia Tropojë",
"Code": "10944408",
"Communities": [
{
"Places": [
{
"Name": "Bajram Curri",
"PostCode": "8702",
"Location": {
"Latitude": 42.3573,
"Longitude": 20.0768
}
},
{
"Name": "Bujan",
"PostCode": "8706",
"Location": {
"Latitude": 42.3264,
"Longitude": 20.0764
}
},
{
"Name": "Dogan MorineTropoje",
"PostCode": "8707",
"Location": {
"Latitude": 42.324,
"Longitude": 20.0777
}
},
{
"Name": "Fierze",
"PostCode": "8704",
"Location": {
"Latitude": 42.324,
"Longitude": 20.0777
}
},
{
"Name": "Lekbibaj",
"PostCode": "8706",
"Location": {
"Latitude": 42.2947,
"Longitude": 19.9317
}
},
{
"Name": "Llugaj",
"PostCode": "8706",
"Location": {
"Latitude": 42.3414,
"Longitude": 20.1086
}
},
{
"Name": "Margegaj",
"PostCode": "8706",
"Location": {
"Latitude": 42.3208,
"Longitude": 20.0389
}
},
{
"Name": "Pac",
"PostCode": "8705",
"Location": {
"Latitude": 42.2643,
"Longitude": 20.2028
}
},
{
"Name": "Qender",
"PostCode": "8701",
"Location": {
"Latitude": 42.324,
"Longitude": 20.0777
}
},
{
"Name": "Tropoje",
"PostCode": "8703",
"Location": {
"Latitude": 42.3597,
"Longitude": 20.0698
}
}
]
}
]
}
]
},
{
"Name": "Qarku i Lezhës",
"Code": "48",
"Provinces": [
{
"Name": "Bashkia Kurbin",
"Code": "10944409",
"Communities": [
{
"Places": [
{
"Name": "Fushe Kuqe",
"PostCode": "4706",
"Location": {
"Latitude": 41.6276,
"Longitude": 19.708
}
},
{
"Name": "Mamuras",
"PostCode": "4704",
"Location": {
"Latitude": 41.5775,
"Longitude": 19.6922
}
},
{
"Name": "Milot",
"PostCode": "4705",
"Location": {
"Latitude": 41.6839,
"Longitude": 19.7156
}
},
{
"Name": "Qender Lac",
"PostCode": "4701",
"Location": {
"Latitude": 41.6276,
"Longitude": 19.708
}
},
{
"Name": "Qender Lac 2",
"PostCode": "4702",
"Location": {
"Latitude": 41.6276,
"Longitude": 19.708
}
},
{
"Name": "Sanxhak",
"PostCode": "4703",
"Location": {
"Latitude": 41.6214,
"Longitude": 19.7161
}
}
]
}
]
},
{
"Name": "Bashkia Lezhë",
"Code": "10944410",
"Communities": [
{
"Places": [
{
"Name": "Balldre",
"PostCode": "4504",
"Location": {
"Latitude": 41.8094,
"Longitude": 19.6347
}
},
{
"Name": "Blinisht",
"PostCode": "4505",
"Location": {
"Latitude": 41.8822,
"Longitude": 19.6369
}
},
{
"Name": "Dajc",
"PostCode": "4506",
"Location": {
"Latitude": 41.9156,
"Longitude": 19.6044
}
},
{
"Name": "Kallmet",
"PostCode": "4507",
"Location": {
"Latitude": 41.8489,
"Longitude": 19.6869
}
},
{
"Name": "Lezhe 1/Pensionet",
"PostCode": "4502",
"Location": {
"Latitude": 41.8372,
"Longitude": 19.6563
}
},
{
"Name": "Qendre Lezhe",
"PostCode": "4501",
"Location": {
"Latitude": 41.8372,
"Longitude": 19.6563
}
},
{
"Name": "Rrile",
"PostCode": "4509",
"Location": {
"Latitude": 41.7156,
"Longitude": 19.6422
}
},
{
"Name": "Shengjin",
"PostCode": "4503",
"Location": {
"Latitude": 41.8136,
"Longitude": 19.5939
}
},
{
"Name": "Shenkoll",
"PostCode": "4511",
"Location": {
"Latitude": 41.6908,
"Longitude": 19.6533
}
},
{
"Name": "Ungrej",
"PostCode": "4508",
"Location": {
"Latitude": 41.8753,
"Longitude": 19.7947
}
},
{
"Name": "Zejmen",
"PostCode": "4510",
"Location": {
"Latitude": 41.7078,
"Longitude": 19.6892
}
}
]
}
]
},
{
"Name": "Bashkia Mirditë",
"Code": "10944411",
"Communities": [
{
"Places": [
{
"Name": "Fan",
"PostCode": "4608",
"Location": {
"Latitude": 41.8172,
"Longitude": 19.9109
}
},
{
"Name": "Kacinar",
"PostCode": "4607",
"Location": {
"Latitude": 41.8933,
"Longitude": 19.8986
}
},
{
"Name": "Kthelle",
"PostCode": "4606",
"Location": {
"Latitude": 41.8172,
"Longitude": 19.9109
}
},
{
"Name": "Orosh",
"PostCode": "4605",
"Location": {
"Latitude": 41.8333,
"Longitude": 20.0833
}
},
{
"Name": "Rreshen",
"PostCode": "4601",
"Location": {
"Latitude": 41.7675,
"Longitude": 19.8756
}
},
{
"Name": "Rreshen 1",
"PostCode": "4602",
"Location": {
"Latitude": 41.8172,
"Longitude": 19.9109
}
},
{
"Name": "Rubik",
"PostCode": "4603",
"Location": {
"Latitude": 41.7744,
"Longitude": 19.7861
}
},
{
"Name": "Selite",
"PostCode": "4604",
"Location": {
"Latitude": 41.8172,
"Longitude": 19.9109
}
}
]
}
]
}
]
},
{
"Name": "Qarku i Shkodrës",
"Code": "49",
"Provinces": [
{
"Name": "Bashkia Malësi e Madhe",
"Code": "10944413",
"Communities": [
{
"Places": [
{
"Name": "Bajze",
"PostCode": "4306",
"Location": {
"Latitude": 42.2853,
"Longitude": 19.4378
}
},
{
"Name": "Dedaj",
"PostCode": "4305",
"Location": {
"Latitude": 42.2947,
"Longitude": 19.5411
}
},
{
"Name": "Grizhe",
"PostCode": "4303",
"Location": {
"Latitude": 42.2667,
"Longitude": 19.4667
}
},
{
"Name": "Gruemire",
"PostCode": "4302",
"Location": {
"Latitude": 42.2008,
"Longitude": 19.4792
}
},
{
"Name": "Koplik",
"PostCode": "4301",
"Location": {
"Latitude": 42.2283,
"Longitude": 19.4667
}
},
{
"Name": "Tamare",
"PostCode": "4304",
"Location": {
"Latitude": 42.4631,
"Longitude": 19.5622
}
}
]
}
]
},
{
"Name": "Bashkia Pukë",
"Code": "10944414",
"Communities": [
{
"Places": [
{
"Name": "Blerim",
"PostCode": "4404",
"Location": {
"Latitude": 42.1606,
"Longitude": 20.1919
}
},
{
"Name": "Fushe-Arrez",
"PostCode": "4402",
"Location": {
"Latitude": 42.0622,
"Longitude": 20.0167
}
},
{
"Name": "Gjegjan",
"PostCode": "4408",
"Location": {
"Latitude": 41.9378,
"Longitude": 20.0111
}
},
{
"Name": "Iballe",
"PostCode": "4403",
"Location": {
"Latitude": 42.1875,
"Longitude": 20.0025
}
},
{
"Name": "Luf",
"PostCode": "4409",
"Location": {
"Latitude": 42.0236,
"Longitude": 19.8436
}
},
{
"Name": "Puke",
"PostCode": "4401",
"Location": {
"Latitude": 42.0444,
"Longitude": 19.8997
}
},
{
"Name": "Qafe Mali",
"PostCode": "4406",
"Location": {
"Latitude": 42.0933,
"Longitude": 20.0906
}
},
{
"Name": "Qelez",
"PostCode": "4405",
"Location": {
"Latitude": 42.0897,
"Longitude": 19.895
}
},
{
"Name": "Rrape (agjent postar)",
"PostCode": "4407",
"Location": {
"Latitude": 42.0749,
"Longitude": 19.9939
}
}
]
}
]
},
{
"Name": "Bashkia Shkodër",
"Code": "10944415",
"Communities": [
{
"Places": [
{
"Name": "Ashte (agjent postar)",
"PostCode": "4023",
"Location": {
"Latitude": 41.9503,
"Longitude": 19.5545
}
},
{
"Name": "Barbullush",
"PostCode": "4022",
"Location": {
"Latitude": 41.9264,
"Longitude": 19.55
}
},
{
"Name": "Berdice",
"PostCode": "4018",
"Location": {
"Latitude": 42.0153,
"Longitude": 19.4817
}
},
{
"Name": "Bushat",
"PostCode": "4021",
"Location": {
"Latitude": 41.9597,
"Longitude": 19.5342
}
},
{
"Name": "Dajc",
"PostCode": "4019",
"Location": {
"Latitude": 41.9917,
"Longitude": 19.4106
}
},
{
"Name": "Dobrac",
"PostCode": "4015",
"Location": {
"Latitude": 42.0822,
"Longitude": 19.5297
}
},
{
"Name": "Dukagjin",
"PostCode": "4009",
"Location": {
"Latitude": 42.1113,
"Longitude": 19.5309
}
},
{
"Name": "Fierze",
"PostCode": "4030",
"Location": {
"Latitude": 42.2606,
"Longitude": 20.0169
}
},
{
"Name": "Guri i ZI",
"PostCode": "4016",
"Location": {
"Latitude": 42.045,
"Longitude": 19.5747
}
},
{
"Name": "Hajmel",
"PostCode": "4029",
"Location": {
"Latitude": 41.9531,
"Longitude": 19.6378
}
},
{
"Name": "Kace (agjent postar)",
"PostCode": "4027",
"Location": {
"Latitude": 41.9503,
"Longitude": 19.5545
}
},
{
"Name": "Koman (agjent postar)",
"PostCode": "4013",
"Location": {
"Latitude": 42.0447,
"Longitude": 19.5028
}
},
{
"Name": "Mes",
"PostCode": "4012",
"Location": {
"Latitude": 42.1053,
"Longitude": 19.5708
}
},
{
"Name": "Mjede",
"PostCode": "4026",
"Location": {
"Latitude": 41.9969,
"Longitude": 19.6125
}
},
{
"Name": "Mnele-Vig (agjent postar)",
"PostCode": "4028",
"Location": {
"Latitude": 41.9503,
"Longitude": 19.5545
}
},
{
"Name": "Oblike",
"PostCode": "4017",
"Location": {
"Latitude": 42.0289,
"Longitude": 19.4492
}
},
{
"Name": "Pult (agjent postar)",
"PostCode": "4010",
"Location": {
"Latitude": 42.0447,
"Longitude": 19.5028
}
},
{
"Name": "Qender",
"PostCode": "4001",
"Location": {
"Latitude": 42.2125,
"Longitude": 19.437
}
},
{
"Name": "Rranza (agjent postar)",
"PostCode": "4025",
"Location": {
"Latitude": 41.9503,
"Longitude": 19.5545
}
},
{
"Name": "Shkoder 1",
"PostCode": "4002",
"Location": {
"Latitude": 42.1113,
"Longitude": 19.5309
}
},
{
"Name": "Shkoder 2",
"PostCode": "4003",
"Location": {
"Latitude": 42.1113,
"Longitude": 19.5309
}
},
{
"Name": "Shkoder 3",
"PostCode": "4004",
"Location": {
"Latitude": 42.1113,
"Longitude": 19.5309
}
},
{
"Name": "Shkoder 4",
"PostCode": "4005",
"Location": {
"Latitude": 42.1113,
"Longitude": 19.5309
}
},
{
"Name": "Shkoder 5",
"PostCode": "4006",
"Location": {
"Latitude": 42.1113,
"Longitude": 19.5309
}
},
{
"Name": "Shkoder 6",
"PostCode": "4007",
"Location": {
"Latitude": 42.1113,
"Longitude": 19.5309
}
},
{
"Name": "Shllak (agjent postar)",
"PostCode": "4014",
"Location": {
"Latitude": 42.0447,
"Longitude": 19.5028
}
},
{
"Name": "Shosh (agjent postar)",
"PostCode": "4011",
"Location": {
"Latitude": 42.0447,
"Longitude": 19.5028
}
},
{
"Name": "Stajke",
"PostCode": "4024",
"Location": {
"Latitude": 41.9872,
"Longitude": 19.5872
}
},
{
"Name": "Vau i Dejes",
"PostCode": "4008",
"Location": {
"Latitude": 42.01,
"Longitude": 19.6247
}
},
{
"Name": "Velipoje",
"PostCode": "4020",
"Location": {
"Latitude": 41.8783,
"Longitude": 19.4056
}
}
]
}
]
}
]
},
{
"Name": "Tirana",
"Code": "50",
"Provinces": [
{
"Name": "Bashkia Kamëz",
"Code": "10944417",
"Communities": [
{
"Places": [
{
"Name": "Babrru",
"PostCode": "1047",
"Location": {
"Latitude": 41.3542,
"Longitude": 19.8292
}
},
{
"Name": "Bathore",
"PostCode": "1054",
"Location": {
"Latitude": 41.3778,
"Longitude": 19.7617
}
},
{
"Name": "Kamez",
"PostCode": "1030",
"Location": {
"Latitude": 41.3817,
"Longitude": 19.7603
}
},
{
"Name": "Tirana Kamez",
"PostCode": "1029",
"Location": {
"Latitude": 41.3247,
"Longitude": 19.7974
}
},
{
"Name": "Tirane 11",
"PostCode": "1031",
"Location": {
"Latitude": 41.3073,
"Longitude": 19.7359
}
}
]
}
]
},
{
"Name": "Bashkia Kavajë",
"Code": "10944418",
"Communities": [
{
"Places": [
{
"Name": "Golem",
"PostCode": "2504",
"Location": {
"Latitude": 41.2417,
"Longitude": 19.5844
}
},
{
"Name": "Gose",
"PostCode": "2508",
"Location": {
"Latitude": 41.09,
"Longitude": 19.6231
}
},
{
"Name": "Helmas",
"PostCode": "2506",
"Location": {
"Latitude": 41.1803,
"Longitude": 19.6069
}
},
{
"Name": "Kavaja 1",
"PostCode": "2502",
"Location": {
"Latitude": 41.1443,
"Longitude": 19.6008
}
},
{
"Name": "Kavaja Qender",
"PostCode": "2501",
"Location": {
"Latitude": 41.1443,
"Longitude": 19.6008
}
},
{
"Name": "Kryevidh",
"PostCode": "2510",
"Location": {
"Latitude": 41.1006,
"Longitude": 19.5275
}
},
{
"Name": "Lekaj",
"PostCode": "2507",
"Location": {
"Latitude": 41.1144,
"Longitude": 19.6097
}
},
{
"Name": "Luz i Vogel",
"PostCode": "2509",
"Location": {
"Latitude": 41.1275,
"Longitude": 19.5739
}
},
{
"Name": "Rrogozhine",
"PostCode": "2503",
"Location": {
"Latitude": 41.0764,
"Longitude": 19.6653
}
},
{
"Name": "Sinaballaj",
"PostCode": "2511",
"Location": {
"Latitude": 41.0689,
"Longitude": 19.6994
}
},
{
"Name": "Synej",
"PostCode": "2505",
"Location": {
"Latitude": 41.18,
"Longitude": 19.5425
}
}
]
}
]
},
{
"Name": "Bashkia Tiranë",
"Code": "10944420",
"Communities": [
{
"Places": [
{
"Name": "Baldushk",
"PostCode": "1035",
"Location": {
"Latitude": 41.2139,
"Longitude": 19.7969
}
},
{
"Name": "Berzhite",
"PostCode": "1037",
"Location": {
"Latitude": 41.2453,
"Longitude": 19.9011
}
},
{
"Name": "EMS",
"PostCode": "1800",
"Location": {
"Latitude": 41.3275,
"Longitude": 19.8189
}
},
{
"Name": "Farke",
"PostCode": "1045",
"Location": {
"Latitude": 41.3056,
"Longitude": 19.8669
}
},
{
"Name": "Kashar",
"PostCode": "1051",
"Location": {
"Latitude": 41.3497,
"Longitude": 19.7103
}
},
{
"Name": "Krrabe",
"PostCode": "1049",
"Location": {
"Latitude": 41.2156,
"Longitude": 19.9714
}
},
{
"Name": "Mezez",
"PostCode": "1050",
"Location": {
"Latitude": 41.3344,
"Longitude": 19.7636
}
},
{
"Name": "Ndroq",
"PostCode": "1036",
"Location": {
"Latitude": 41.2639,
"Longitude": 19.6558
}
},
{
"Name": "Petrele",
"PostCode": "1034",
"Location": {
"Latitude": 41.2531,
"Longitude": 19.8531
}
},
{
"Name": "Peze",
"PostCode": "1038",
"Location": {
"Latitude": 41.2175,
"Longitude": 19.6961
}
},
{
"Name": "Priske (Dajt)",
"PostCode": "1040",
"Location": {
"Latitude": 41.3192,
"Longitude": 19.9292
}
},
{
"Name": "Sauk",
"PostCode": "1044",
"Location": {
"Latitude": 41.3,
"Longitude": 19.8333
}
},
{
"Name": "Selite",
"PostCode": "1046",
"Location": {
"Latitude": 41.3108,
"Longitude": 19.775
}
},
{
"Name": "Shengjergj",
"PostCode": "1043",
"Location": {
"Latitude": 41.3361,
"Longitude": 20.1139
}
},
{
"Name": "Tirana 1, 29",
"PostCode": "1010",
"Location": {
"Latitude": 41.3247,
"Longitude": 19.7974
}
},
{
"Name": "Tirana 10",
"PostCode": "1007",
"Location": {
"Latitude": 41.3247,
"Longitude": 19.7974
}
},
{
"Name": "Tirana 13",
"PostCode": "1003",
"Location": {
"Latitude": 41.3247,
"Longitude": 19.7974
}
},
{
"Name": "Tirana 14 (22)",
"PostCode": "1005",
"Location": {
"Latitude": 41.3247,
"Longitude": 19.7974
}
},
{
"Name": "Tirana 18",
"PostCode": "1004",
"Location": {
"Latitude": 41.3247,
"Longitude": 19.7974
}
},
{
"Name": "Tirana 19",
"PostCode": "1012",
"Location": {
"Latitude": 41.3247,
"Longitude": 19.7974
}
},
{
"Name": "Tirana 21",
"PostCode": "1024",
"Location": {
"Latitude": 41.3247,
"Longitude": 19.7974
}
},
{
"Name": "Tirana 22",
"PostCode": "1006",
"Location": {
"Latitude": 41.3247,
"Longitude": 19.7974
}
},
{
"Name": "Tirana 23",
"PostCode": "1026",
"Location": {
"Latitude": 41.3247,
"Longitude": 19.7974
}
},
{
"Name": "Tirana 24",
"PostCode": "1013",
"Location": {
"Latitude": 41.3247,
"Longitude": 19.7974
}
},
{
"Name": "Tirana 26",
"PostCode": "1002",
"Location": {
"Latitude": 41.3247,
"Longitude": 19.7974
}
},
{
"Name": "Tirana 27",
"PostCode": "1014",
"Location": {
"Latitude": 41.3247,
"Longitude": 19.7974
}
},
{
"Name": "Tirana 28",
"PostCode": "1028",
"Location": {
"Latitude": 41.3247,
"Longitude": 19.7974
}
},
{
"Name": "Tirana 29",
"PostCode": "1011",
"Location": {
"Latitude": 41.3247,
"Longitude": 19.7974
}
},
{
"Name": "Tirana 3, 31",
"PostCode": "1017",
"Location": {
"Latitude": 41.3247,
"Longitude": 19.7974
}
},
{
"Name": "Tirana 30",
"PostCode": "1008",
"Location": {
"Latitude": 41.3247,
"Longitude": 19.7974
}
},
{
"Name": "Tirana 31",
"PostCode": "1018",
"Location": {
"Latitude": 41.3247,
"Longitude": 19.7974
}
},
{
"Name": "Tirana 32",
"PostCode": "1015",
"Location": {
"Latitude": 41.3247,
"Longitude": 19.7974
}
},
{
"Name": "Tirana 33",
"PostCode": "1022",
"Location": {
"Latitude": 41.3247,
"Longitude": 19.7974
}
},
{
"Name": "Tirana 4",
"PostCode": "1016",
"Location": {
"Latitude": 41.3247,
"Longitude": 19.7974
}
},
{
"Name": "Tirana 46",
"PostCode": "1009",
"Location": {
"Latitude": 41.3247,
"Longitude": 19.7974
}
},
{
"Name": "Tirana 5",
"PostCode": "1001",
"Location": {
"Latitude": 41.3247,
"Longitude": 19.7974
}
},
{
"Name": "Tirana 6, 29",
"PostCode": "1027",
"Location": {
"Latitude": 41.3247,
"Longitude": 19.7974
}
},
{
"Name": "Tirana 7, 23",
"PostCode": "1025",
"Location": {
"Latitude": 41.3247,
"Longitude": 19.7974
}
},
{
"Name": "Tirana 8",
"PostCode": "1019",
"Location": {
"Latitude": 41.3247,
"Longitude": 19.7974
}
},
{
"Name": "Tirana 8/1, 33",
"PostCode": "1020",
"Location": {
"Latitude": 41.3247,
"Longitude": 19.7974
}
},
{
"Name": "Tirana 8/1, 8/2, 33",
"PostCode": "1020",
"Location": {
"Latitude": 41.3247,
"Longitude": 19.7974
}
},
{
"Name": "Tirana 8/2",
"PostCode": "1021",
"Location": {
"Latitude": 41.3247,
"Longitude": 19.7974
}
},
{
"Name": "Tirana 9, 21",
"PostCode": "1023",
"Location": {
"Latitude": 41.3247,
"Longitude": 19.7974
}
},
{
"Name": "Tirana Kamez Institut",
"PostCode": "1029",
"Location": {
"Latitude": 41.3247,
"Longitude": 19.7974
}
},
{
"Name": "Tranzit",
"PostCode": "1700",
"Location": {
"Latitude": 41.3275,
"Longitude": 19.8189
}
},
{
"Name": "Vaqarr",
"PostCode": "1041",
"Location": {
"Latitude": 41.2992,
"Longitude": 19.7442
}
},
{
"Name": "Yzberisht",
"PostCode": "1052",
"Location": {
"Latitude": 41.3244,
"Longitude": 19.7703
}
},
{
"Name": "Zall-Bastar",
"PostCode": "1042",
"Location": {
"Latitude": 41.4297,
"Longitude": 19.9303
}
},
{
"Name": "Zall-Herr",
"PostCode": "1048",
"Location": {
"Latitude": 41.3894,
"Longitude": 19.8275
}
}
]
}
]
},
{
"Name": "Bashkia Vorë",
"Code": "10944421",
"Communities": [
{
"Places": [
{
"Name": "Berxull",
"PostCode": "1053",
"Location": {
"Latitude": 41.38,
"Longitude": 19.6875
}
},
{
"Name": "Preze",
"PostCode": "1039",
"Location": {
"Latitude": 41.4272,
"Longitude": 19.6728
}
},
{
"Name": "Tirana Marikaj",
"PostCode": "1033",
"Location": {
"Latitude": 41.3722,
"Longitude": 19.6322
}
},
{
"Name": "Vore",
"PostCode": "1032",
"Location": {
"Latitude": 41.3908,
"Longitude": 19.655
}
}
]
}
]
}
]
},
{
"Name": "Qarku i Vlorës",
"Code": "51",
"Provinces": [
{
"Name": "Bashkia Sarandë",
"Code": "10944426",
"Communities": [
{
"Places": [
{
"Name": "Aliko",
"PostCode": "9710",
"Location": {
"Latitude": 39.8586,
"Longitude": 20.0792
}
},
{
"Name": "Borsh",
"PostCode": "9714",
"Location": {
"Latitude": 40.0617,
"Longitude": 19.8575
}
},
{
"Name": "Cerkovic",
"PostCode": "9712",
"Location": {
"Latitude": 39.8269,
"Longitude": 20.2078
}
},
{
"Name": "Delvine",
"PostCode": "9704",
"Location": {
"Latitude": 39.9511,
"Longitude": 20.0978
}
},
{
"Name": "Finiq",
"PostCode": "9716",
"Location": {
"Latitude": 39.9064,
"Longitude": 20.0583
}
},
{
"Name": "Konispol",
"PostCode": "9705",
"Location": {
"Latitude": 39.6589,
"Longitude": 20.1814
}
},
{
"Name": "Ksamil",
"PostCode": "9706",
"Location": {
"Latitude": 39.7689,
"Longitude": 19.9997
}
},
{
"Name": "Livadhja",
"PostCode": "9721",
"Location": {
"Latitude": 39.7892,
"Longitude": 20.1219
}
},
{
"Name": "Lukove",
"PostCode": "9713",
"Location": {
"Latitude": 39.9922,
"Longitude": 19.9139
}
},
{
"Name": "Markat",
"PostCode": "9708",
"Location": {
"Latitude": 39.7328,
"Longitude": 20.1953
}
},
{
"Name": "Memoraq",
"PostCode": "9711",
"Location": {
"Latitude": 39.8483,
"Longitude": 20.1422
}
},
{
"Name": "Mesapotam",
"PostCode": "9717",
"Location": {
"Latitude": 39.9328,
"Longitude": 20.0314
}
},
{
"Name": "Piqeras",
"PostCode": "9715",
"Location": {
"Latitude": 40.0144,
"Longitude": 19.8911
}
},
{
"Name": "Qender Sarande",
"PostCode": "9701",
"Location": {
"Latitude": 39.7592,
"Longitude": 20.1144
}
},
{
"Name": "Rusan",
"PostCode": "9718",
"Location": {
"Latitude": 39.9539,
"Longitude": 20.075
}
},
{
"Name": "Saranda 1",
"PostCode": "9702",
"Location": {
"Latitude": 39.7592,
"Longitude": 20.1144
}
},
{
"Name": "Saranda Gjashte",
"PostCode": "9703",
"Location": {
"Latitude": 39.7592,
"Longitude": 20.1144
}
},
{
"Name": "Shales",
"PostCode": "9709",
"Location": {
"Latitude": 39.715,
"Longitude": 20.1578
}
},
{
"Name": "Stjar",
"PostCode": "9719",
"Location": {
"Latitude": 39.9322,
"Longitude": 20.0578
}
},
{
"Name": "Vergo",
"PostCode": "9720",
"Location": {
"Latitude": 40.0067,
"Longitude": 20.0089
}
},
{
"Name": "Xarre",
"PostCode": "9707",
"Location": {
"Latitude": 39.7283,
"Longitude": 20.0544
}
}
]
}
]
},
{
"Name": "Bashkia Vlorë",
"Code": "10944428",
"Communities": [
{
"Places": [
{
"Name": "Armen",
"PostCode": "9409",
"Location": {
"Latitude": 40.5364,
"Longitude": 19.5961
}
},
{
"Name": "Babice",
"PostCode": "9423",
"Location": {
"Latitude": 40.4841,
"Longitude": 19.5143
}
},
{
"Name": "Bestrove",
"PostCode": "9419",
"Location": {
"Latitude": 40.5177,
"Longitude": 19.4848
}
},
{
"Name": "Brataj",
"PostCode": "9408",
"Location": {
"Latitude": 40.2678,
"Longitude": 19.6692
}
},
{
"Name": "Dhermi",
"PostCode": "9422",
"Location": {
"Latitude": 40.1514,
"Longitude": 19.6389
}
},
{
"Name": "Gjorm",
"PostCode": "9421",
"Location": {
"Latitude": 40.3164,
"Longitude": 19.6442
}
},
{
"Name": "Himare",
"PostCode": "9425",
"Location": {
"Latitude": 40.1017,
"Longitude": 19.7447
}
},
{
"Name": "Kote",
"PostCode": "9407",
"Location": {
"Latitude": 40.3894,
"Longitude": 19.6022
}
},
{
"Name": "Kuc",
"PostCode": "9418",
"Location": {
"Latitude": 40.1751,
"Longitude": 19.8394
}
},
{
"Name": "Mesaplik",
"PostCode": "9424",
"Location": {
"Latitude": 40.2561,
"Longitude": 19.7111
}
},
{
"Name": "Narte",
"PostCode": "9414",
"Location": {
"Latitude": 40.4979,
"Longitude": 19.4562
}
},
{
"Name": "Novosele",
"PostCode": "9411",
"Location": {
"Latitude": 40.625,
"Longitude": 19.4669
}
},
{
"Name": "Orikum",
"PostCode": "9426",
"Location": {
"Latitude": 40.3253,
"Longitude": 19.4714
}
},
{
"Name": "Qeparo",
"PostCode": "9416",
"Location": {
"Latitude": 40.056,
"Longitude": 19.8269
}
},
{
"Name": "Ramice",
"PostCode": "9415",
"Location": {
"Latitude": 40.3069,
"Longitude": 19.6972
}
},
{
"Name": "Selenice",
"PostCode": "9427",
"Location": {
"Latitude": 40.5306,
"Longitude": 19.6358
}
},
{
"Name": "Sevaster",
"PostCode": "9410",
"Location": {
"Latitude": 40.3964,
"Longitude": 19.7297
}
},
{
"Name": "Shushice",
"PostCode": "9406",
"Location": {
"Latitude": 40.4192,
"Longitude": 19.596
}
},
{
"Name": "Skele-Vlore",
"PostCode": "9404",
"Location": {
"Latitude": 40.4192,
"Longitude": 19.596
}
},
{
"Name": "Terbac (Vranisht)",
"PostCode": "9413",
"Location": {
"Latitude": 40.2461,
"Longitude": 19.6456
}
},
{
"Name": "Trevllazer",
"PostCode": "9420",
"Location": {
"Latitude": 40.5786,
"Longitude": 19.5095
}
},
{
"Name": "Uji Ftohte",
"PostCode": "9405",
"Location": {
"Latitude": 40.4192,
"Longitude": 19.596
}
},
{
"Name": "Vllahine",
"PostCode": "9412",
"Location": {
"Latitude": 40.4569,
"Longitude": 19.6436
}
},
{
"Name": "Vlora Qender",
"PostCode": "9401",
"Location": {
"Latitude": 40.4833,
"Longitude": 19.5167
}
},
{
"Name": "Vlora-1",
"PostCode": "9402",
"Location": {
"Latitude": 40.4192,
"Longitude": 19.596
}
},
{
"Name": "Vlora-2",
"PostCode": "9403",
"Location": {
"Latitude": 40.4192,
"Longitude": 19.596
}
},
{
"Name": "Vuno",
"PostCode": "9417",
"Location": {
"Latitude": 40.1397,
"Longitude": 19.6936
}
}
]
}
]
}
]
}
]