[
{
"Name": "Burgenland",
"Code": "01",
"Provinces": [
{
"Name": "Eisenstadt Stadt",
"Code": "101",
"PostCode": "7000",
"Communities": [
{
"Name": "Eisenstadt",
"Code": "10101",
"Places": [
{
"Name": "Eisenstadt",
"PostCode": "7000",
"Latitude": 47.8457,
"Longitude": 16.5233
},
{
"Name": "Kleinhöflein im Burgenland",
"PostCode": "7000",
"Latitude": 47.8415,
"Longitude": 16.5041
},
{
"Name": "Sankt Georgen am Leithagebirge",
"PostCode": "7000",
"Latitude": 47.85,
"Longitude": 16.55
}
],
"PostCode": "7000"
}
]
},
{
"Name": "Rust Stadt",
"Code": "102",
"PostCode": "7071",
"Communities": [
{
"Name": "Rust",
"Code": "10201",
"Places": [
{
"Name": "Rust",
"PostCode": "7071",
"Latitude": 47.8012,
"Longitude": 16.6716
}
],
"PostCode": "7071"
}
]
},
{
"Name": "Eisenstadt-Umgebung",
"Code": "103",
"Communities": [
{
"Name": "Breitenbrunn am Neusiedler See",
"Code": "10301",
"Places": [
{
"Name": "Breitenbrunn",
"PostCode": "7091",
"Latitude": 47.9445,
"Longitude": 16.7315
}
],
"PostCode": "7091"
},
{
"Name": "Donnerskirchen",
"Code": "10302",
"Places": [
{
"Name": "Donnerskirchen",
"PostCode": "7082",
"Latitude": 47.8942,
"Longitude": 16.6463
}
],
"PostCode": "7082"
},
{
"Name": "Großhöflein",
"Code": "10303",
"Places": [
{
"Name": "Großhöflein",
"PostCode": "7051",
"Latitude": 47.8359,
"Longitude": 16.4804
}
],
"PostCode": "7051"
},
{
"Name": "Hornstein",
"Code": "10304",
"Places": [
{
"Name": "Hornstein / Vorištan",
"PostCode": "2491",
"Latitude": 47.8805,
"Longitude": 16.4445
},
{
"Name": "Hornstein / Vorištan",
"PostCode": "7053",
"Latitude": 47.8805,
"Longitude": 16.4445
}
]
},
{
"Name": "Klingenbach",
"Code": "10305",
"Places": [
{
"Name": "Klingenbach / Klimpuh",
"PostCode": "7013",
"Latitude": 47.7728,
"Longitude": 16.5281
}
],
"PostCode": "7013"
},
{
"Name": "Leithaprodersdorf",
"Code": "10306",
"Places": [
{
"Name": "Leithaprodersdorf",
"PostCode": "2443",
"Latitude": 47.9335,
"Longitude": 16.4791
}
],
"PostCode": "2443"
},
{
"Name": "Mörbisch am See",
"Code": "10307",
"Places": [
{
"Name": "Mörbisch am See",
"PostCode": "7072",
"Latitude": 47.75,
"Longitude": 16.6667
}
],
"PostCode": "7072"
},
{
"Name": "Müllendorf",
"Code": "10308",
"Places": [
{
"Name": "Müllendorf",
"PostCode": "7052",
"Latitude": 47.8394,
"Longitude": 16.4626
}
],
"PostCode": "7052"
},
{
"Name": "Neufeld an der Leitha",
"Code": "10309",
"Places": [
{
"Name": "Neufeld an der Leitha",
"PostCode": "2491",
"Latitude": 47.8656,
"Longitude": 16.3786
}
],
"PostCode": "2491"
},
{
"Name": "Oggau am Neusiedler See",
"Code": "10310",
"Places": [
{
"Name": "Oggau am Neusiedler See",
"PostCode": "7063",
"Latitude": 47.8333,
"Longitude": 16.6667
}
],
"PostCode": "7063"
},
{
"Name": "Oslip",
"Code": "10311",
"Places": [
{
"Name": "Oslip / Uzlop",
"PostCode": "7064",
"Latitude": 47.8291,
"Longitude": 16.6196
}
],
"PostCode": "7064"
},
{
"Name": "Purbach am Neusiedler See",
"Code": "10312",
"Places": [
{
"Name": "Purbach am Neusiedler See",
"PostCode": "7083",
"Latitude": 47.9129,
"Longitude": 16.6956
}
],
"PostCode": "7083"
},
{
"Name": "Sankt Margarethen im Burgenland",
"Code": "10313",
"Places": [
{
"Name": "Sankt Margarethen im Burgenland",
"PostCode": "7062",
"Latitude": 47.8034,
"Longitude": 16.6088
}
],
"PostCode": "7062"
},
{
"Name": "Schützen am Gebirge",
"Code": "10314",
"Places": [
{
"Name": "Schützen am Gebirge",
"PostCode": "7081",
"Latitude": 47.8523,
"Longitude": 16.6233
}
],
"PostCode": "7081"
},
{
"Name": "Siegendorf",
"Code": "10315",
"Places": [
{
"Name": "Siegendorf / Cindrof",
"PostCode": "7011",
"Latitude": 47.781,
"Longitude": 16.5423
}
],
"PostCode": "7011"
},
{
"Name": "Steinbrunn",
"Code": "10316",
"Places": [
{
"Name": "Steinbrunn / Štikapron",
"PostCode": "2491",
"Latitude": 47.8333,
"Longitude": 16.4167
},
{
"Name": "Steinbrunn / Štikapron",
"PostCode": "7035",
"Latitude": 47.8333,
"Longitude": 16.4167
}
]
},
{
"Name": "Trausdorf an der Wulka",
"Code": "10317",
"Places": [
{
"Name": "Trausdorf an der Wulka / Trajštof",
"PostCode": "7061",
"Latitude": 47.8219,
"Longitude": 16.6317
}
],
"PostCode": "7061"
},
{
"Name": "Wimpassing an der Leitha",
"Code": "10318",
"Places": [
{
"Name": "Wimpassing an der Leitha",
"PostCode": "2485",
"Latitude": 47.9167,
"Longitude": 16.4333
}
],
"PostCode": "2485"
},
{
"Name": "Wulkaprodersdorf",
"Code": "10319",
"Places": [
{
"Name": "Wulkaprodersdorf / Vulkaprodrštof",
"PostCode": "7041",
"Latitude": 47.7975,
"Longitude": 16.5045
}
],
"PostCode": "7041"
},
{
"Name": "Loretto",
"Code": "10320",
"Places": [
{
"Name": "Loretto",
"PostCode": "2443",
"Latitude": 47.9156,
"Longitude": 16.5179
}
],
"PostCode": "2443"
},
{
"Name": "Stotzing",
"Code": "10321",
"Places": [
{
"Name": "Stotzing",
"PostCode": "2443",
"Latitude": 47.9,
"Longitude": 16.55
}
],
"PostCode": "2443"
},
{
"Name": "Zillingtal",
"Code": "10322",
"Places": [
{
"Name": "Zillingtal / Celindof",
"PostCode": "7033",
"Latitude": 47.7997,
"Longitude": 16.3994
},
{
"Name": "Zillingtal / Celindof",
"PostCode": "7034",
"Latitude": 47.7997,
"Longitude": 16.3994
},
{
"Name": "Zillingtal / Celindof",
"PostCode": "7035",
"Latitude": 47.7997,
"Longitude": 16.3994
}
]
},
{
"Name": "Zagersdorf",
"Code": "10323",
"Places": [
{
"Name": "Zagersdorf / Cogrštof",
"PostCode": "7012",
"Latitude": 47.7647,
"Longitude": 16.5138
}
],
"PostCode": "7012"
}
]
},
{
"Name": "Politischer Bezirk Güssing",
"Code": "104",
"Communities": [
{
"Name": "Bocksdorf",
"Code": "10401",
"Places": [
{
"Name": "Bocksdorf",
"PostCode": "7551",
"Latitude": 47.1333,
"Longitude": 16.1667
}
],
"PostCode": "7551"
},
{
"Name": "Burgauberg-Neudauberg",
"Code": "10402",
"Places": [
{
"Name": "Burgauberg",
"PostCode": "8291",
"Latitude": 47.1477,
"Longitude": 16.1235
},
{
"Name": "Neudauberg",
"PostCode": "8292",
"Latitude": 47.1717,
"Longitude": 16.1195
}
]
},
{
"Name": "Eberau",
"Code": "10403",
"Places": [
{
"Name": "Eberau",
"PostCode": "7521",
"Latitude": 47.1076,
"Longitude": 16.4604
},
{
"Name": "Gaas",
"PostCode": "7521",
"Latitude": 47.0824,
"Longitude": 16.463
},
{
"Name": "Kroatisch Ehrensdorf",
"PostCode": "7522",
"Latitude": 47.1175,
"Longitude": 16.4024
},
{
"Name": "Kulm im Burgenland",
"PostCode": "7521",
"Latitude": 47.104,
"Longitude": 16.4524
},
{
"Name": "Winten",
"PostCode": "7521",
"Latitude": 47.1171,
"Longitude": 16.4445
}
]
},
{
"Name": "Gerersdorf-Sulz",
"Code": "10404",
"Places": [
{
"Name": "Gerersdorf bei Güssing",
"PostCode": "7542",
"Latitude": 47.0667,
"Longitude": 16.25
},
{
"Name": "Rehgraben",
"PostCode": "7540",
"Latitude": 47.0833,
"Longitude": 16.2333
},
{
"Name": "Sulz im Burgenland",
"PostCode": "7540",
"Latitude": 47.0748,
"Longitude": 16.2696
},
{
"Name": "Sulz im Burgenland",
"PostCode": "7542",
"Latitude": 47.0748,
"Longitude": 16.2696
}
]
},
{
"Name": "Güssing",
"Code": "10405",
"Places": [
{
"Name": "Glasing",
"PostCode": "7540",
"Latitude": 47.0433,
"Longitude": 16.3575
},
{
"Name": "Güssing",
"PostCode": "7540",
"Latitude": 47.0594,
"Longitude": 16.3243
},
{
"Name": "Krottendorf",
"PostCode": "7540",
"Latitude": 47.0595,
"Longitude": 16.3071
},
{
"Name": "Sankt Nikolaus",
"PostCode": "7540",
"Latitude": 47.0462,
"Longitude": 16.3323
},
{
"Name": "Steingraben",
"PostCode": "7542",
"Latitude": 47.0643,
"Longitude": 16.2743
},
{
"Name": "Urbersdorf",
"PostCode": "7540",
"Latitude": 47.0576,
"Longitude": 16.3729
}
]
},
{
"Name": "Güttenbach",
"Code": "10406",
"Places": [
{
"Name": "Güttenbach / Pinkovac",
"PostCode": "7536",
"Latitude": 47.1667,
"Longitude": 16.3
}
],
"PostCode": "7536"
},
{
"Name": "Heiligenbrunn",
"Code": "10407",
"Places": [
{
"Name": "Deutsch Bieling",
"PostCode": "7522",
"Latitude": 47.0167,
"Longitude": 16.4333
},
{
"Name": "Hagensdorf im Burgenland",
"PostCode": "7522",
"Latitude": 47.0145,
"Longitude": 16.4554
},
{
"Name": "Heiligenbrunn",
"PostCode": "7522",
"Latitude": 47.027,
"Longitude": 16.4169
},
{
"Name": "Luising",
"PostCode": "7522",
"Latitude": 47.0139,
"Longitude": 16.4794
},
{
"Name": "Reinersdorf",
"PostCode": "7522",
"Latitude": 47.0104,
"Longitude": 16.3888
}
],
"PostCode": "7522"
},
{
"Name": "Kukmirn",
"Code": "10408",
"Places": [
{
"Name": "Eisenhüttl",
"PostCode": "7543",
"Latitude": 47.1,
"Longitude": 16.2
},
{
"Name": "Kukmirn",
"PostCode": "7543",
"Latitude": 47.0754,
"Longitude": 16.2103
},
{
"Name": "Limbach",
"PostCode": "7543",
"Latitude": 47.0667,
"Longitude": 16.1667
},
{
"Name": "Neusiedl",
"PostCode": "7543",
"Latitude": 47.1,
"Longitude": 16.1833
}
],
"PostCode": "7543"
},
{
"Name": "Neuberg im Burgenland",
"Code": "10409",
"Places": [
{
"Name": "Neuberg im Burgenland / Nova Gora",
"PostCode": "7537",
"Latitude": 47.1591,
"Longitude": 16.2209
}
],
"PostCode": "7537"
},
{
"Name": "Neustift bei Güssing",
"Code": "10410",
"Places": [
{
"Name": "Neustift bei Güssing",
"PostCode": "7540",
"Latitude": 47.0167,
"Longitude": 16.2667
}
],
"PostCode": "7540"
},
{
"Name": "Olbendorf",
"Code": "10411",
"Places": [
{
"Name": "Olbendorf",
"PostCode": "7534",
"Latitude": 47.1833,
"Longitude": 16.2
}
],
"PostCode": "7534"
},
{
"Name": "Ollersdorf im Burgenland",
"Code": "10412",
"Places": [
{
"Name": "Ollersdorf im Burgenland",
"PostCode": "7533",
"Latitude": 47.1833,
"Longitude": 16.1667
}
],
"PostCode": "7533"
},
{
"Name": "Sankt Michael im Burgenland",
"Code": "10413",
"Places": [
{
"Name": "Gamischdorf",
"PostCode": "7535",
"Latitude": 47.1078,
"Longitude": 16.2591
},
{
"Name": "Sankt Michael im Burgenland",
"PostCode": "7535",
"Latitude": 47.1333,
"Longitude": 16.2667
},
{
"Name": "Schallendorf im Burgenland",
"PostCode": "7535",
"Latitude": 47.1167,
"Longitude": 16.25
}
],
"PostCode": "7535"
},
{
"Name": "Stegersbach",
"Code": "10414",
"Places": [
{
"Name": "Stegersbach",
"PostCode": "7551",
"Latitude": 47.1667,
"Longitude": 16.1667
}
],
"PostCode": "7551"
},
{
"Name": "Stinatz",
"Code": "10415",
"Places": [
{
"Name": "Stinatz / Stinjaki",
"PostCode": "7552",
"Latitude": 47.2,
"Longitude": 16.1167
}
],
"PostCode": "7552"
},
{
"Name": "Strem",
"Code": "10416",
"Places": [
{
"Name": "Deutsch Ehrensdorf",
"PostCode": "7522",
"Latitude": 47.0979,
"Longitude": 16.4142
},
{
"Name": "Steinfurt",
"PostCode": "7522",
"Latitude": 47.0667,
"Longitude": 16.4167
},
{
"Name": "Strem",
"PostCode": "7522",
"Latitude": 47.045,
"Longitude": 16.4143
},
{
"Name": "Sumetendorf",
"PostCode": "7522",
"Latitude": 47.0445,
"Longitude": 16.3935
}
],
"PostCode": "7522"
},
{
"Name": "Tobaj",
"Code": "10417",
"Places": [
{
"Name": "Deutsch Tschantschendorf",
"PostCode": "7544",
"Latitude": 47.1,
"Longitude": 16.2833
},
{
"Name": "Hasendorf im Burgenland",
"PostCode": "7544",
"Latitude": 47.0833,
"Longitude": 16.3
},
{
"Name": "Kroatisch Tschantschendorf",
"PostCode": "7544",
"Latitude": 47.0974,
"Longitude": 16.2864
},
{
"Name": "Punitz",
"PostCode": "7544",
"Latitude": 47.1167,
"Longitude": 16.35
},
{
"Name": "Tobaj",
"PostCode": "7544",
"Latitude": 47.0833,
"Longitude": 16.3
},
{
"Name": "Tudersdorf",
"PostCode": "7544",
"Latitude": 47.1,
"Longitude": 16.2833
}
],
"PostCode": "7544"
},
{
"Name": "Hackerberg",
"Code": "10418",
"Places": [
{
"Name": "Hackerberg",
"PostCode": "8292",
"Latitude": 47.2,
"Longitude": 16.1167
}
],
"PostCode": "8292"
},
{
"Name": "Wörterberg",
"Code": "10419",
"Places": [
{
"Name": "Wörterberg",
"PostCode": "8293",
"Latitude": 47.2167,
"Longitude": 16.1
}
],
"PostCode": "8293"
},
{
"Name": "Großmürbisch",
"Code": "10420",
"Places": [
{
"Name": "Großmürbisch",
"PostCode": "7540",
"Latitude": 47.0164,
"Longitude": 16.362
}
],
"PostCode": "7540"
},
{
"Name": "Inzenhof",
"Code": "10421",
"Places": [
{
"Name": "Inzenhof",
"PostCode": "7540",
"Latitude": 47.0167,
"Longitude": 16.3167
}
],
"PostCode": "7540"
},
{
"Name": "Kleinmürbisch",
"Code": "10422",
"Places": [
{
"Name": "Kleinmürbisch",
"PostCode": "7540",
"Latitude": 47.033,
"Longitude": 16.3245
}
],
"PostCode": "7540"
},
{
"Name": "Tschanigraben",
"Code": "10423",
"Places": [
{
"Name": "Tschanigraben",
"PostCode": "7540",
"Latitude": 47.0677,
"Longitude": 16.2921
}
],
"PostCode": "7540"
},
{
"Name": "Heugraben",
"Code": "10424",
"Places": [
{
"Name": "Heugraben",
"PostCode": "7551",
"Latitude": 47.1167,
"Longitude": 16.1833
}
],
"PostCode": "7551"
},
{
"Name": "Rohr im Burgenland",
"Code": "10425",
"Places": [
{
"Name": "Rohr im Burgenland",
"PostCode": "7551",
"Latitude": 47.1167,
"Longitude": 16.1667
}
],
"PostCode": "7551"
},
{
"Name": "Bildein",
"Code": "10426",
"Places": [
{
"Name": "Oberbildein",
"PostCode": "7521",
"Latitude": 47.1333,
"Longitude": 16.4667
},
{
"Name": "Unterbildein",
"PostCode": "7521",
"Latitude": 47.1284,
"Longitude": 16.4679
}
],
"PostCode": "7521"
},
{
"Name": "Rauchwart",
"Code": "10427",
"Places": [
{
"Name": "Rauchwart",
"PostCode": "7534",
"Latitude": 47.1333,
"Longitude": 16.2333
},
{
"Name": "Rauchwart",
"PostCode": "7535",
"Latitude": 47.1333,
"Longitude": 16.2333
}
]
},
{
"Name": "Moschendorf",
"Code": "10428",
"Places": [
{
"Name": "Moschendorf",
"PostCode": "7540",
"Latitude": 47.0584,
"Longitude": 16.4773
}
],
"PostCode": "7540"
}
]
},
{
"Name": "Politischer Bezirk Jennersdorf",
"Code": "105",
"Communities": [
{
"Name": "Deutsch Kaltenbrunn",
"Code": "10501",
"Places": [
{
"Name": "Deutsch Kaltenbrunn",
"PostCode": "7572",
"Latitude": 47.0879,
"Longitude": 16.1079
},
{
"Name": "Rohrbrunn",
"PostCode": "7572",
"Latitude": 47.1244,
"Longitude": 16.1151
}
],
"PostCode": "7572"
},
{
"Name": "Eltendorf",
"Code": "10502",
"Places": [
{
"Name": "Eltendorf",
"PostCode": "7562",
"Latitude": 47.0,
"Longitude": 16.2
},
{
"Name": "Zahling",
"PostCode": "7562",
"Latitude": 47.0333,
"Longitude": 16.2
}
],
"PostCode": "7562"
},
{
"Name": "Heiligenkreuz im Lafnitztal",
"Code": "10503",
"Places": [
{
"Name": "Heiligenkreuz im Lafnitztal",
"PostCode": "7561",
"Latitude": 46.9892,
"Longitude": 16.2608
},
{
"Name": "Poppendorf im Burgenland",
"PostCode": "7561",
"Latitude": 46.9969,
"Longitude": 16.225
}
],
"PostCode": "7561"
},
{
"Name": "Jennersdorf",
"Code": "10504",
"Places": [
{
"Name": "Grieselstein",
"PostCode": "8380",
"Latitude": 46.9525,
"Longitude": 16.12
},
{
"Name": "Henndorf im Burgenland",
"PostCode": "8282",
"Latitude": 46.982,
"Longitude": 16.1459
},
{
"Name": "Henndorf im Burgenland",
"PostCode": "8380",
"Latitude": 46.982,
"Longitude": 16.1459
},
{
"Name": "Jennersdorf",
"PostCode": "8380",
"Latitude": 46.9385,
"Longitude": 16.1416
},
{
"Name": "Rax",
"PostCode": "8380",
"Latitude": 46.9333,
"Longitude": 16.1667
}
]
},
{
"Name": "Minihof-Liebau",
"Code": "10505",
"Places": [
{
"Name": "Minihof-Liebau",
"PostCode": "8384",
"Latitude": 46.9173,
"Longitude": 16.1252
},
{
"Name": "Tauka",
"PostCode": "8384",
"Latitude": 46.8647,
"Longitude": 16.0789
},
{
"Name": "Windisch-Minihof",
"PostCode": "8384",
"Latitude": 46.8908,
"Longitude": 16.0954
}
],
"PostCode": "8384"
},
{
"Name": "Mogersdorf",
"Code": "10506",
"Places": [
{
"Name": "Deutsch Minihof",
"PostCode": "8382",
"Latitude": 46.9708,
"Longitude": 16.2426
},
{
"Name": "Mogersdorf",
"PostCode": "8382",
"Latitude": 46.9492,
"Longitude": 16.2322
},
{
"Name": "Wallendorf",
"PostCode": "8382",
"Latitude": 46.9719,
"Longitude": 16.2333
}
],
"PostCode": "8382"
},
{
"Name": "Neuhaus am Klausenbach",
"Code": "10507",
"Places": [
{
"Name": "Bonisdorf",
"PostCode": "8384",
"Latitude": 46.8444,
"Longitude": 16.0497
},
{
"Name": "Bonisdorf",
"PostCode": "8385",
"Latitude": 46.8444,
"Longitude": 16.0497
},
{
"Name": "Kalch",
"PostCode": "8385",
"Latitude": 46.85,
"Longitude": 16.0167
},
{
"Name": "Krottendorf bei Neuhaus am Klausenbach",
"PostCode": "8385",
"Latitude": 46.85,
"Longitude": 16.0167
},
{
"Name": "Neuhaus am Klausenbach",
"PostCode": "8385",
"Latitude": 46.8667,
"Longitude": 16.0333
}
]
},
{
"Name": "Rudersdorf",
"Code": "10508",
"Places": [
{
"Name": "Dobersdorf",
"PostCode": "7564",
"Latitude": 47.0167,
"Longitude": 16.1333
},
{
"Name": "Rudersdorf",
"PostCode": "7564",
"Latitude": 47.05,
"Longitude": 16.1167
},
{
"Name": "Rudersdorf",
"PostCode": "7571",
"Latitude": 47.05,
"Longitude": 16.1167
}
]
},
{
"Name": "Sankt Martin an der Raab",
"Code": "10509",
"Places": [
{
"Name": "Doiber",
"PostCode": "8383",
"Latitude": 46.9222,
"Longitude": 16.1153
},
{
"Name": "Eisenberg an der Raab",
"PostCode": "8383",
"Latitude": 46.9,
"Longitude": 16.1333
},
{
"Name": "Gritsch",
"PostCode": "8383",
"Latitude": 46.9244,
"Longitude": 16.1053
},
{
"Name": "Neumarkt an der Raab",
"PostCode": "8380",
"Latitude": 46.9269,
"Longitude": 16.1667
},
{
"Name": "Oberdrosen",
"PostCode": "8383",
"Latitude": 46.889,
"Longitude": 16.1203
},
{
"Name": "Oberdrosen",
"PostCode": "8384",
"Latitude": 46.889,
"Longitude": 16.1203
},
{
"Name": "Sankt Martin an der Raab",
"PostCode": "8383",
"Latitude": 46.9225,
"Longitude": 16.1361
},
{
"Name": "Welten",
"PostCode": "8350",
"Latitude": 46.9292,
"Longitude": 16.0825
},
{
"Name": "Welten",
"PostCode": "8383",
"Latitude": 46.9292,
"Longitude": 16.0825
},
{
"Name": "Welten",
"PostCode": "8385",
"Latitude": 46.9292,
"Longitude": 16.0825
}
]
},
{
"Name": "Weichselbaum",
"Code": "10510",
"Places": [
{
"Name": "Krobotek",
"PostCode": "8382",
"Latitude": 46.9715,
"Longitude": 16.1921
},
{
"Name": "Maria Bild",
"PostCode": "8382",
"Latitude": 46.9589,
"Longitude": 16.1897
},
{
"Name": "Rosendorf",
"PostCode": "8382",
"Latitude": 46.9797,
"Longitude": 16.2103
},
{
"Name": "Weichselbaum",
"PostCode": "8382",
"Latitude": 46.9425,
"Longitude": 16.1875
}
],
"PostCode": "8382"
},
{
"Name": "Königsdorf",
"Code": "10511",
"Places": [
{
"Name": "Königsdorf",
"PostCode": "7563",
"Latitude": 47.0,
"Longitude": 16.1667
}
],
"PostCode": "7563"
},
{
"Name": "Mühlgraben",
"Code": "10512",
"Places": [
{
"Name": "Mühlgraben",
"PostCode": "8385",
"Latitude": 46.8897,
"Longitude": 16.0408
}
],
"PostCode": "8385"
}
]
},
{
"Name": "Politischer Bezirk Mattersburg",
"Code": "106",
"Communities": [
{
"Name": "Draßburg",
"Code": "10601",
"Places": [
{
"Name": "Draßburg / Rasporak",
"PostCode": "7021",
"Latitude": 47.7465,
"Longitude": 16.4868
}
],
"PostCode": "7021"
},
{
"Name": "Forchtenstein",
"Code": "10602",
"Places": [
{
"Name": "Forchtenstein",
"PostCode": "7212",
"Latitude": 47.7116,
"Longitude": 16.3453
}
],
"PostCode": "7212"
},
{
"Name": "Hirm",
"Code": "10603",
"Places": [
{
"Name": "Hirm",
"PostCode": "7024",
"Latitude": 47.7865,
"Longitude": 16.4546
}
],
"PostCode": "7024"
},
{
"Name": "Loipersbach im Burgenland",
"Code": "10604",
"Places": [
{
"Name": "Loipersbach im Burgenland",
"PostCode": "7020",
"Latitude": 47.6966,
"Longitude": 16.4792
}
],
"PostCode": "7020"
},
{
"Name": "Marz",
"Code": "10605",
"Places": [
{
"Name": "Marz",
"PostCode": "7221",
"Latitude": 47.7167,
"Longitude": 16.4167
}
],
"PostCode": "7221"
},
{
"Name": "Mattersburg",
"Code": "10606",
"Places": [
{
"Name": "Mattersburg",
"PostCode": "7210",
"Latitude": 47.7333,
"Longitude": 16.4
},
{
"Name": "Walbersdorf",
"PostCode": "7210",
"Latitude": 47.7333,
"Longitude": 16.4
}
],
"PostCode": "7210"
},
{
"Name": "Neudörfl",
"Code": "10607",
"Places": [
{
"Name": "Neudörfl",
"PostCode": "7201",
"Latitude": 47.7966,
"Longitude": 16.2977
}
],
"PostCode": "7201"
},
{
"Name": "Pöttelsdorf",
"Code": "10608",
"Places": [
{
"Name": "Pöttelsdorf",
"PostCode": "7023",
"Latitude": 47.7537,
"Longitude": 16.4386
}
],
"PostCode": "7023"
},
{
"Name": "Pöttsching",
"Code": "10609",
"Places": [
{
"Name": "Pöttsching",
"PostCode": "7033",
"Latitude": 47.8045,
"Longitude": 16.3711
},
{
"Name": "Pöttsching",
"PostCode": "7202",
"Latitude": 47.8045,
"Longitude": 16.3711
}
]
},
{
"Name": "Rohrbach bei Mattersburg",
"Code": "10610",
"Places": [
{
"Name": "Rohrbach bei Mattersburg",
"PostCode": "7222",
"Latitude": 47.7052,
"Longitude": 16.4301
}
],
"PostCode": "7222"
},
{
"Name": "Bad Sauerbrunn",
"Code": "10611",
"Places": [
{
"Name": "Bad Sauerbrunn",
"PostCode": "7202",
"Latitude": 47.7744,
"Longitude": 16.3284
}
],
"PostCode": "7202"
},
{
"Name": "Schattendorf",
"Code": "10612",
"Places": [
{
"Name": "Schattendorf",
"PostCode": "7022",
"Latitude": 47.7097,
"Longitude": 16.5098
}
],
"PostCode": "7022"
},
{
"Name": "Sieggraben",
"Code": "10613",
"Places": [
{
"Name": "Sieggraben",
"PostCode": "7223",
"Latitude": 47.6513,
"Longitude": 16.3799
}
],
"PostCode": "7223"
},
{
"Name": "Sigleß",
"Code": "10614",
"Places": [
{
"Name": "Sigleß",
"PostCode": "7032",
"Latitude": 47.7753,
"Longitude": 16.395
}
],
"PostCode": "7032"
},
{
"Name": "Wiesen",
"Code": "10615",
"Places": [
{
"Name": "Wiesen",
"PostCode": "7202",
"Latitude": 47.7378,
"Longitude": 16.338
},
{
"Name": "Wiesen",
"PostCode": "7203",
"Latitude": 47.7378,
"Longitude": 16.338
}
]
},
{
"Name": "Antau",
"Code": "10616",
"Places": [
{
"Name": "Antau / Otava",
"PostCode": "7042",
"Latitude": 47.7738,
"Longitude": 16.4798
}
],
"PostCode": "7042"
},
{
"Name": "Baumgarten",
"Code": "10617",
"Places": [
{
"Name": "Baumgarten / Pajngrt",
"PostCode": "7021",
"Latitude": 47.7389,
"Longitude": 16.5006
}
],
"PostCode": "7021"
},
{
"Name": "Zemendorf-Stöttera",
"Code": "10618",
"Places": [
{
"Name": "Stöttera",
"PostCode": "7023",
"Latitude": 47.7679,
"Longitude": 16.4611
},
{
"Name": "Zemendorf",
"PostCode": "7023",
"Latitude": 47.7628,
"Longitude": 16.4511
}
],
"PostCode": "7023"
},
{
"Name": "Krensdorf",
"Code": "10619",
"Places": [
{
"Name": "Krensdorf",
"PostCode": "7031",
"Latitude": 47.7855,
"Longitude": 16.4149
}
],
"PostCode": "7031"
}
]
},
{
"Name": "Politischer Bezirk Neusiedl am See",
"Code": "107",
"Communities": [
{
"Name": "Andau",
"Code": "10701",
"Places": [
{
"Name": "Andau",
"PostCode": "7163",
"Latitude": 47.7744,
"Longitude": 17.0329
}
],
"PostCode": "7163"
},
{
"Name": "Apetlon",
"Code": "10702",
"Places": [
{
"Name": "Apetlon",
"PostCode": "7132",
"Latitude": 47.743899999999996,
"Longitude": 16.8302
},
{
"Name": "Apetlon",
"PostCode": "7143",
"Latitude": 47.743899999999996,
"Longitude": 16.8302
},
{
"Name": "Apetlon",
"PostCode": "7161",
"Latitude": 47.743899999999996,
"Longitude": 16.8302
}
]
},
{
"Name": "Bruckneudorf",
"Code": "10703",
"Places": [
{
"Name": "Bruckneudorf",
"PostCode": "2460",
"Latitude": 48.0167,
"Longitude": 16.7833
},
{
"Name": "Kaisersteinbruch",
"PostCode": "2462",
"Latitude": 47.9881,
"Longitude": 16.7029
},
{
"Name": "Königshof",
"PostCode": "2462",
"Latitude": 48.0339,
"Longitude": 16.7207
}
]
},
{
"Name": "Deutsch Jahrndorf",
"Code": "10704",
"Places": [
{
"Name": "Deutsch Jahrndorf",
"PostCode": "2423",
"Latitude": 48.0167,
"Longitude": 17.1
}
],
"PostCode": "2423"
},
{
"Name": "Frauenkirchen",
"Code": "10705",
"Places": [
{
"Name": "Frauenkirchen",
"PostCode": "7132",
"Latitude": 47.8368,
"Longitude": 16.9258
}
],
"PostCode": "7132"
},
{
"Name": "Gattendorf",
"Code": "10706",
"Places": [
{
"Name": "Gattendorf",
"PostCode": "2474",
"Latitude": 48.0167,
"Longitude": 16.9833
}
],
"PostCode": "2474"
},
{
"Name": "Gols",
"Code": "10707",
"Places": [
{
"Name": "Gols",
"PostCode": "7122",
"Latitude": 47.8969,
"Longitude": 16.9111
}
],
"PostCode": "7122"
},
{
"Name": "Halbturn",
"Code": "10708",
"Places": [
{
"Name": "Halbturn",
"PostCode": "7131",
"Latitude": 47.8702,
"Longitude": 16.9754
}
],
"PostCode": "7131"
},
{
"Name": "Illmitz",
"Code": "10709",
"Places": [
{
"Name": "Illmitz",
"PostCode": "7142",
"Latitude": 47.7615,
"Longitude": 16.8002
}
],
"PostCode": "7142"
},
{
"Name": "Jois",
"Code": "10710",
"Places": [
{
"Name": "Jois",
"PostCode": "7093",
"Latitude": 47.9617,
"Longitude": 16.796
}
],
"PostCode": "7093"
},
{
"Name": "Kittsee",
"Code": "10711",
"Places": [
{
"Name": "Kittsee",
"PostCode": "2421",
"Latitude": 48.0925,
"Longitude": 17.0639
}
],
"PostCode": "2421"
},
{
"Name": "Mönchhof",
"Code": "10712",
"Places": [
{
"Name": "Mönchhof",
"PostCode": "7123",
"Latitude": 47.8802,
"Longitude": 16.9413
}
],
"PostCode": "7123"
},
{
"Name": "Neusiedl am See",
"Code": "10713",
"Places": [
{
"Name": "Neusiedl am See",
"PostCode": "7100",
"Latitude": 47.949,
"Longitude": 16.8417
}
],
"PostCode": "7100"
},
{
"Name": "Nickelsdorf",
"Code": "10714",
"Places": [
{
"Name": "Nickelsdorf",
"PostCode": "2425",
"Latitude": 47.9406,
"Longitude": 17.0694
}
],
"PostCode": "2425"
},
{
"Name": "Pama",
"Code": "10715",
"Places": [
{
"Name": "Pama / Bijelo Selo",
"PostCode": "2422",
"Latitude": 48.05,
"Longitude": 17.0333
}
],
"PostCode": "2422"
},
{
"Name": "Pamhagen",
"Code": "10716",
"Places": [
{
"Name": "Pamhagen",
"PostCode": "7152",
"Latitude": 47.7009,
"Longitude": 16.9078
}
],
"PostCode": "7152"
},
{
"Name": "Parndorf",
"Code": "10717",
"Places": [
{
"Name": "Parndorf / Pandrof",
"PostCode": "2471",
"Latitude": 47.9996,
"Longitude": 16.8605
},
{
"Name": "Parndorf / Pandrof",
"PostCode": "7111",
"Latitude": 47.9996,
"Longitude": 16.8605
}
]
},
{
"Name": "Podersdorf am See",
"Code": "10718",
"Places": [
{
"Name": "Podersdorf am See",
"PostCode": "7141",
"Latitude": 47.8541,
"Longitude": 16.8371
}
],
"PostCode": "7141"
},
{
"Name": "Sankt Andrä am Zicksee",
"Code": "10719",
"Places": [
{
"Name": "Sankt Andrä am Zicksee",
"PostCode": "7161",
"Latitude": 47.7841,
"Longitude": 16.9419
}
],
"PostCode": "7161"
},
{
"Name": "Tadten",
"Code": "10720",
"Places": [
{
"Name": "Tadten",
"PostCode": "7162",
"Latitude": 47.7667,
"Longitude": 16.9833
}
],
"PostCode": "7162"
},
{
"Name": "Wallern im Burgenland",
"Code": "10721",
"Places": [
{
"Name": "Wallern im Burgenland",
"PostCode": "7151",
"Latitude": 47.7285,
"Longitude": 16.9371
},
{
"Name": "Wallern im Burgenland",
"PostCode": "7152",
"Latitude": 47.7285,
"Longitude": 16.9371
}
]
},
{
"Name": "Weiden am See",
"Code": "10722",
"Places": [
{
"Name": "Weiden am See",
"PostCode": "7100",
"Latitude": 47.9253,
"Longitude": 16.869
},
{
"Name": "Weiden am See",
"PostCode": "7121",
"Latitude": 47.9253,
"Longitude": 16.869
}
]
},
{
"Name": "Winden am See",
"Code": "10723",
"Places": [
{
"Name": "Winden am See",
"PostCode": "7092",
"Latitude": 47.95,
"Longitude": 16.75
}
],
"PostCode": "7092"
},
{
"Name": "Zurndorf",
"Code": "10724",
"Places": [
{
"Name": "Zurndorf",
"PostCode": "2424",
"Latitude": 47.9831,
"Longitude": 17.0031
}
],
"PostCode": "2424"
},
{
"Name": "Neudorf",
"Code": "10725",
"Places": [
{
"Name": "Neudorf / Novo Selo",
"PostCode": "2475",
"Latitude": 48.0167,
"Longitude": 16.9333
}
],
"PostCode": "2475"
},
{
"Name": "Potzneusiedl",
"Code": "10726",
"Places": [
{
"Name": "Potzneusiedl",
"PostCode": "2473",
"Latitude": 48.045,
"Longitude": 16.9477
}
],
"PostCode": "2473"
},
{
"Name": "Edelstal",
"Code": "10727",
"Places": [
{
"Name": "Edelstal",
"PostCode": "2413",
"Latitude": 48.1,
"Longitude": 16.9833
}
],
"PostCode": "2413"
}
]
},
{
"Name": "Politischer Bezirk Oberpullendorf",
"Code": "108",
"Communities": [
{
"Name": "Deutschkreutz",
"Code": "10801",
"Places": [
{
"Name": "Deutschkreutz",
"PostCode": "7301",
"Latitude": 47.6,
"Longitude": 16.6333
},
{
"Name": "Girm",
"PostCode": "7301",
"Latitude": 47.6,
"Longitude": 16.6067
}
],
"PostCode": "7301"
},
{
"Name": "Draßmarkt",
"Code": "10802",
"Places": [
{
"Name": "Draßmarkt",
"PostCode": "7372",
"Latitude": 47.5167,
"Longitude": 16.4
},
{
"Name": "Karl",
"PostCode": "7372",
"Latitude": 47.5089,
"Longitude": 16.3464
},
{
"Name": "Oberrabnitz",
"PostCode": "7371",
"Latitude": 47.4929,
"Longitude": 16.3544
}
]
},
{
"Name": "Frankenau-Unterpullendorf",
"Code": "10803",
"Places": [
{
"Name": "Frankenau / Frakanava",
"PostCode": "7361",
"Latitude": 47.45,
"Longitude": 16.6
},
{
"Name": "Großmutschen / Mucindrof",
"PostCode": "7452",
"Latitude": 47.4667,
"Longitude": 16.5833
},
{
"Name": "Kleinmutschen / Pervane",
"PostCode": "7452",
"Latitude": 47.463,
"Longitude": 16.5747
},
{
"Name": "Unterpullendorf / Dolnja Pulja",
"PostCode": "7452",
"Latitude": 47.4753,
"Longitude": 16.5402
}
]
},
{
"Name": "Großwarasdorf",
"Code": "10804",
"Places": [
{
"Name": "Großwarasdorf / Veliki Borištof",
"PostCode": "7304",
"Latitude": 47.5391,
"Longitude": 16.553
},
{
"Name": "Kleinwarasdorf / Mali Borištof",
"PostCode": "7304",
"Latitude": 47.5374,
"Longitude": 16.589
},
{
"Name": "Langental / Longitolj",
"PostCode": "7304",
"Latitude": 47.5036,
"Longitude": 16.5436
},
{
"Name": "Nebersdorf / Šuševo",
"PostCode": "7304",
"Latitude": 47.5129,
"Longitude": 16.5705
}
],
"PostCode": "7304"
},
{
"Name": "Horitschon",
"Code": "10805",
"Places": [
{
"Name": "Horitschon",
"PostCode": "7312",
"Latitude": 47.5873,
"Longitude": 16.547
},
{
"Name": "Unterpetersdorf",
"PostCode": "7312",
"Latitude": 47.5905,
"Longitude": 16.582
}
],
"PostCode": "7312"
},
{
"Name": "Kaisersdorf",
"Code": "10806",
"Places": [
{
"Name": "Kaisersdorf / Kalištrof",
"PostCode": "7342",
"Latitude": 47.5374,
"Longitude": 16.392
}
],
"PostCode": "7342"
},
{
"Name": "Kobersdorf",
"Code": "10807",
"Places": [
{
"Name": "Kobersdorf",
"PostCode": "7332",
"Latitude": 47.5957,
"Longitude": 16.3917
},
{
"Name": "Lindgraben",
"PostCode": "7341",
"Latitude": 47.5748,
"Longitude": 16.3989
},
{
"Name": "Oberpetersdorf",
"PostCode": "7332",
"Latitude": 47.6155,
"Longitude": 16.3765
}
]
},
{
"Name": "Lackenbach",
"Code": "10808",
"Places": [
{
"Name": "Lackenbach",
"PostCode": "7322",
"Latitude": 47.5904,
"Longitude": 16.4653
}
],
"PostCode": "7322"
},
{
"Name": "Lockenhaus",
"Code": "10809",
"Places": [
{
"Name": "Glashütten bei Langeck im Burgenland",
"PostCode": "7442",
"Latitude": 47.3757,
"Longitude": 16.3833
},
{
"Name": "Hammerteich",
"PostCode": "7442",
"Latitude": 47.4087,
"Longitude": 16.4437
},
{
"Name": "Hochstraß",
"PostCode": "7442",
"Latitude": 47.4287,
"Longitude": 16.4047
},
{
"Name": "Langeck im Burgenland",
"PostCode": "7442",
"Latitude": 47.4,
"Longitude": 16.3667
},
{
"Name": "Lockenhaus",
"PostCode": "7442",
"Latitude": 47.4075,
"Longitude": 16.4162
}
],
"PostCode": "7442"
},
{
"Name": "Lutzmannsburg",
"Code": "10810",
"Places": [
{
"Name": "Lutzmannsburg",
"PostCode": "7361",
"Latitude": 47.4637,
"Longitude": 16.6366
},
{
"Name": "Strebersdorf",
"PostCode": "7361",
"Latitude": 47.4578,
"Longitude": 16.6191
}
],
"PostCode": "7361"
},
{
"Name": "Mannersdorf an der Rabnitz",
"Code": "10811",
"Places": [
{
"Name": "Klostermarienberg",
"PostCode": "7444",
"Latitude": 47.4219,
"Longitude": 16.5627
},
{
"Name": "Liebing",
"PostCode": "7443",
"Latitude": 47.4136,
"Longitude": 16.4945
},
{
"Name": "Mannersdorf an der Rabnitz",
"PostCode": "7444",
"Latitude": 47.4281,
"Longitude": 16.5268
},
{
"Name": "Rattersdorf",
"PostCode": "7443",
"Latitude": 47.4078,
"Longitude": 16.498
},
{
"Name": "Unterloisdorf",
"PostCode": "7444",
"Latitude": 47.4367,
"Longitude": 16.5328
}
]
},
{
"Name": "Markt Sankt Martin",
"Code": "10812",
"Places": [
{
"Name": "Landsee",
"PostCode": "2812",
"Latitude": 47.5583,
"Longitude": 16.3314
},
{
"Name": "Landsee",
"PostCode": "7341",
"Latitude": 47.5583,
"Longitude": 16.3314
},
{
"Name": "Markt Sankt Martin",
"PostCode": "7341",
"Latitude": 47.562,
"Longitude": 16.4251
},
{
"Name": "Neudorf bei Landsee",
"PostCode": "7341",
"Latitude": 47.5625,
"Longitude": 16.3798
}
]
},
{
"Name": "Neckenmarkt",
"Code": "10813",
"Places": [
{
"Name": "Haschendorf",
"PostCode": "7311",
"Latitude": 47.5979,
"Longitude": 16.5729
},
{
"Name": "Neckenmarkt",
"PostCode": "7311",
"Latitude": 47.5996,
"Longitude": 16.5467
}
],
"PostCode": "7311"
},
{
"Name": "Neutal",
"Code": "10814",
"Places": [
{
"Name": "Neutal",
"PostCode": "7343",
"Latitude": 47.5455,
"Longitude": 16.4462
}
],
"PostCode": "7343"
},
{
"Name": "Nikitsch",
"Code": "10815",
"Places": [
{
"Name": "Kroatisch Geresdorf / Gerištof",
"PostCode": "7361",
"Latitude": 47.4914,
"Longitude": 16.6102
},
{
"Name": "Kroatisch Minihof / Mjenovo",
"PostCode": "7302",
"Latitude": 47.5255,
"Longitude": 16.6445
},
{
"Name": "Nikitsch / Filež",
"PostCode": "7302",
"Latitude": 47.5362,
"Longitude": 16.6602
}
]
},
{
"Name": "Oberpullendorf",
"Code": "10816",
"Places": [
{
"Name": "Mitterpullendorf",
"PostCode": "7304",
"Latitude": 47.4933,
"Longitude": 16.5213
},
{
"Name": "Mitterpullendorf",
"PostCode": "7350",
"Latitude": 47.4933,
"Longitude": 16.5213
},
{
"Name": "Oberpullendorf / Felsöpulya",
"PostCode": "7350",
"Latitude": 47.5108,
"Longitude": 16.4994
}
]
},
{
"Name": "Pilgersdorf",
"Code": "10817",
"Places": [
{
"Name": "Bubendorf im Burgenland",
"PostCode": "7441",
"Latitude": 47.4274,
"Longitude": 16.3466
},
{
"Name": "Deutsch Gerisdorf",
"PostCode": "7441",
"Latitude": 47.4167,
"Longitude": 16.3667
},
{
"Name": "Kogl im Burgenland",
"PostCode": "7441",
"Latitude": 47.4453,
"Longitude": 16.2987
},
{
"Name": "Lebenbrunn",
"PostCode": "7441",
"Latitude": 47.4627,
"Longitude": 16.3023
},
{
"Name": "Pilgersdorf",
"PostCode": "7441",
"Latitude": 47.4411,
"Longitude": 16.3492
},
{
"Name": "Salmannsdorf",
"PostCode": "7441",
"Latitude": 47.4167,
"Longitude": 16.3333
},
{
"Name": "Steinbach im Burgenland",
"PostCode": "7441",
"Latitude": 47.475,
"Longitude": 16.3166
}
],
"PostCode": "7441"
},
{
"Name": "Piringsdorf",
"Code": "10818",
"Places": [
{
"Name": "Piringsdorf",
"PostCode": "7373",
"Latitude": 47.4483,
"Longitude": 16.4152
}
],
"PostCode": "7373"
},
{
"Name": "Raiding",
"Code": "10819",
"Places": [
{
"Name": "Raiding",
"PostCode": "7321",
"Latitude": 47.5658,
"Longitude": 16.5306
}
],
"PostCode": "7321"
},
{
"Name": "Ritzing",
"Code": "10820",
"Places": [
{
"Name": "Ritzing",
"PostCode": "7323",
"Latitude": 47.6132,
"Longitude": 16.4955
}
],
"PostCode": "7323"
},
{
"Name": "Steinberg-Dörfl",
"Code": "10821",
"Places": [
{
"Name": "Dörfl",
"PostCode": "7453",
"Latitude": 47.4833,
"Longitude": 16.4833
},
{
"Name": "Steinberg",
"PostCode": "7453",
"Latitude": 47.4743,
"Longitude": 16.4876
}
],
"PostCode": "7453"
},
{
"Name": "Stoob",
"Code": "10822",
"Places": [
{
"Name": "Stoob",
"PostCode": "7344",
"Latitude": 47.5284,
"Longitude": 16.4776
},
{
"Name": "Stoob",
"PostCode": "7350",
"Latitude": 47.5284,
"Longitude": 16.4776
}
]
},
{
"Name": "Weppersdorf",
"Code": "10823",
"Places": [
{
"Name": "Kalkgruben",
"PostCode": "7331",
"Latitude": 47.6211,
"Longitude": 16.3961
},
{
"Name": "Tschurndorf",
"PostCode": "7331",
"Latitude": 47.6077,
"Longitude": 16.4057
},
{
"Name": "Weppersdorf",
"PostCode": "7331",
"Latitude": 47.5795,
"Longitude": 16.4268
}
],
"PostCode": "7331"
},
{
"Name": "Lackendorf",
"Code": "10824",
"Places": [
{
"Name": "Lackendorf",
"PostCode": "7321",
"Latitude": 47.59,
"Longitude": 16.504
}
],
"PostCode": "7321"
},
{
"Name": "Unterfrauenhaid",
"Code": "10825",
"Places": [
{
"Name": "Unterfrauenhaid",
"PostCode": "7321",
"Latitude": 47.5712,
"Longitude": 16.4988
}
],
"PostCode": "7321"
},
{
"Name": "Unterrabnitz-Schwendgraben",
"Code": "10826",
"Places": [
{
"Name": "Schwendgraben",
"PostCode": "7371",
"Latitude": 47.4709,
"Longitude": 16.3557
},
{
"Name": "Unterrabnitz",
"PostCode": "7371",
"Latitude": 47.4539,
"Longitude": 16.3768
}
],
"PostCode": "7371"
},
{
"Name": "Weingraben",
"Code": "10827",
"Places": [
{
"Name": "Weingraben / Bajngrob",
"PostCode": "7374",
"Latitude": 47.5139,
"Longitude": 16.3637
}
],
"PostCode": "7374"
},
{
"Name": "Oberloisdorf",
"Code": "10828",
"Places": [
{
"Name": "Oberloisdorf",
"PostCode": "7451",
"Latitude": 47.4474,
"Longitude": 16.5076
}
],
"PostCode": "7451"
}
]
},
{
"Name": "Politischer Bezirk Oberwart",
"Code": "109",
"Communities": [
{
"Name": "Bad Tatzmannsdorf",
"Code": "10901",
"Places": [
{
"Name": "Bad Tatzmannsdorf",
"PostCode": "7431",
"Latitude": 47.3823,
"Longitude": 16.2523
},
{
"Name": "Jormannsdorf",
"PostCode": "7431",
"Latitude": 47.35,
"Longitude": 16.2167
},
{
"Name": "Sulzriegel",
"PostCode": "7431",
"Latitude": 47.3333,
"Longitude": 16.2333
}
],
"PostCode": "7431"
},
{
"Name": "Bernstein",
"Code": "10902",
"Places": [
{
"Name": "Bernstein",
"PostCode": "7434",
"Latitude": 47.4,
"Longitude": 16.25
},
{
"Name": "Dreihütten",
"PostCode": "2852",
"Latitude": 47.4207,
"Longitude": 16.2199
},
{
"Name": "Dreihütten",
"PostCode": "7434",
"Latitude": 47.4207,
"Longitude": 16.2199
},
{
"Name": "Redlschlag",
"PostCode": "7434",
"Latitude": 47.4408,
"Longitude": 16.2879
},
{
"Name": "Rettenbach",
"PostCode": "7434",
"Latitude": 47.4,
"Longitude": 16.2333
},
{
"Name": "Stuben",
"PostCode": "7434",
"Latitude": 47.4306,
"Longitude": 16.2487
}
]
},
{
"Name": "Deutsch Schützen-Eisenberg",
"Code": "10903",
"Places": [
{
"Name": "Deutsch-Schützen",
"PostCode": "7474",
"Latitude": 47.2066,
"Longitude": 16.4163
},
{
"Name": "Edlitz im Burgenland",
"PostCode": "7474",
"Latitude": 47.1349,
"Longitude": 16.4351
},
{
"Name": "Eisenberg an der Pinka",
"PostCode": "7474",
"Latitude": 47.1803,
"Longitude": 16.426
},
{
"Name": "Höll",
"PostCode": "7474",
"Latitude": 47.143,
"Longitude": 16.4398
},
{
"Name": "Sankt Kathrein im Burgenland",
"PostCode": "7474",
"Latitude": 47.139,
"Longitude": 16.4154
}
],
"PostCode": "7474"
},
{
"Name": "Grafenschachen",
"Code": "10904",
"Places": [
{
"Name": "Grafenschachen",
"PostCode": "7423",
"Latitude": 47.3667,
"Longitude": 16.0667
},
{
"Name": "Kroisegg",
"PostCode": "7423",
"Latitude": 47.3785,
"Longitude": 16.0375
}
],
"PostCode": "7423"
},
{
"Name": "Großpetersdorf",
"Code": "10905",
"Places": [
{
"Name": "Großpetersdorf",
"PostCode": "7503",
"Latitude": 47.2389,
"Longitude": 16.3178
},
{
"Name": "Kleinpetersdorf",
"PostCode": "7503",
"Latitude": 47.2167,
"Longitude": 16.3333
},
{
"Name": "Kleinzicken",
"PostCode": "7503",
"Latitude": 47.2485,
"Longitude": 16.2906
},
{
"Name": "Miedlingsdorf",
"PostCode": "7503",
"Latitude": 47.2667,
"Longitude": 16.3167
},
{
"Name": "Welgersdorf",
"PostCode": "7503",
"Latitude": 47.2333,
"Longitude": 16.35
}
],
"PostCode": "7503"
},
{
"Name": "Hannersdorf",
"Code": "10906",
"Places": [
{
"Name": "Burg",
"PostCode": "7473",
"Latitude": 47.2167,
"Longitude": 16.4
},
{
"Name": "Burg",
"PostCode": "7474",
"Latitude": 47.2167,
"Longitude": 16.4
},
{
"Name": "Hannersdorf",
"PostCode": "7473",
"Latitude": 47.229,
"Longitude": 16.3825
},
{
"Name": "Woppendorf",
"PostCode": "7473",
"Latitude": 47.2,
"Longitude": 16.3833
}
]
},
{
"Name": "Kemeten",
"Code": "10907",
"Places": [
{
"Name": "Kemeten",
"PostCode": "7531",
"Latitude": 47.2333,
"Longitude": 16.15
}
],
"PostCode": "7531"
},
{
"Name": "Kohfidisch",
"Code": "10908",
"Places": [
{
"Name": "Harmisch",
"PostCode": "7512",
"Latitude": 47.1478,
"Longitude": 16.3823
},
{
"Name": "Kirchfidisch",
"PostCode": "7512",
"Latitude": 47.1609,
"Longitude": 16.3485
},
{
"Name": "Kohfidisch",
"PostCode": "7512",
"Latitude": 47.1747,
"Longitude": 16.357
}
],
"PostCode": "7512"
},
{
"Name": "Litzelsdorf",
"Code": "10909",
"Places": [
{
"Name": "Litzelsdorf",
"PostCode": "7532",
"Latitude": 47.2,
"Longitude": 16.15
}
],
"PostCode": "7532"
},
{
"Name": "Loipersdorf-Kitzladen",
"Code": "10910",
"Places": [
{
"Name": "Kitzladen",
"PostCode": "7410",
"Latitude": 47.3167,
"Longitude": 16.0667
},
{
"Name": "Loipersdorf im Burgenland",
"PostCode": "7410",
"Latitude": 47.3333,
"Longitude": 16.0833
}
],
"PostCode": "7410"
},
{
"Name": "Mariasdorf",
"Code": "10911",
"Places": [
{
"Name": "Bergwerk",
"PostCode": "7433",
"Latitude": 47.3667,
"Longitude": 16.25
},
{
"Name": "Grodnau",
"PostCode": "7433",
"Latitude": 47.3833,
"Longitude": 16.2667
},
{
"Name": "Mariasdorf",
"PostCode": "7433",
"Latitude": 47.3658,
"Longitude": 16.2314
},
{
"Name": "Neustift bei Schlaining",
"PostCode": "7433",
"Latitude": 47.35,
"Longitude": 16.25
},
{
"Name": "Tauchen",
"PostCode": "7433",
"Latitude": 47.4,
"Longitude": 16.2167
}
],
"PostCode": "7433"
},
{
"Name": "Markt Allhau",
"Code": "10912",
"Places": [
{
"Name": "Buchschachen",
"PostCode": "7411",
"Latitude": 47.3167,
"Longitude": 16.1
},
{
"Name": "Markt Allhau",
"PostCode": "7411",
"Latitude": 47.2833,
"Longitude": 16.0833
}
],
"PostCode": "7411"
},
{
"Name": "Markt Neuhodis",
"Code": "10913",
"Places": [
{
"Name": "Althodis / Stari Hodas",
"PostCode": "7464",
"Latitude": 47.3142,
"Longitude": 16.3768
},
{
"Name": "Markt Neuhodis",
"PostCode": "7464",
"Latitude": 47.2956,
"Longitude": 16.3956
}
],
"PostCode": "7464"
},
{
"Name": "Mischendorf",
"Code": "10914",
"Places": [
{
"Name": "Großbachselten",
"PostCode": "7511",
"Latitude": 47.2167,
"Longitude": 16.3
},
{
"Name": "Kleinbachselten",
"PostCode": "7511",
"Latitude": 47.2,
"Longitude": 16.3
},
{
"Name": "Kotezicken",
"PostCode": "7511",
"Latitude": 47.2,
"Longitude": 16.35
},
{
"Name": "Mischendorf",
"PostCode": "7511",
"Latitude": 47.1833,
"Longitude": 16.3167
},
{
"Name": "Neuhaus in der Wart",
"PostCode": "7511",
"Latitude": 47.2171,
"Longitude": 16.2635
},
{
"Name": "Rohrbach an der Teich",
"PostCode": "7511",
"Latitude": 47.2,
"Longitude": 16.2833
}
],
"PostCode": "7511"
},
{
"Name": "Oberdorf im Burgenland",
"Code": "10915",
"Places": [
{
"Name": "Oberdorf im Burgenland",
"PostCode": "7501",
"Latitude": 47.2167,
"Longitude": 16.2167
}
],
"PostCode": "7501"
},
{
"Name": "Oberschützen",
"Code": "10916",
"Places": [
{
"Name": "Aschau im Burgenland",
"PostCode": "2852",
"Latitude": 47.4,
"Longitude": 16.2
},
{
"Name": "Aschau im Burgenland",
"PostCode": "7432",
"Latitude": 47.4,
"Longitude": 16.2
},
{
"Name": "Oberschützen",
"PostCode": "7400",
"Latitude": 47.3514,
"Longitude": 16.2073
},
{
"Name": "Oberschützen",
"PostCode": "7431",
"Latitude": 47.3514,
"Longitude": 16.2073
},
{
"Name": "Oberschützen",
"PostCode": "7432",
"Latitude": 47.3514,
"Longitude": 16.2073
},
{
"Name": "Schmiedrait",
"PostCode": "7432",
"Latitude": 47.4167,
"Longitude": 16.1833
},
{
"Name": "Unterschützen",
"PostCode": "7400",
"Latitude": 47.3189,
"Longitude": 16.2037
},
{
"Name": "Willersdorf",
"PostCode": "7432",
"Latitude": 47.3667,
"Longitude": 16.2
}
]
},
{
"Name": "Oberwart",
"Code": "10917",
"Places": [
{
"Name": "Oberwart / Felsöör",
"PostCode": "7400",
"Latitude": 47.3214,
"Longitude": 16.2248
},
{
"Name": "Sankt Martin in der Wart",
"PostCode": "7400",
"Latitude": 47.2988,
"Longitude": 16.2381
}
],
"PostCode": "7400"
},
{
"Name": "Pinkafeld",
"Code": "10918",
"Places": [
{
"Name": "Hochart",
"PostCode": "7423",
"Latitude": 47.4,
"Longitude": 16.1167
},
{
"Name": "Pinkafeld",
"PostCode": "7423",
"Latitude": 47.3667,
"Longitude": 16.1167
},
{
"Name": "Pinkafeld",
"PostCode": "8240",
"Latitude": 47.3667,
"Longitude": 16.1167
}
]
},
{
"Name": "Rechnitz",
"Code": "10919",
"Places": [
{
"Name": "Rechnitz",
"PostCode": "7471",
"Latitude": 47.3047,
"Longitude": 16.441
}
],
"PostCode": "7471"
},
{
"Name": "Riedlingsdorf",
"Code": "10920",
"Places": [
{
"Name": "Riedlingsdorf",
"PostCode": "7422",
"Latitude": 47.35,
"Longitude": 16.1333
}
],
"PostCode": "7422"
},
{
"Name": "Rotenturm an der Pinka",
"Code": "10921",
"Places": [
{
"Name": "Rotenturm an der Pinka",
"PostCode": "7501",
"Latitude": 47.25,
"Longitude": 16.25
},
{
"Name": "Siget in der Wart / Örisziget",
"PostCode": "7501",
"Latitude": 47.2485,
"Longitude": 16.2906
},
{
"Name": "Spitzzicken / Hrvatski Cikljin",
"PostCode": "7501",
"Latitude": 47.281,
"Longitude": 16.2808
}
],
"PostCode": "7501"
},
{
"Name": "Schachendorf",
"Code": "10922",
"Places": [
{
"Name": "Dürnbach im Burgenland / Vincjet",
"PostCode": "7472",
"Latitude": 47.2066,
"Longitude": 16.4163
},
{
"Name": "Dürnbach im Burgenland / Vincjet",
"PostCode": "7503",
"Latitude": 47.2485,
"Longitude": 16.2906
},
{
"Name": "Schachendorf / Cajta",
"PostCode": "7472",
"Latitude": 47.2667,
"Longitude": 16.4333
}
]
},
{
"Name": "Stadtschlaining",
"Code": "10923",
"Places": [
{
"Name": "Altschlaining",
"PostCode": "7461",
"Latitude": 47.3167,
"Longitude": 16.2833
},
{
"Name": "Drumling",
"PostCode": "7400",
"Latitude": 47.3167,
"Longitude": 16.25
},
{
"Name": "Goberling",
"PostCode": "7461",
"Latitude": 47.35,
"Longitude": 16.2833
},
{
"Name": "Neumarkt im Tauchental",
"PostCode": "7461",
"Latitude": 47.2962,
"Longitude": 16.2981
},
{
"Name": "Stadtschlaining",
"PostCode": "7461",
"Latitude": 47.3167,
"Longitude": 16.2833
}
]
},
{
"Name": "Unterkohlstätten",
"Code": "10924",
"Places": [
{
"Name": "Glashütten bei Schlaining",
"PostCode": "7435",
"Latitude": 47.35,
"Longitude": 16.3333
},
{
"Name": "Günseck",
"PostCode": "7435",
"Latitude": 47.4,
"Longitude": 16.3167
},
{
"Name": "Holzschlag",
"PostCode": "7434",
"Latitude": 47.3833,
"Longitude": 16.3
},
{
"Name": "Holzschlag",
"PostCode": "7435",
"Latitude": 47.3833,
"Longitude": 16.3
},
{
"Name": "Oberkohlstätten",
"PostCode": "7435",
"Latitude": 47.3667,
"Longitude": 16.3333
},
{
"Name": "Unterkohlstätten",
"PostCode": "7435",
"Latitude": 47.3833,
"Longitude": 16.3167
}
]
},
{
"Name": "Unterwart",
"Code": "10925",
"Places": [
{
"Name": "Eisenzicken",
"PostCode": "7501",
"Latitude": 47.2833,
"Longitude": 16.2667
},
{
"Name": "Unterwart / Alsóör",
"PostCode": "7501",
"Latitude": 47.2485,
"Longitude": 16.2906
}
],
"PostCode": "7501"
},
{
"Name": "Weiden bei Rechnitz",
"Code": "10926",
"Places": [
{
"Name": "Allersdorf im Burgenland / Kljucarevci",
"PostCode": "7461",
"Latitude": 47.3126,
"Longitude": 16.3281
},
{
"Name": "Allersgraben / Širokani",
"PostCode": "7461",
"Latitude": 47.3167,
"Longitude": 16.3167
},
{
"Name": "Mönchmeierhof / Marof",
"PostCode": "7461",
"Latitude": 47.3213,
"Longitude": 16.3086
},
{
"Name": "Oberpodgoria / Podgorje",
"PostCode": "7463",
"Latitude": 47.322,
"Longitude": 16.3452
},
{
"Name": "Podler / Poljanci",
"PostCode": "7461",
"Latitude": 47.2833,
"Longitude": 16.3333
},
{
"Name": "Rauhriegel / Rorigljin",
"PostCode": "7461",
"Latitude": 47.3126,
"Longitude": 16.3281
},
{
"Name": "Rumpersdorf / Rupišce",
"PostCode": "7463",
"Latitude": 47.3167,
"Longitude": 16.3333
},
{
"Name": "Unterpodgoria / Bošnjakov Brig",
"PostCode": "7463",
"Latitude": 47.3143,
"Longitude": 16.3574
},
{
"Name": "Weiden bei Rechnitz / Bandol",
"PostCode": "7463",
"Latitude": 47.3,
"Longitude": 16.35
},
{
"Name": "Zuberbach / Sabara",
"PostCode": "7463",
"Latitude": 47.3126,
"Longitude": 16.3281
},
{
"Name": "Zuberbach / Sabara",
"PostCode": "7503",
"Latitude": 47.2485,
"Longitude": 16.2906
}
]
},
{
"Name": "Wiesfleck",
"Code": "10927",
"Places": [
{
"Name": "Schönherrn",
"PostCode": "7423",
"Latitude": 47.4167,
"Longitude": 16.1667
},
{
"Name": "Schreibersdorf",
"PostCode": "7423",
"Latitude": 47.4,
"Longitude": 16.15
},
{
"Name": "Weinberg im Burgenland",
"PostCode": "7423",
"Latitude": 47.3909,
"Longitude": 16.1669
},
{
"Name": "Wiesfleck",
"PostCode": "7423",
"Latitude": 47.3833,
"Longitude": 16.1333
}
],
"PostCode": "7423"
},
{
"Name": "Wolfau",
"Code": "10928",
"Places": [
{
"Name": "Wolfau",
"PostCode": "7412",
"Latitude": 47.25,
"Longitude": 16.1
}
],
"PostCode": "7412"
},
{
"Name": "Neustift an der Lafnitz",
"Code": "10929",
"Places": [
{
"Name": "Neustift an der Lafnitz",
"PostCode": "7423",
"Latitude": 47.3667,
"Longitude": 16.0333
}
],
"PostCode": "7423"
},
{
"Name": "Jabing",
"Code": "10930",
"Places": [
{
"Name": "Jabing",
"PostCode": "7503",
"Latitude": 47.25,
"Longitude": 16.2833
}
],
"PostCode": "7503"
},
{
"Name": "Badersdorf",
"Code": "10931",
"Places": [
{
"Name": "Badersdorf",
"PostCode": "7512",
"Latitude": 47.2,
"Longitude": 16.3667
}
],
"PostCode": "7512"
},
{
"Name": "Schandorf",
"Code": "10932",
"Places": [
{
"Name": "Schandorf / Cemba",
"PostCode": "7472",
"Latitude": 47.2418,
"Longitude": 16.4227
}
],
"PostCode": "7472"
}
]
}
]
},
{
"Name": "Kärnten",
"Code": "02",
"Provinces": [
{
"Name": "Klagenfurt am Wörthersee",
"Code": "201",
"Communities": [
{
"Name": "Klagenfurt am Wörthersee",
"Code": "20101",
"Places": [
{
"Name": "Klagenfurt,01.Bez.:Innere Stadt",
"PostCode": "9020",
"Latitude": 46.6506,
"Longitude": 14.3539
},
{
"Name": "Klagenfurt,02.Bez.:Innere Stadt",
"PostCode": "9020",
"Latitude": 46.6506,
"Longitude": 14.3539
},
{
"Name": "Klagenfurt,03.Bez.:Innere Stadt",
"PostCode": "9020",
"Latitude": 46.6506,
"Longitude": 14.3539
},
{
"Name": "Klagenfurt,04.Bez.:Innere Stadt",
"PostCode": "9020",
"Latitude": 46.6506,
"Longitude": 14.3539
},
{
"Name": "Klagenfurt,05.Bez.:St.Veiter Vorstadt",
"PostCode": "9020",
"Latitude": 46.6506,
"Longitude": 14.3539
},
{
"Name": "Klagenfurt,06.Bez.:Völkermarkt.Vorst.",
"PostCode": "9020",
"Latitude": 46.6506,
"Longitude": 14.3539
},
{
"Name": "Klagenfurt,07.Bez.:Viktringer Vorstadt",
"PostCode": "9020",
"Latitude": 46.6506,
"Longitude": 14.3539
},
{
"Name": "Klagenfurt,08.Bez.:Villacher Vorstadt",
"PostCode": "9020",
"Latitude": 46.6506,
"Longitude": 14.3539
},
{
"Name": "Klagenfurt,09.Bez.:Annabichl",
"PostCode": "9020",
"Latitude": 46.6506,
"Longitude": 14.3539
},
{
"Name": "Klagenfurt,09.Bez.:Annabichl",
"PostCode": "9061",
"Latitude": 46.6566,
"Longitude": 14.345
},
{
"Name": "Klagenfurt,10.Bez.:St. Peter",
"PostCode": "9020",
"Latitude": 46.6506,
"Longitude": 14.3539
},
{
"Name": "Klagenfurt,10.Bez.:St. Peter",
"PostCode": "9065",
"Latitude": 46.6566,
"Longitude": 14.345
},
{
"Name": "Klagenfurt,11.Bez.:St. Ruprecht",
"PostCode": "9020",
"Latitude": 46.6506,
"Longitude": 14.3539
},
{
"Name": "Klagenfurt,11.Bez.:St. Ruprecht",
"PostCode": "9073",
"Latitude": 46.5662,
"Longitude": 14.1898
},
{
"Name": "Klagenfurt,12.Bez.:St. Martin",
"PostCode": "9020",
"Latitude": 46.6506,
"Longitude": 14.3539
},
{
"Name": "Klagenfurt,13.Bez.:Viktring",
"PostCode": "9020",
"Latitude": 46.6506,
"Longitude": 14.3539
},
{
"Name": "Klagenfurt,13.Bez.:Viktring",
"PostCode": "9073",
"Latitude": 46.5662,
"Longitude": 14.1898
},
{
"Name": "Klagenfurt,14.Bez.:Wölfnitz",
"PostCode": "9061",
"Latitude": 46.6566,
"Longitude": 14.345
},
{
"Name": "Klagenfurt,14.Bez.:Wölfnitz",
"PostCode": "9063",
"Latitude": 46.6566,
"Longitude": 14.345
},
{
"Name": "Klagenfurt,14.Bez.:Wölfnitz",
"PostCode": "9201",
"Latitude": 46.6372,
"Longitude": 14.1992
},
{
"Name": "Klagenfurt,15.Bez.:Hörtendorf",
"PostCode": "9020",
"Latitude": 46.6506,
"Longitude": 14.3539
}
]
}
]
},
{
"Name": "Villach Stadt",
"Code": "202",
"Communities": [
{
"Name": "Villach",
"Code": "20201",
"Places": [
{
"Name": "Bogenfeld",
"PostCode": "9580",
"Latitude": 46.5833,
"Longitude": 13.9333
},
{
"Name": "Dobrova",
"PostCode": "9500",
"Latitude": 46.6173,
"Longitude": 13.8349
},
{
"Name": "Drautschen",
"PostCode": "9500",
"Latitude": 46.6173,
"Longitude": 13.8349
},
{
"Name": "Drobollach am Faaker See",
"PostCode": "9580",
"Latitude": 46.5833,
"Longitude": 13.9167
},
{
"Name": "Duel",
"PostCode": "9500",
"Latitude": 46.6173,
"Longitude": 13.8349
},
{
"Name": "Egg am Faaker See",
"PostCode": "9580",
"Latitude": 46.5868,
"Longitude": 13.9337
},
{
"Name": "Goritschach",
"PostCode": "9500",
"Latitude": 46.6167,
"Longitude": 13.8167
},
{
"Name": "Graschitz",
"PostCode": "9580",
"Latitude": 46.5645,
"Longitude": 13.8748
},
{
"Name": "Gratschach",
"PostCode": "9523",
"Latitude": 46.6333,
"Longitude": 13.9
},
{
"Name": "Greuth",
"PostCode": "9580",
"Latitude": 46.5645,
"Longitude": 13.8748
},
{
"Name": "Gritschach",
"PostCode": "9500",
"Latitude": 46.6346,
"Longitude": 13.8371
},
{
"Name": "Großsattel",
"PostCode": "9580",
"Latitude": 46.6,
"Longitude": 13.9167
},
{
"Name": "Großvassach",
"PostCode": "9500",
"Latitude": 46.6273,
"Longitude": 13.8495
},
{
"Name": "Heiligen Gestade",
"PostCode": "9523",
"Latitude": 46.6513,
"Longitude": 13.8788
},
{
"Name": "Heiligengeist",
"PostCode": "9500",
"Latitude": 46.6125,
"Longitude": 13.7478
},
{
"Name": "Kleinsattel",
"PostCode": "9500",
"Latitude": 46.6,
"Longitude": 13.8833
},
{
"Name": "Kleinvassach",
"PostCode": "9500",
"Latitude": 46.6309,
"Longitude": 13.8528
},
{
"Name": "Kratschach",
"PostCode": "9580",
"Latitude": 46.6,
"Longitude": 13.9
},
{
"Name": "Kumitz",
"PostCode": "9500",
"Latitude": 46.6173,
"Longitude": 13.8349
},
{
"Name": "Kumitz",
"PostCode": "9523",
"Latitude": 46.6513,
"Longitude": 13.8788
},
{
"Name": "Landskron",
"PostCode": "9500",
"Latitude": 46.6167,
"Longitude": 13.8833
},
{
"Name": "Landskron",
"PostCode": "9523",
"Latitude": 46.6167,
"Longitude": 13.8833
},
{
"Name": "Landskron",
"PostCode": "9524",
"Latitude": 46.6167,
"Longitude": 13.8833
},
{
"Name": "Maria Gail",
"PostCode": "9500",
"Latitude": 46.5922,
"Longitude": 13.8808
},
{
"Name": "Mittewald",
"PostCode": "9580",
"Latitude": 46.5897,
"Longitude": 13.8906
},
{
"Name": "Mittewald ob Villach",
"PostCode": "9500",
"Latitude": 46.6333,
"Longitude": 13.7667
},
{
"Name": "Neufellach",
"PostCode": "9500",
"Latitude": 46.6173,
"Longitude": 13.8349
},
{
"Name": "Neulandskron",
"PostCode": "9500",
"Latitude": 46.6173,
"Longitude": 13.8349
},
{
"Name": "Neulandskron",
"PostCode": "9523",
"Latitude": 46.6513,
"Longitude": 13.8788
},
{
"Name": "Obere Fellach",
"PostCode": "9500",
"Latitude": 46.629,
"Longitude": 13.809
},
{
"Name": "Oberfederaun",
"PostCode": "9586",
"Latitude": 46.5833,
"Longitude": 13.8167
},
{
"Name": "Oberschütt",
"PostCode": "9586",
"Latitude": 46.5697,
"Longitude": 13.7581
},
{
"Name": "Oberschütt",
"PostCode": "9587",
"Latitude": 46.5697,
"Longitude": 13.7581
},
{
"Name": "Oberwollanig",
"PostCode": "9500",
"Latitude": 46.6506,
"Longitude": 13.8339
},
{
"Name": "Pogöriach",
"PostCode": "9500",
"Latitude": 46.6167,
"Longitude": 13.8
},
{
"Name": "Prossowitsch",
"PostCode": "9500",
"Latitude": 46.6,
"Longitude": 13.8833
},
{
"Name": "Rennstein",
"PostCode": "9500",
"Latitude": 46.6173,
"Longitude": 13.8349
},
{
"Name": "Serai",
"PostCode": "9580",
"Latitude": 46.5645,
"Longitude": 13.8748
},
{
"Name": "St. Andrä",
"PostCode": "9523",
"Latitude": 46.6442,
"Longitude": 13.8922
},
{
"Name": "St. Georgen",
"PostCode": "9500",
"Latitude": 46.6333,
"Longitude": 13.8
},
{
"Name": "St. Leonhard",
"PostCode": "9500",
"Latitude": 46.6167,
"Longitude": 13.85
},
{
"Name": "St. Magdalen",
"PostCode": "9524",
"Latitude": 46.6167,
"Longitude": 13.8833
},
{
"Name": "St. Michael",
"PostCode": "9500",
"Latitude": 46.6286,
"Longitude": 13.91
},
{
"Name": "St. Niklas an der Drau",
"PostCode": "9580",
"Latitude": 46.6042,
"Longitude": 13.8644
},
{
"Name": "St. Ruprecht",
"PostCode": "9523",
"Latitude": 46.6453,
"Longitude": 13.8694
},
{
"Name": "St. Ulrich",
"PostCode": "9524",
"Latitude": 46.6089,
"Longitude": 13.9164
},
{
"Name": "Tschinowitsch",
"PostCode": "9500",
"Latitude": 46.5833,
"Longitude": 13.85
},
{
"Name": "Turdanitsch",
"PostCode": "9500",
"Latitude": 46.5833,
"Longitude": 13.8667
},
{
"Name": "Untere Fellach",
"PostCode": "9500",
"Latitude": 46.625,
"Longitude": 13.8268
},
{
"Name": "Unterfederaun",
"PostCode": "9586",
"Latitude": 46.5758,
"Longitude": 13.7778
},
{
"Name": "Unterschütt",
"PostCode": "9586",
"Latitude": 46.5656,
"Longitude": 13.7861
},
{
"Name": "Unterwollanig",
"PostCode": "9500",
"Latitude": 46.6372,
"Longitude": 13.8272
},
{
"Name": "Urlaken",
"PostCode": "9523",
"Latitude": 46.6513,
"Longitude": 13.8788
},
{
"Name": "Villach-Auen",
"PostCode": "9500",
"Latitude": 46.5996,
"Longitude": 13.8439
},
{
"Name": "Villach-Auen",
"PostCode": "9504",
"Latitude": 46.5996,
"Longitude": 13.8439
},
{
"Name": "Villach-Innere Stadt",
"PostCode": "9500",
"Latitude": 46.6173,
"Longitude": 13.8349
},
{
"Name": "Villach-Lind",
"PostCode": "9500",
"Latitude": 46.6173,
"Longitude": 13.8349
},
{
"Name": "Villach-Seebach-Wasenboden",
"PostCode": "9500",
"Latitude": 46.6173,
"Longitude": 13.8349
},
{
"Name": "Villach-Seebach-Wasenboden",
"PostCode": "9524",
"Latitude": 46.6513,
"Longitude": 13.8788
},
{
"Name": "Villach-St. Agathen und Perau",
"PostCode": "9500",
"Latitude": 46.6173,
"Longitude": 13.8349
},
{
"Name": "Villach-St. Martin",
"PostCode": "9500",
"Latitude": 46.6206,
"Longitude": 13.8067
},
{
"Name": "Villach-Völkendorf",
"PostCode": "9500",
"Latitude": 46.6167,
"Longitude": 13.8333
},
{
"Name": "Villach-Völkendorf",
"PostCode": "9504",
"Latitude": 46.6167,
"Longitude": 13.8333
},
{
"Name": "Villach-Warmbad-Judendorf",
"PostCode": "9500",
"Latitude": 46.6072,
"Longitude": 13.7969
},
{
"Name": "Villach-Warmbad-Judendorf",
"PostCode": "9504",
"Latitude": 46.6072,
"Longitude": 13.7969
},
{
"Name": "Villach-Warmbad-Judendorf",
"PostCode": "9585",
"Latitude": 46.6072,
"Longitude": 13.7969
},
{
"Name": "Weißenbach",
"PostCode": "9500",
"Latitude": 46.6173,
"Longitude": 13.8349
},
{
"Name": "Zauchen",
"PostCode": "9500",
"Latitude": 46.6167,
"Longitude": 13.9
}
]
}
]
},
{
"Name": "Politischer Bezirk Hermagor",
"Code": "203",
"Communities": [
{
"Name": "Dellach",
"Code": "20302",
"Places": [
{
"Name": "Dellach",
"PostCode": "9635",
"Latitude": 46.6617,
"Longitude": 13.0797
},
{
"Name": "Goldberg",
"PostCode": "9635",
"Latitude": 46.6744,
"Longitude": 13.0703
},
{
"Name": "Gurina",
"PostCode": "9635",
"Latitude": 46.6427,
"Longitude": 13.1595
},
{
"Name": "Höfling",
"PostCode": "9640",
"Latitude": 46.6666,
"Longitude": 13.0374
},
{
"Name": "Leifling",
"PostCode": "9635",
"Latitude": 46.6667,
"Longitude": 13.1
},
{
"Name": "Monsell",
"PostCode": "9635",
"Latitude": 46.6427,
"Longitude": 13.1595
},
{
"Name": "Nölbling",
"PostCode": "9635",
"Latitude": 46.6461,
"Longitude": 13.0867
},
{
"Name": "Rüben",
"PostCode": "9635",
"Latitude": 46.6427,
"Longitude": 13.1595
},
{
"Name": "St. Daniel",
"PostCode": "9635",
"Latitude": 46.6625,
"Longitude": 13.0575
},
{
"Name": "Stollwitz",
"PostCode": "9635",
"Latitude": 46.6705,
"Longitude": 13.0494
},
{
"Name": "Wieserberg",
"PostCode": "9635",
"Latitude": 46.6427,
"Longitude": 13.1595
}
]
},
{
"Name": "Hermagor-Pressegger See",
"Code": "20305",
"Places": [
{
"Name": "Achleiten",
"PostCode": "9631",
"Latitude": 46.6427,
"Longitude": 13.1595
},
{
"Name": "Aigen",
"PostCode": "9620",
"Latitude": 46.6296,
"Longitude": 13.3962
},
{
"Name": "Bergl",
"PostCode": "9620",
"Latitude": 46.6296,
"Longitude": 13.3962
},
{
"Name": "Braunitzen",
"PostCode": "9620",
"Latitude": 46.6296,
"Longitude": 13.3962
},
{
"Name": "Brugg",
"PostCode": "9624",
"Latitude": 46.6167,
"Longitude": 13.4167
},
{
"Name": "Burgstall",
"PostCode": "9620",
"Latitude": 46.6296,
"Longitude": 13.3962
},
{
"Name": "Danz",
"PostCode": "9631",
"Latitude": 46.6427,
"Longitude": 13.1595
},
{
"Name": "Dellach",
"PostCode": "9624",
"Latitude": 46.6078,
"Longitude": 13.4458
},
{
"Name": "Egg",
"PostCode": "9624",
"Latitude": 46.6144,
"Longitude": 13.4086
},
{
"Name": "Eggforst",
"PostCode": "9620",
"Latitude": 46.6296,
"Longitude": 13.3962
},
{
"Name": "Förolach",
"PostCode": "9615",
"Latitude": 46.6328,
"Longitude": 13.4717
},
{
"Name": "Fritzendorf",
"PostCode": "9624",
"Latitude": 46.6333,
"Longitude": 13.4
},
{
"Name": "Görtschach",
"PostCode": "9615",
"Latitude": 46.6128,
"Longitude": 13.465
},
{
"Name": "Götzing",
"PostCode": "9624",
"Latitude": 46.6167,
"Longitude": 13.4167
},
{
"Name": "Grünburg",
"PostCode": "9620",
"Latitude": 46.6296,
"Longitude": 13.3962
},
{
"Name": "Guggenberg",
"PostCode": "9620",
"Latitude": 46.6333,
"Longitude": 13.3
},
{
"Name": "Hermagor",
"PostCode": "9620",
"Latitude": 46.6272,
"Longitude": 13.3672
},
{
"Name": "Jenig",
"PostCode": "9631",
"Latitude": 46.6277,
"Longitude": 13.2527
},
{
"Name": "Kameritsch",
"PostCode": "9620",
"Latitude": 46.6333,
"Longitude": 13.3167
},
{
"Name": "Khünburg",
"PostCode": "9620",
"Latitude": 46.6296,
"Longitude": 13.3962
},
{
"Name": "Kleinbergl",
"PostCode": "9631",
"Latitude": 46.6358,
"Longitude": 13.2722
},
{
"Name": "Kraschach",
"PostCode": "9620",
"Latitude": 46.6333,
"Longitude": 13.3167
},
{
"Name": "Kraß",
"PostCode": "9620",
"Latitude": 46.6296,
"Longitude": 13.3962
},
{
"Name": "Kreuth ob Mellweg",
"PostCode": "9624",
"Latitude": 46.6134,
"Longitude": 13.4467
},
{
"Name": "Kreuth ob Möschach",
"PostCode": "9620",
"Latitude": 46.6322,
"Longitude": 13.3438
},
{
"Name": "Kreuth ob Rattendorf",
"PostCode": "9631",
"Latitude": 46.6386,
"Longitude": 13.2694
},
{
"Name": "Kühweg",
"PostCode": "9620",
"Latitude": 46.6333,
"Longitude": 13.3667
},
{
"Name": "Kühwegboden",
"PostCode": "9620",
"Latitude": 46.6296,
"Longitude": 13.3962
},
{
"Name": "Latschach",
"PostCode": "9615",
"Latitude": 46.6,
"Longitude": 13.4667
},
{
"Name": "Latschach",
"PostCode": "9624",
"Latitude": 46.6,
"Longitude": 13.4667
},
{
"Name": "Liesch",
"PostCode": "9620",
"Latitude": 46.65,
"Longitude": 13.3333
},
{
"Name": "Mellach",
"PostCode": "9624",
"Latitude": 46.6167,
"Longitude": 13.4167
},
{
"Name": "Mellweg",
"PostCode": "9624",
"Latitude": 46.6,
"Longitude": 13.45
},
{
"Name": "Micheldorf",
"PostCode": "9624",
"Latitude": 46.6167,
"Longitude": 13.4
},
{
"Name": "Mitschig",
"PostCode": "9620",
"Latitude": 46.6244,
"Longitude": 13.3392
},
{
"Name": "Möderndorf",
"PostCode": "9615",
"Latitude": 46.6128,
"Longitude": 13.3658
},
{
"Name": "Möderndorf",
"PostCode": "9620",
"Latitude": 46.6128,
"Longitude": 13.3658
},
{
"Name": "Nampolach",
"PostCode": "9624",
"Latitude": 46.6,
"Longitude": 13.4833
},
{
"Name": "Neudorf",
"PostCode": "9620",
"Latitude": 46.6296,
"Longitude": 13.3962
},
{
"Name": "Neuprießenegg",
"PostCode": "9620",
"Latitude": 46.6296,
"Longitude": 13.3962
},
{
"Name": "Obermöschach",
"PostCode": "9620",
"Latitude": 46.6389,
"Longitude": 13.3492
},
{
"Name": "Obervellach",
"PostCode": "9620",
"Latitude": 46.6335,
"Longitude": 13.3955
},
{
"Name": "Paßriach",
"PostCode": "9624",
"Latitude": 46.6167,
"Longitude": 13.45
},
{
"Name": "Podlanig",
"PostCode": "9620",
"Latitude": 46.6296,
"Longitude": 13.3962
},
{
"Name": "Postran",
"PostCode": "9620",
"Latitude": 46.6296,
"Longitude": 13.3962
},
{
"Name": "Potschach",
"PostCode": "9620",
"Latitude": 46.6296,
"Longitude": 13.3962
},
{
"Name": "Potschach",
"PostCode": "9624",
"Latitude": 46.6296,
"Longitude": 13.3962
},
{
"Name": "Presseggen",
"PostCode": "9615",
"Latitude": 46.5974,
"Longitude": 13.5657
},
{
"Name": "Presseggersee",
"PostCode": "9620",
"Latitude": 46.631,
"Longitude": 13.438
},
{
"Name": "Radnig",
"PostCode": "9620",
"Latitude": 46.6444,
"Longitude": 13.3639
},
{
"Name": "Radnigforst",
"PostCode": "9620",
"Latitude": 46.6296,
"Longitude": 13.3962
},
{
"Name": "Rattendorf",
"PostCode": "9631",
"Latitude": 46.6207,
"Longitude": 13.2538
},
{
"Name": "Schinzengraben",
"PostCode": "9615",
"Latitude": 46.5974,
"Longitude": 13.5657
},
{
"Name": "Schlanitzen",
"PostCode": "9631",
"Latitude": 46.6,
"Longitude": 13.2833
},
{
"Name": "Schmidt",
"PostCode": "9631",
"Latitude": 46.6427,
"Longitude": 13.1595
},
{
"Name": "Siebenbrünn",
"PostCode": "9615",
"Latitude": 46.5974,
"Longitude": 13.5657
},
{
"Name": "Sonnenalpe Nassfeld",
"PostCode": "9620",
"Latitude": 46.5633,
"Longitude": 13.2739
},
{
"Name": "Sonnleitn",
"PostCode": "9620",
"Latitude": 46.6296,
"Longitude": 13.3962
},
{
"Name": "Süßenberg",
"PostCode": "9624",
"Latitude": 46.6296,
"Longitude": 13.3962
},
{
"Name": "Tröpolach",
"PostCode": "9631",
"Latitude": 46.6128,
"Longitude": 13.2756
},
{
"Name": "Untermöschach",
"PostCode": "9620",
"Latitude": 46.6333,
"Longitude": 13.35
},
{
"Name": "Untervellach",
"PostCode": "9620",
"Latitude": 46.6214,
"Longitude": 13.3931
},
{
"Name": "Watschig",
"PostCode": "9620",
"Latitude": 46.6194,
"Longitude": 13.31
},
{
"Name": "Wittenig",
"PostCode": "9615",
"Latitude": 46.5974,
"Longitude": 13.5657
},
{
"Name": "Zuchen",
"PostCode": "9615",
"Latitude": 46.5974,
"Longitude": 13.5657
}
]
},
{
"Name": "Kirchbach",
"Code": "20306",
"Places": [
{
"Name": "Anraun",
"PostCode": "9631",
"Latitude": 46.6427,
"Longitude": 13.1595
},
{
"Name": "Bodenmühl",
"PostCode": "9634",
"Latitude": 46.6427,
"Longitude": 13.1595
},
{
"Name": "Forst",
"PostCode": "9633",
"Latitude": 46.6427,
"Longitude": 13.1595
},
{
"Name": "Goderschach",
"PostCode": "9634",
"Latitude": 46.6359,
"Longitude": 13.1419
},
{
"Name": "Grafendorf",
"PostCode": "9634",
"Latitude": 46.6584,
"Longitude": 13.1136
},
{
"Name": "Griminitzen",
"PostCode": "9634",
"Latitude": 46.6433,
"Longitude": 13.115
},
{
"Name": "Gundersheim",
"PostCode": "9634",
"Latitude": 46.6473,
"Longitude": 13.1214
},
{
"Name": "Hochwart",
"PostCode": "9632",
"Latitude": 46.6495,
"Longitude": 13.2199
},
{
"Name": "Katlingberg",
"PostCode": "9634",
"Latitude": 46.6427,
"Longitude": 13.1595
},
{
"Name": "Kirchbach",
"PostCode": "9632",
"Latitude": 46.6416,
"Longitude": 13.1845
},
{
"Name": "Krieben",
"PostCode": "9632",
"Latitude": 46.6427,
"Longitude": 13.1595
},
{
"Name": "Lenzhof",
"PostCode": "9634",
"Latitude": 46.6427,
"Longitude": 13.1595
},
{
"Name": "Oberbuchach",
"PostCode": "9634",
"Latitude": 46.6315,
"Longitude": 13.1157
},
{
"Name": "Oberdöbernitzen",
"PostCode": "9632",
"Latitude": 46.6335,
"Longitude": 13.1765
},
{
"Name": "Rauth",
"PostCode": "9634",
"Latitude": 46.6427,
"Longitude": 13.1595
},
{
"Name": "Reisach",
"PostCode": "9633",
"Latitude": 46.6493,
"Longitude": 13.1535
},
{
"Name": "Reißkofelbad",
"PostCode": "9633",
"Latitude": 46.6427,
"Longitude": 13.1595
},
{
"Name": "Rinsenegg",
"PostCode": "9633",
"Latitude": 46.6427,
"Longitude": 13.1595
},
{
"Name": "Schimanberg",
"PostCode": "9631",
"Latitude": 46.6427,
"Longitude": 13.1595
},
{
"Name": "Schmalzgrube",
"PostCode": "9634",
"Latitude": 46.6427,
"Longitude": 13.1595
},
{
"Name": "Schönboden",
"PostCode": "9633",
"Latitude": 46.6427,
"Longitude": 13.1595
},
{
"Name": "Staudachberg",
"PostCode": "9632",
"Latitude": 46.6427,
"Longitude": 13.1595
},
{
"Name": "Stöfflerberg",
"PostCode": "9632",
"Latitude": 46.6503,
"Longitude": 13.194
},
{
"Name": "Stranig",
"PostCode": "9633",
"Latitude": 46.6355,
"Longitude": 13.1605
},
{
"Name": "Tramun",
"PostCode": "9631",
"Latitude": 46.65,
"Longitude": 13.25
},
{
"Name": "Treßdorf",
"PostCode": "9632",
"Latitude": 46.6399,
"Longitude": 13.1972
},
{
"Name": "Unterbuchach",
"PostCode": "9633",
"Latitude": 46.6278,
"Longitude": 13.1415
},
{
"Name": "Unterdöbernitzen",
"PostCode": "9632",
"Latitude": 46.6299,
"Longitude": 13.1907
},
{
"Name": "Waidegg",
"PostCode": "9631",
"Latitude": 46.6427,
"Longitude": 13.1595
},
{
"Name": "Wassertheurerberg",
"PostCode": "9632",
"Latitude": 46.6427,
"Longitude": 13.1595
},
{
"Name": "Welzberg",
"PostCode": "9634",
"Latitude": 46.6427,
"Longitude": 13.1595
}
]
},
{
"Name": "Kötschach-Mauthen",
"Code": "20307",
"Places": [
{
"Name": "Aigen",
"PostCode": "9651",
"Latitude": 46.6769,
"Longitude": 12.9206
},
{
"Name": "Buchach",
"PostCode": "9640",
"Latitude": 46.672,
"Longitude": 12.999
},
{
"Name": "Dobra",
"PostCode": "9640",
"Latitude": 46.7,
"Longitude": 13.0
},
{
"Name": "Dolling",
"PostCode": "9640",
"Latitude": 46.65,
"Longitude": 13.0167
},
{
"Name": "Gailberg",
"PostCode": "9640",
"Latitude": 46.672,
"Longitude": 12.999
},
{
"Name": "Gentschach",
"PostCode": "9640",
"Latitude": 46.6769,
"Longitude": 12.9656
},
{
"Name": "Gratzhof",
"PostCode": "9635",
"Latitude": 46.6427,
"Longitude": 13.1595
},
{
"Name": "Höfling",
"PostCode": "9640",
"Latitude": 46.6666,
"Longitude": 13.0374
},
{
"Name": "Kosta",
"PostCode": "9640",
"Latitude": 46.672,
"Longitude": 12.999
},
{
"Name": "Kötschach",
"PostCode": "9640",
"Latitude": 46.6817,
"Longitude": 13.0069
},
{
"Name": "Kreuth",
"PostCode": "9640",
"Latitude": 46.6822,
"Longitude": 12.9856
},
{
"Name": "Kreuzberg",
"PostCode": "9640",
"Latitude": 46.672,
"Longitude": 12.999
},
{
"Name": "Krieghof",
"PostCode": "9640",
"Latitude": 46.65,
"Longitude": 13.0333
},
{
"Name": "Kronhof",
"PostCode": "9635",
"Latitude": 46.65,
"Longitude": 13.0667
},
{
"Name": "Laas",
"PostCode": "9640",
"Latitude": 46.7,
"Longitude": 12.9889
},
{
"Name": "Lanz",
"PostCode": "9640",
"Latitude": 46.7,
"Longitude": 13.0
},
{
"Name": "Mahlbach",
"PostCode": "9640",
"Latitude": 46.672,
"Longitude": 12.999
},
{
"Name": "Mandorf",
"PostCode": "9640",
"Latitude": 46.6833,
"Longitude": 13.0167
},
{
"Name": "Mauthen",
"PostCode": "9640",
"Latitude": 46.6653,
"Longitude": 12.9986
},
{
"Name": "Nischlwitz",
"PostCode": "9640",
"Latitude": 46.672,
"Longitude": 12.999
},
{
"Name": "Passau",
"PostCode": "9640",
"Latitude": 46.672,
"Longitude": 12.999
},
{
"Name": "Plöcken",
"PostCode": "9640",
"Latitude": 46.6167,
"Longitude": 12.95
},
{
"Name": "Plon",
"PostCode": "9640",
"Latitude": 46.672,
"Longitude": 12.999
},
{
"Name": "Podlanig",
"PostCode": "9652",
"Latitude": 46.6962,
"Longitude": 12.8153
},
{
"Name": "Sittmoos",
"PostCode": "9640",
"Latitude": 46.6833,
"Longitude": 12.9333
},
{
"Name": "St. Jakob im Lesachtal",
"PostCode": "9651",
"Latitude": 46.6875,
"Longitude": 12.9389
},
{
"Name": "Strajach",
"PostCode": "9651",
"Latitude": 46.6849,
"Longitude": 12.9377
},
{
"Name": "Weidenburg",
"PostCode": "9635",
"Latitude": 46.6475,
"Longitude": 13.0333
},
{
"Name": "Wetzmann",
"PostCode": "9640",
"Latitude": 46.672,
"Longitude": 12.999
},
{
"Name": "Würda",
"PostCode": "9651",
"Latitude": 46.6962,
"Longitude": 12.8153
},
{
"Name": "Würmlach",
"PostCode": "9640",
"Latitude": 46.6566,
"Longitude": 13.0148
}
]
},
{
"Name": "St. Stefan im Gailtal",
"Code": "20316",
"Places": [
{
"Name": "Bach",
"PostCode": "9623",
"Latitude": 46.6167,
"Longitude": 13.5333
},
{
"Name": "Bichlhof",
"PostCode": "9623",
"Latitude": 46.6296,
"Longitude": 13.3962
},
{
"Name": "Bodenhof",
"PostCode": "9614",
"Latitude": 46.5974,
"Longitude": 13.5657
},
{
"Name": "Dragantschach",
"PostCode": "9623",
"Latitude": 46.6296,
"Longitude": 13.3962
},
{
"Name": "Edling",
"PostCode": "9623",
"Latitude": 46.6167,
"Longitude": 13.5167
},
{
"Name": "Hadersdorf",
"PostCode": "9623",
"Latitude": 46.6167,
"Longitude": 13.55
},
{
"Name": "Karnitzen",
"PostCode": "9623",
"Latitude": 46.6296,
"Longitude": 13.3962
},
{
"Name": "Köstendorf",
"PostCode": "9615",
"Latitude": 46.6167,
"Longitude": 13.5
},
{
"Name": "Köstendorf",
"PostCode": "9623",
"Latitude": 46.6167,
"Longitude": 13.5
},
{
"Name": "Latschach",
"PostCode": "9623",
"Latitude": 46.6296,
"Longitude": 13.3962
},
{
"Name": "Matschiedl",
"PostCode": "9623",
"Latitude": 46.63,
"Longitude": 13.5414
},
{
"Name": "Nieselach",
"PostCode": "9623",
"Latitude": 46.6296,
"Longitude": 13.3962
},
{
"Name": "Pölland",
"PostCode": "9623",
"Latitude": 46.6375,
"Longitude": 13.5219
},
{
"Name": "Pörtschach",
"PostCode": "9623",
"Latitude": 46.6296,
"Longitude": 13.3962
},
{
"Name": "Schinzengraben",
"PostCode": "9615",
"Latitude": 46.5974,
"Longitude": 13.5657
},
{
"Name": "Schmölzing",
"PostCode": "9623",
"Latitude": 46.6296,
"Longitude": 13.3962
},
{
"Name": "St. Paul an der Gail",
"PostCode": "9623",
"Latitude": 46.6186,
"Longitude": 13.5206
},
{
"Name": "St. Stefan an der Gail",
"PostCode": "9623",
"Latitude": 46.6296,
"Longitude": 13.3962
},
{
"Name": "Sussawitsch",
"PostCode": "9623",
"Latitude": 46.6296,
"Longitude": 13.3962
},
{
"Name": "Tratten",
"PostCode": "9623",
"Latitude": 46.6258,
"Longitude": 13.5386
},
{
"Name": "Vorderberg",
"PostCode": "9614",
"Latitude": 46.5969,
"Longitude": 13.5233
}
]
},
{
"Name": "Gitschtal",
"Code": "20320",
"Places": [
{
"Name": "Brunn",
"PostCode": "9620",
"Latitude": 46.65,
"Longitude": 13.3167
},
{
"Name": "Golz",
"PostCode": "9622",
"Latitude": 46.6833,
"Longitude": 13.2667
},
{
"Name": "Jadersdorf",
"PostCode": "9620",
"Latitude": 46.6631,
"Longitude": 13.3253
},
{
"Name": "Langwiesen",
"PostCode": "9622",
"Latitude": 46.6296,
"Longitude": 13.3962
},
{
"Name": "Lassendorf",
"PostCode": "9620",
"Latitude": 46.6619,
"Longitude": 13.3069
},
{
"Name": "Leditz",
"PostCode": "9622",
"Latitude": 46.6833,
"Longitude": 13.2667
},
{
"Name": "Regitt",
"PostCode": "9622",
"Latitude": 46.6296,
"Longitude": 13.3962
},
{
"Name": "St. Lorenzen im Gitschtal",
"PostCode": "9620",
"Latitude": 46.65,
"Longitude": 13.3
},
{
"Name": "Weißbriach",
"PostCode": "9622",
"Latitude": 46.6872,
"Longitude": 13.2469
},
{
"Name": "Wulzentratten",
"PostCode": "9620",
"Latitude": 46.6667,
"Longitude": 13.2833
}
]
},
{
"Name": "Lesachtal",
"Code": "20321",
"Places": [
{
"Name": "Assing",
"PostCode": "9653",
"Latitude": 46.7075,
"Longitude": 12.8303
},
{
"Name": "Birnbaum",
"PostCode": "9652",
"Latitude": 46.6847,
"Longitude": 12.8886
},
{
"Name": "Durnthal",
"PostCode": "9653",
"Latitude": 46.6962,
"Longitude": 12.8153
},
{
"Name": "Egg",
"PostCode": "9652",
"Latitude": 46.6962,
"Longitude": 12.8153
},
{
"Name": "Frohn",
"PostCode": "9654",
"Latitude": 46.6947,
"Longitude": 12.7661
},
{
"Name": "Guggenberg",
"PostCode": "9655",
"Latitude": 46.7167,
"Longitude": 12.7167
},
{
"Name": "Klebas",
"PostCode": "9653",
"Latitude": 46.6962,
"Longitude": 12.8153
},
{
"Name": "Kornat",
"PostCode": "9652",
"Latitude": 46.6908,
"Longitude": 12.8925
},
{
"Name": "Ladstatt",
"PostCode": "9653",
"Latitude": 46.6962,
"Longitude": 12.8153
},
{
"Name": "Liesing",
"PostCode": "9653",
"Latitude": 46.6928,
"Longitude": 12.8186
},
{
"Name": "Maria Luggau",
"PostCode": "9655",
"Latitude": 46.7075,
"Longitude": 12.7397
},
{
"Name": "Mattling",
"PostCode": "9652",
"Latitude": 46.6881,
"Longitude": 12.8683
},
{
"Name": "Moos",
"PostCode": "9655",
"Latitude": 46.6978,
"Longitude": 12.7511
},
{
"Name": "Niedergail",
"PostCode": "9653",
"Latitude": 46.6836,
"Longitude": 12.8383
},
{
"Name": "Nostra",
"PostCode": "9652",
"Latitude": 46.6781,
"Longitude": 12.8722
},
{
"Name": "Obergail",
"PostCode": "9653",
"Latitude": 46.6958,
"Longitude": 12.8086
},
{
"Name": "Oberring",
"PostCode": "9653",
"Latitude": 46.6962,
"Longitude": 12.8153
},
{
"Name": "Pallas",
"PostCode": "9653",
"Latitude": 46.6962,
"Longitude": 12.8153
},
{
"Name": "Promeggen",
"PostCode": "9655",
"Latitude": 46.6962,
"Longitude": 12.8153
},
{
"Name": "Raut",
"PostCode": "9655",
"Latitude": 46.7,
"Longitude": 12.7333
},
{
"Name": "Rüben",
"PostCode": "9653",
"Latitude": 46.6962,
"Longitude": 12.8153
},
{
"Name": "Salach",
"PostCode": "9655",
"Latitude": 46.6962,
"Longitude": 12.8153
},
{
"Name": "St. Lorenzen im Lesachtal",
"PostCode": "9654",
"Latitude": 46.7047,
"Longitude": 12.7839
},
{
"Name": "Stabenthein",
"PostCode": "9653",
"Latitude": 46.6962,
"Longitude": 12.8153
},
{
"Name": "Sterzen",
"PostCode": "9655",
"Latitude": 46.7,
"Longitude": 12.75
},
{
"Name": "Tiefenbach",
"PostCode": "9655",
"Latitude": 46.7,
"Longitude": 12.7333
},
{
"Name": "Tscheltsch",
"PostCode": "9653",
"Latitude": 46.6962,
"Longitude": 12.8153
},
{
"Name": "Tuffbad",
"PostCode": "9654",
"Latitude": 46.7236,
"Longitude": 12.7683
},
{
"Name": "Wiesen",
"PostCode": "9654",
"Latitude": 46.7,
"Longitude": 12.7667
},
{
"Name": "Wodmaier",
"PostCode": "9652",
"Latitude": 46.6837,
"Longitude": 12.8833
},
{
"Name": "Xaveriberg",
"PostCode": "9654",
"Latitude": 46.7119,
"Longitude": 12.745
}
]
}
]
},
{
"Name": "Politischer Bezirk Klagenfurt Land",
"Code": "204",
"Communities": [
{
"Name": "Ebenthal in Kärnten",
"Code": "20402",
"Places": [
{
"Name": "Aich an der Straße",
"PostCode": "9020",
"Latitude": 46.6506,
"Longitude": 14.3539
},
{
"Name": "Berg",
"PostCode": "9065",
"Latitude": 46.5833,
"Longitude": 14.45
},
{
"Name": "Ebenthal",
"PostCode": "9065",
"Latitude": 46.6081,
"Longitude": 14.3642
},
{
"Name": "Goritschach",
"PostCode": "9065",
"Latitude": 46.5667,
"Longitude": 14.4
},
{
"Name": "Gradnitz",
"PostCode": "9065",
"Latitude": 46.6566,
"Longitude": 14.345
},
{
"Name": "Gurnitz",
"PostCode": "9065",
"Latitude": 46.6,
"Longitude": 14.3833
},
{
"Name": "Haber",
"PostCode": "9065",
"Latitude": 46.6566,
"Longitude": 14.345
},
{
"Name": "Hinterberg",
"PostCode": "9065",
"Latitude": 46.6566,
"Longitude": 14.345
},
{
"Name": "Kohldorf",
"PostCode": "9065",
"Latitude": 46.5667,
"Longitude": 14.45
},
{
"Name": "Kosasmojach",
"PostCode": "9065",
"Latitude": 46.5689,
"Longitude": 14.4308
},
{
"Name": "Kossiach / Kozje",
"PostCode": "9065",
"Latitude": 46.5678,
"Longitude": 14.4178
},
{
"Name": "Kreuth / Rute",
"PostCode": "9065",
"Latitude": 46.575,
"Longitude": 14.4269
},
{
"Name": "Lipizach / Lipice",
"PostCode": "9065",
"Latitude": 46.6566,
"Longitude": 14.345
},
{
"Name": "Mieger",
"PostCode": "9065",
"Latitude": 46.6566,
"Longitude": 14.345
},
{
"Name": "Moosberg",
"PostCode": "9065",
"Latitude": 46.6566,
"Longitude": 14.345
},
{
"Name": "Niederdorf",
"PostCode": "9020",
"Latitude": 46.6167,
"Longitude": 14.4
},
{
"Name": "Obermieger",
"PostCode": "9065",
"Latitude": 46.5833,
"Longitude": 14.4333
},
{
"Name": "Obitschach",
"PostCode": "9065",
"Latitude": 46.6566,
"Longitude": 14.345
},
{
"Name": "Pfaffendorf",
"PostCode": "9065",
"Latitude": 46.6,
"Longitude": 14.3833
},
{
"Name": "Priedl",
"PostCode": "9065",
"Latitude": 46.6566,
"Longitude": 14.345
},
{
"Name": "Radsberg / Radiše",
"PostCode": "9065",
"Latitude": 46.5872,
"Longitude": 14.4189
},
{
"Name": "Rain",
"PostCode": "9065",
"Latitude": 46.6053,
"Longitude": 14.3861
},
{
"Name": "Reichersdorf",
"PostCode": "9065",
"Latitude": 46.6,
"Longitude": 14.3667
},
{
"Name": "Rosenegg",
"PostCode": "9065",
"Latitude": 46.6566,
"Longitude": 14.345
},
{
"Name": "Rottenstein",
"PostCode": "9065",
"Latitude": 46.5667,
"Longitude": 14.4167
},
{
"Name": "Saager",
"PostCode": "9065",
"Latitude": 46.5667,
"Longitude": 14.4667
},
{
"Name": "Sabuatach",
"PostCode": "9065",
"Latitude": 46.5836,
"Longitude": 14.4683
},
{
"Name": "Schwarz / Dvorec",
"PostCode": "9065",
"Latitude": 46.5667,
"Longitude": 14.3833
},
{
"Name": "Tutzach / Tuce",
"PostCode": "9065",
"Latitude": 46.6566,
"Longitude": 14.345
},
{
"Name": "Untermieger",
"PostCode": "9065",
"Latitude": 46.5833,
"Longitude": 14.4333
},
{
"Name": "Werouzach / Verovce",
"PostCode": "9065",
"Latitude": 46.5833,
"Longitude": 14.3833
},
{
"Name": "Zell",
"PostCode": "9065",
"Latitude": 46.6,
"Longitude": 14.4
},
{
"Name": "Zetterei",
"PostCode": "9065",
"Latitude": 46.6566,
"Longitude": 14.345
},
{
"Name": "Zwanzgerberg",
"PostCode": "9065",
"Latitude": 46.5833,
"Longitude": 14.35
}
]
},
{
"Name": "Feistritz im Rosental",
"Code": "20403",
"Places": [
{
"Name": "Bärental",
"PostCode": "9181",
"Latitude": 46.4667,
"Longitude": 14.15
},
{
"Name": "Feistritz im Rosental",
"PostCode": "9181",
"Latitude": 46.5167,
"Longitude": 14.1667
},
{
"Name": "Hundsdorf",
"PostCode": "9181",
"Latitude": 46.5269,
"Longitude": 14.195
},
{
"Name": "Matschach",
"PostCode": "9181",
"Latitude": 46.5167,
"Longitude": 14.15
},
{
"Name": "Rabenberg",
"PostCode": "9162",
"Latitude": 46.5167,
"Longitude": 14.2167
},
{
"Name": "St. Johann im Rosental",
"PostCode": "9162",
"Latitude": 46.5333,
"Longitude": 14.2
},
{
"Name": "Suetschach",
"PostCode": "9181",
"Latitude": 46.5269,
"Longitude": 14.1564
},
{
"Name": "Weizelsdorf",
"PostCode": "9162",
"Latitude": 46.5364,
"Longitude": 14.23
}
]
},
{
"Name": "Ferlach",
"Code": "20405",
"Places": [
{
"Name": "Babniak",
"PostCode": "9162",
"Latitude": 46.5408,
"Longitude": 14.2827
},
{
"Name": "Bodental / Poden",
"PostCode": "9163",
"Latitude": 46.4786,
"Longitude": 14.2286
},
{
"Name": "Dörfl",
"PostCode": "9170",
"Latitude": 46.5189,
"Longitude": 14.375
},
{
"Name": "Dornach",
"PostCode": "9162",
"Latitude": 46.5167,
"Longitude": 14.25
},
{
"Name": "Ferlach",
"PostCode": "9170",
"Latitude": 46.5269,
"Longitude": 14.3019
},
{
"Name": "Glainach",
"PostCode": "9170",
"Latitude": 46.5333,
"Longitude": 14.3333
},
{
"Name": "Görtschach",
"PostCode": "9170",
"Latitude": 46.5333,
"Longitude": 14.2833
},
{
"Name": "Jaklin",
"PostCode": "9170",
"Latitude": 46.5189,
"Longitude": 14.375
},
{
"Name": "Kappel an der Drau",
"PostCode": "9162",
"Latitude": 46.5333,
"Longitude": 14.25
},
{
"Name": "Kirschentheuer",
"PostCode": "9162",
"Latitude": 46.5333,
"Longitude": 14.2667
},
{
"Name": "Laak",
"PostCode": "9170",
"Latitude": 46.5333,
"Longitude": 14.3667
},
{
"Name": "Laiplach",
"PostCode": "9162",
"Latitude": 46.5408,
"Longitude": 14.2827
},
{
"Name": "Loibltal / Brodi",
"PostCode": "9163",
"Latitude": 46.4667,
"Longitude": 14.25
},
{
"Name": "Otrouza",
"PostCode": "9170",
"Latitude": 46.5433,
"Longitude": 14.3206
},
{
"Name": "Rauth",
"PostCode": "9170",
"Latitude": 46.5167,
"Longitude": 14.35
},
{
"Name": "Reßnig",
"PostCode": "9170",
"Latitude": 46.5333,
"Longitude": 14.2833
},
{
"Name": "Seidolach",
"PostCode": "9170",
"Latitude": 46.5333,
"Longitude": 14.35
},
{
"Name": "Singerberg",
"PostCode": "9162",
"Latitude": 46.5408,
"Longitude": 14.2827
},
{
"Name": "Strau",
"PostCode": "9162",
"Latitude": 46.5333,
"Longitude": 14.25
},
{
"Name": "Strugarjach / Strugarje",
"PostCode": "9163",
"Latitude": 46.5408,
"Longitude": 14.2827
},
{
"Name": "Tratten",
"PostCode": "9170",
"Latitude": 46.5189,
"Longitude": 14.375
},
{
"Name": "Unterbergen",
"PostCode": "9163",
"Latitude": 46.5167,
"Longitude": 14.2833
},
{
"Name": "Unterferlach",
"PostCode": "9170",
"Latitude": 46.5367,
"Longitude": 14.3064
},
{
"Name": "Unterglainach",
"PostCode": "9170",
"Latitude": 46.5189,
"Longitude": 14.375
},
{
"Name": "Unterloibl",
"PostCode": "9163",
"Latitude": 46.5075,
"Longitude": 14.2897
},
{
"Name": "Waidisch",
"PostCode": "9170",
"Latitude": 46.5,
"Longitude": 14.35
},
{
"Name": "Windisch Bleiberg / Slovenji Plajberk",
"PostCode": "9163",
"Latitude": 46.5408,
"Longitude": 14.2827
}
]
},
{
"Name": "Grafenstein",
"Code": "20409",
"Places": [
{
"Name": "Aich",
"PostCode": "9131",
"Latitude": 46.5782,
"Longitude": 14.5256
},
{
"Name": "Althofen",
"PostCode": "9131",
"Latitude": 46.6167,
"Longitude": 14.5
},
{
"Name": "Dolina",
"PostCode": "9131",
"Latitude": 46.6386,
"Longitude": 14.4475
},
{
"Name": "Froschendorf",
"PostCode": "9131",
"Latitude": 46.6167,
"Longitude": 14.4833
},
{
"Name": "Grafenstein",
"PostCode": "9131",
"Latitude": 46.6,
"Longitude": 14.4667
},
{
"Name": "Gumisch",
"PostCode": "9131",
"Latitude": 46.6,
"Longitude": 14.5
},
{
"Name": "Haidach",
"PostCode": "9131",
"Latitude": 46.6397,
"Longitude": 14.4286
},
{
"Name": "Hum",
"PostCode": "9131",
"Latitude": 46.5782,
"Longitude": 14.5256
},
{
"Name": "Klein Venedig",
"PostCode": "9131",
"Latitude": 46.6333,
"Longitude": 14.4833
},
{
"Name": "Lind",
"PostCode": "9131",
"Latitude": 46.6167,
"Longitude": 14.5
},
{
"Name": "Münzendorf",
"PostCode": "9131",
"Latitude": 46.5782,
"Longitude": 14.5256
},
{
"Name": "Oberfischern",
"PostCode": "9131",
"Latitude": 46.5782,
"Longitude": 14.5256
},
{
"Name": "Oberwuchel",
"PostCode": "9131",
"Latitude": 46.6333,
"Longitude": 14.45
},
{
"Name": "Pakein",
"PostCode": "9131",
"Latitude": 46.5782,
"Longitude": 14.5256
},
{
"Name": "Pirk",
"PostCode": "9131",
"Latitude": 46.6167,
"Longitude": 14.4333
},
{
"Name": "Replach",
"PostCode": "9131",
"Latitude": 46.5782,
"Longitude": 14.5256
},
{
"Name": "Saager",
"PostCode": "9131",
"Latitude": 46.5667,
"Longitude": 14.4667
},
{
"Name": "Sabuatach",
"PostCode": "9131",
"Latitude": 46.5836,
"Longitude": 14.4683
},
{
"Name": "Sand",
"PostCode": "9131",
"Latitude": 46.5782,
"Longitude": 14.5256
},
{
"Name": "Schloss Rain",
"PostCode": "9131",
"Latitude": 46.5782,
"Longitude": 14.5256
},
{
"Name": "Schulterndorf",
"PostCode": "9131",
"Latitude": 46.5782,
"Longitude": 14.5256
},
{
"Name": "Skarbin",
"PostCode": "9131",
"Latitude": 46.5833,
"Longitude": 14.4833
},
{
"Name": "St. Peter",
"PostCode": "9131",
"Latitude": 46.5782,
"Longitude": 14.5256
},
{
"Name": "Tainacherfeld",
"PostCode": "9131",
"Latitude": 46.5782,
"Longitude": 14.5256
},
{
"Name": "Thon",
"PostCode": "9131",
"Latitude": 46.63,
"Longitude": 14.4803
},
{
"Name": "Truttendorf",
"PostCode": "9131",
"Latitude": 46.61,
"Longitude": 14.4331
},
{
"Name": "Unterfischern",
"PostCode": "9131",
"Latitude": 46.5782,
"Longitude": 14.5256
},
{
"Name": "Unterwuchel",
"PostCode": "9131",
"Latitude": 46.6167,
"Longitude": 14.45
},
{
"Name": "Werda",
"PostCode": "9131",
"Latitude": 46.5782,
"Longitude": 14.5256
},
{
"Name": "Wölfnitz",
"PostCode": "9131",
"Latitude": 46.5782,
"Longitude": 14.5256
},
{
"Name": "Zapfendorf",
"PostCode": "9131",
"Latitude": 46.5782,
"Longitude": 14.5256
}
],
"PostCode": "9131"
},
{
"Name": "Keutschach am See",
"Code": "20412",
"Places": [
{
"Name": "Dobein",
"PostCode": "9074",
"Latitude": 46.5722,
"Longitude": 14.1542
},
{
"Name": "Dobeinitz",
"PostCode": "9074",
"Latitude": 46.5833,
"Longitude": 14.1833
},
{
"Name": "Höflein",
"PostCode": "9074",
"Latitude": 46.5833,
"Longitude": 14.2167
},
{
"Name": "Höhe",
"PostCode": "9074",
"Latitude": 46.5978,
"Longitude": 14.1431
},
{
"Name": "Keutschach",
"PostCode": "9074",
"Latitude": 46.5931,
"Longitude": 14.1889
},
{
"Name": "Leisbach",
"PostCode": "9074",
"Latitude": 46.5942,
"Longitude": 14.2311
},
{
"Name": "Linden",
"PostCode": "9074",
"Latitude": 46.6,
"Longitude": 14.15
},
{
"Name": "Pertitschach",
"PostCode": "9074",
"Latitude": 46.5897,
"Longitude": 14.2231
},
{
"Name": "Plaschischen",
"PostCode": "9074",
"Latitude": 46.5833,
"Longitude": 14.1667
},
{
"Name": "Plescherken",
"PostCode": "9074",
"Latitude": 46.5833,
"Longitude": 14.1333
},
{
"Name": "Rauth",
"PostCode": "9074",
"Latitude": 46.5662,
"Longitude": 14.1898
},
{
"Name": "Reauz",
"PostCode": "9074",
"Latitude": 46.5662,
"Longitude": 14.1898
},
{
"Name": "Schelesnitz",
"PostCode": "9074",
"Latitude": 46.5662,
"Longitude": 14.1898
},
{
"Name": "St. Margarethen",
"PostCode": "9074",
"Latitude": 46.5662,
"Longitude": 14.1898
},
{
"Name": "St. Nikolai",
"PostCode": "9074",
"Latitude": 46.5908,
"Longitude": 14.2106
}
],
"PostCode": "9074"
},
{
"Name": "Köttmannsdorf",
"Code": "20414",
"Places": [
{
"Name": "Aich",
"PostCode": "9073",
"Latitude": 46.5667,
"Longitude": 14.2667
},
{
"Name": "Am Teller",
"PostCode": "9071",
"Latitude": 46.5662,
"Longitude": 14.1898
},
{
"Name": "Gaisach",
"PostCode": "9161",
"Latitude": 46.5408,
"Longitude": 14.2827
},
{
"Name": "Göriach",
"PostCode": "9161",
"Latitude": 46.55,
"Longitude": 14.2667
},
{
"Name": "Hollenburg",
"PostCode": "9161",
"Latitude": 46.55,
"Longitude": 14.25
},
{
"Name": "Köttmannsdorf",
"PostCode": "9071",
"Latitude": 46.5614,
"Longitude": 14.2339
},
{
"Name": "Lambichl",
"PostCode": "9073",
"Latitude": 46.5667,
"Longitude": 14.2667
},
{
"Name": "Lambichl",
"PostCode": "9161",
"Latitude": 46.5667,
"Longitude": 14.2667
},
{
"Name": "Mostitz",
"PostCode": "9071",
"Latitude": 46.5662,
"Longitude": 14.1898
},
{
"Name": "Neusaß",
"PostCode": "9071",
"Latitude": 46.5511,
"Longitude": 14.1869
},
{
"Name": "Plöschenberg",
"PostCode": "9071",
"Latitude": 46.5662,
"Longitude": 14.1898
},
{
"Name": "Preliebl",
"PostCode": "9071",
"Latitude": 46.5662,
"Longitude": 14.1898
},
{
"Name": "Rotschitzen",
"PostCode": "9073",
"Latitude": 46.5726,
"Longitude": 14.2618
},
{
"Name": "Schwanein",
"PostCode": "9073",
"Latitude": 46.5662,
"Longitude": 14.1898
},
{
"Name": "St. Gandolf",
"PostCode": "9071",
"Latitude": 46.5662,
"Longitude": 14.1898
},
{
"Name": "St. Margarethen",
"PostCode": "9071",
"Latitude": 46.5662,
"Longitude": 14.1898
},
{
"Name": "Thal",
"PostCode": "9073",
"Latitude": 46.5662,
"Longitude": 14.1898
},
{
"Name": "Trabesing",
"PostCode": "9071",
"Latitude": 46.5653,
"Longitude": 14.2531
},
{
"Name": "Tretram",
"PostCode": "9071",
"Latitude": 46.5667,
"Longitude": 14.2667
},
{
"Name": "Tretram",
"PostCode": "9073",
"Latitude": 46.5667,
"Longitude": 14.2667
},
{
"Name": "Tschachoritsch",
"PostCode": "9071",
"Latitude": 46.55,
"Longitude": 14.2167
},
{
"Name": "Tschrestal",
"PostCode": "9071",
"Latitude": 46.5636,
"Longitude": 14.2
},
{
"Name": "Unterschloßberg",
"PostCode": "9161",
"Latitude": 46.5408,
"Longitude": 14.2827
},
{
"Name": "Wegscheide",
"PostCode": "9161",
"Latitude": 46.5408,
"Longitude": 14.2827
},
{
"Name": "Wurdach",
"PostCode": "9071",
"Latitude": 46.5667,
"Longitude": 14.2
}
]
},
{
"Name": "Krumpendorf am Wörthersee",
"Code": "20415",
"Places": [
{
"Name": "Görtschach",
"PostCode": "9201",
"Latitude": 46.6375,
"Longitude": 14.2311
},
{
"Name": "Krumpendorf",
"PostCode": "9201",
"Latitude": 46.6333,
"Longitude": 14.2167
},
{
"Name": "Nußberg",
"PostCode": "9061",
"Latitude": 46.6566,
"Longitude": 14.345
},
{
"Name": "Pritschitz",
"PostCode": "9210",
"Latitude": 46.6267,
"Longitude": 14.1853
},
{
"Name": "Tultschnig",
"PostCode": "9061",
"Latitude": 46.65,
"Longitude": 14.2333
}
]
},
{
"Name": "Ludmannsdorf",
"Code": "20416",
"Places": [
{
"Name": "Bach / Potok",
"PostCode": "9072",
"Latitude": 46.55,
"Longitude": 14.15
},
{
"Name": "Edling / Kajzaze",
"PostCode": "9072",
"Latitude": 46.5662,
"Longitude": 14.1898
},
{
"Name": "Fellersdorf / Bilnjovs",
"PostCode": "9072",
"Latitude": 46.5333,
"Longitude": 14.1583
},
{
"Name": "Franzendorf / Branca vas",
"PostCode": "9072",
"Latitude": 46.5662,
"Longitude": 14.1898
},
{
"Name": "Großkleinberg / Mala gora",
"PostCode": "9072",
"Latitude": 46.55,
"Longitude": 14.15
},
{
"Name": "Ludmannsdorf / Bilcovs",
"PostCode": "9072",
"Latitude": 46.5414,
"Longitude": 14.1343
},
{
"Name": "Lukowitz / Kovice",
"PostCode": "9072",
"Latitude": 46.55,
"Longitude": 14.1
},
{
"Name": "Moschenitzen / Mošcenica",
"PostCode": "9072",
"Latitude": 46.5397,
"Longitude": 14.1539
},
{
"Name": "Muschkau / Muškava",
"PostCode": "9072",
"Latitude": 46.5333,
"Longitude": 14.1833
},
{
"Name": "Niederdörfl / Spodnja vesca",
"PostCode": "9072",
"Latitude": 46.5369,
"Longitude": 14.1747
},
{
"Name": "Niederdörfl / Spodnja vesca",
"PostCode": "9181",
"Latitude": 46.5369,
"Longitude": 14.1747
},
{
"Name": "Oberdörfl / Zgornja vesca",
"PostCode": "9072",
"Latitude": 46.5662,
"Longitude": 14.1898
},
{
"Name": "Pugrad / Podgrad",
"PostCode": "9072",
"Latitude": 46.5662,
"Longitude": 14.1898
},
{
"Name": "Rupertiberg / Na Gori",
"PostCode": "9072",
"Latitude": 46.55,
"Longitude": 14.1
},
{
"Name": "Selkach / Želuce",
"PostCode": "9072",
"Latitude": 46.5662,
"Longitude": 14.1898
},
{
"Name": "Strein / Stranje",
"PostCode": "9072",
"Latitude": 46.5662,
"Longitude": 14.1898
},
{
"Name": "Wellersdorf / Velinja vas",
"PostCode": "9072",
"Latitude": 46.5662,
"Longitude": 14.1898
},
{
"Name": "Zedras / Sodražava",
"PostCode": "9072",
"Latitude": 46.5667,
"Longitude": 14.15
}
]
},
{
"Name": "Maria Rain",
"Code": "20417",
"Places": [
{
"Name": "Angern",
"PostCode": "9161",
"Latitude": 46.5667,
"Longitude": 14.3167
},
{
"Name": "Angersbichl",
"PostCode": "9161",
"Latitude": 46.5408,
"Longitude": 14.2827
},
{
"Name": "Ehrensdorf",
"PostCode": "9161",
"Latitude": 46.5586,
"Longitude": 14.2767
},
{
"Name": "Göltschach",
"PostCode": "9161",
"Latitude": 46.55,
"Longitude": 14.3333
},
{
"Name": "Haimach",
"PostCode": "9161",
"Latitude": 46.5533,
"Longitude": 14.3242
},
{
"Name": "Maria Rain",
"PostCode": "9161",
"Latitude": 46.5539,
"Longitude": 14.2956
},
{
"Name": "Nadram",
"PostCode": "9161",
"Latitude": 46.5667,
"Longitude": 14.3
},
{
"Name": "Oberguntschach",
"PostCode": "9161",
"Latitude": 46.55,
"Longitude": 14.3333
},
{
"Name": "Obertöllern",
"PostCode": "9161",
"Latitude": 46.5667,
"Longitude": 14.3167
},
{
"Name": "Saberda",
"PostCode": "9161",
"Latitude": 46.5667,
"Longitude": 14.35
},
{
"Name": "St. Ulrich",
"PostCode": "9161",
"Latitude": 46.55,
"Longitude": 14.3
},
{
"Name": "Stemeritsch",
"PostCode": "9161",
"Latitude": 46.5667,
"Longitude": 14.35
},
{
"Name": "Strantschitschach",
"PostCode": "9161",
"Latitude": 46.5408,
"Longitude": 14.2827
},
{
"Name": "Toppelsdorf",
"PostCode": "9161",
"Latitude": 46.5628,
"Longitude": 14.2892
},
{
"Name": "Tschedram",
"PostCode": "9161",
"Latitude": 46.5408,
"Longitude": 14.2827
},
{
"Name": "Unterguntschach",
"PostCode": "9161",
"Latitude": 46.55,
"Longitude": 14.35
},
{
"Name": "Untertöllern",
"PostCode": "9161",
"Latitude": 46.5408,
"Longitude": 14.2827
}
],
"PostCode": "9161"
},
{
"Name": "Maria Saal",
"Code": "20418",
"Places": [
{
"Name": "Arndorf",
"PostCode": "9063",
"Latitude": 46.6833,
"Longitude": 14.35
},
{
"Name": "Bergl",
"PostCode": "9063",
"Latitude": 46.6566,
"Longitude": 14.345
},
{
"Name": "Dellach",
"PostCode": "9063",
"Latitude": 46.6566,
"Longitude": 14.345
},
{
"Name": "Gröblach",
"PostCode": "9063",
"Latitude": 46.6566,
"Longitude": 14.345
},
{
"Name": "Hart",
"PostCode": "9063",
"Latitude": 46.6566,
"Longitude": 14.345
},
{
"Name": "Höfern",
"PostCode": "9063",
"Latitude": 46.6566,
"Longitude": 14.345
},
{
"Name": "Judendorf",
"PostCode": "9063",
"Latitude": 46.6566,
"Longitude": 14.345
},
{
"Name": "Kading",
"PostCode": "9063",
"Latitude": 46.6949,
"Longitude": 14.337
},
{
"Name": "Karnburg",
"PostCode": "9063",
"Latitude": 46.6853,
"Longitude": 14.315
},
{
"Name": "Kuchling",
"PostCode": "9063",
"Latitude": 46.6566,
"Longitude": 14.345
},
{
"Name": "Lind",
"PostCode": "9063",
"Latitude": 46.6566,
"Longitude": 14.345
},
{
"Name": "Maria Saal",
"PostCode": "9063",
"Latitude": 46.6808,
"Longitude": 14.3486
},
{
"Name": "Meilsberg",
"PostCode": "9063",
"Latitude": 46.6566,
"Longitude": 14.345
},
{
"Name": "Meiselberg",
"PostCode": "9063",
"Latitude": 46.6566,
"Longitude": 14.345
},
{
"Name": "Möderndorf",
"PostCode": "9063",
"Latitude": 46.7,
"Longitude": 14.3333
},
{
"Name": "Poppichl",
"PostCode": "9020",
"Latitude": 46.6667,
"Longitude": 14.3
},
{
"Name": "Poppichl",
"PostCode": "9061",
"Latitude": 46.6667,
"Longitude": 14.3
},
{
"Name": "Pörtschach am Berg",
"PostCode": "9063",
"Latitude": 46.6986,
"Longitude": 14.3194
},
{
"Name": "Possau",
"PostCode": "9063",
"Latitude": 46.7,
"Longitude": 14.3833
},
{
"Name": "Ratzendorf",
"PostCode": "9063",
"Latitude": 46.6566,
"Longitude": 14.345
},
{
"Name": "Rosendorf",
"PostCode": "9063",
"Latitude": 46.6566,
"Longitude": 14.345
},
{
"Name": "Rotheis",
"PostCode": "9063",
"Latitude": 46.6566,
"Longitude": 14.345
},
{
"Name": "Sagrad",
"PostCode": "9063",
"Latitude": 46.6566,
"Longitude": 14.345
},
{
"Name": "St. Michael am Zollfeld",
"PostCode": "9063",
"Latitude": 46.7167,
"Longitude": 14.3833
},
{
"Name": "Stegendorf",
"PostCode": "9063",
"Latitude": 46.6833,
"Longitude": 14.2833
},
{
"Name": "Stuttern",
"PostCode": "9063",
"Latitude": 46.6811,
"Longitude": 14.3928
},
{
"Name": "Techmannsdorf",
"PostCode": "9063",
"Latitude": 46.6566,
"Longitude": 14.345
},
{
"Name": "Thurn",
"PostCode": "9063",
"Latitude": 46.6566,
"Longitude": 14.345
},
{
"Name": "Töltschach",
"PostCode": "9063",
"Latitude": 46.6956,
"Longitude": 14.3672
},
{
"Name": "Walddorf",
"PostCode": "9020",
"Latitude": 46.6642,
"Longitude": 14.3169
},
{
"Name": "Willersdorf",
"PostCode": "9063",
"Latitude": 46.7167,
"Longitude": 14.3833
},
{
"Name": "Winklern",
"PostCode": "9063",
"Latitude": 46.6833,
"Longitude": 14.3667
},
{
"Name": "Wrießnitz",
"PostCode": "9063",
"Latitude": 46.6833,
"Longitude": 14.3
},
{
"Name": "Wutschein",
"PostCode": "9063",
"Latitude": 46.6566,
"Longitude": 14.345
},
{
"Name": "Zell",
"PostCode": "9063",
"Latitude": 46.6566,
"Longitude": 14.345
},
{
"Name": "Zollfeld",
"PostCode": "9063",
"Latitude": 46.7,
"Longitude": 14.35
}
]
},
{
"Name": "Maria Wörth",
"Code": "20419",
"Places": [
{
"Name": "Maiernigg",
"PostCode": "9073",
"Latitude": 46.5662,
"Longitude": 14.1898
},
{
"Name": "Maria Wörth",
"PostCode": "9082",
"Latitude": 46.6164,
"Longitude": 14.1631
},
{
"Name": "Oberdellach",
"PostCode": "9082",
"Latitude": 46.6118,
"Longitude": 14.1724
},
{
"Name": "Raunach",
"PostCode": "9081",
"Latitude": 46.6118,
"Longitude": 14.1724
},
{
"Name": "Reifnitz",
"PostCode": "9081",
"Latitude": 46.6072,
"Longitude": 14.1817
},
{
"Name": "Sekirn",
"PostCode": "9081",
"Latitude": 46.6118,
"Longitude": 14.1724
},
{
"Name": "St. Anna",
"PostCode": "9081",
"Latitude": 46.6118,
"Longitude": 14.1724
},
{
"Name": "Unterdellach",
"PostCode": "9082",
"Latitude": 46.6118,
"Longitude": 14.1724
}
]
},
{
"Name": "Moosburg",
"Code": "20421",
"Places": [
{
"Name": "Ameisbichl",
"PostCode": "9062",
"Latitude": 46.6628,
"Longitude": 14.2167
},
{
"Name": "Arlsdorf",
"PostCode": "9062",
"Latitude": 46.6566,
"Longitude": 14.345
},
{
"Name": "Bärndorf",
"PostCode": "9062",
"Latitude": 46.665,
"Longitude": 14.1344
},
{
"Name": "Dellach",
"PostCode": "9062",
"Latitude": 46.6667,
"Longitude": 14.2
},
{
"Name": "Faning",
"PostCode": "9062",
"Latitude": 46.6861,
"Longitude": 14.2222
},
{
"Name": "Freudenberg",
"PostCode": "9062",
"Latitude": 46.6566,
"Longitude": 14.345
},
{
"Name": "Gabriel",
"PostCode": "9062",
"Latitude": 46.6566,
"Longitude": 14.345
},
{
"Name": "Goritschitzen",
"PostCode": "9062",
"Latitude": 46.65,
"Longitude": 14.2
},
{
"Name": "Gradenegg",
"PostCode": "9062",
"Latitude": 46.6667,
"Longitude": 14.1667
},
{
"Name": "Hohenfeld",
"PostCode": "9201",
"Latitude": 46.6414,
"Longitude": 14.2028
},
{
"Name": "Knasweg",
"PostCode": "9062",
"Latitude": 46.6783,
"Longitude": 14.1436
},
{
"Name": "Knasweg",
"PostCode": "9560",
"Latitude": 46.6783,
"Longitude": 14.1436
},
{
"Name": "Krainig",
"PostCode": "9062",
"Latitude": 46.6566,
"Longitude": 14.345
},
{
"Name": "Kreggab",
"PostCode": "9062",
"Latitude": 46.6333,
"Longitude": 14.1833
},
{
"Name": "Kreggab",
"PostCode": "9210",
"Latitude": 46.6333,
"Longitude": 14.1833
},
{
"Name": "Malleberg",
"PostCode": "9062",
"Latitude": 46.6566,
"Longitude": 14.345
},
{
"Name": "Moosburg",
"PostCode": "9062",
"Latitude": 46.6575,
"Longitude": 14.1747
},
{
"Name": "Nußberg",
"PostCode": "9062",
"Latitude": 46.6833,
"Longitude": 14.2167
},
{
"Name": "Obergöriach",
"PostCode": "9062",
"Latitude": 46.6678,
"Longitude": 14.1228
},
{
"Name": "Polan",
"PostCode": "9062",
"Latitude": 46.6566,
"Longitude": 14.345
},
{
"Name": "Prosintschach",
"PostCode": "9062",
"Latitude": 46.6566,
"Longitude": 14.345
},
{
"Name": "Ratzenegg",
"PostCode": "9062",
"Latitude": 46.65,
"Longitude": 14.1833
},
{
"Name": "Rosenau",
"PostCode": "9062",
"Latitude": 46.6833,
"Longitude": 14.1833
},
{
"Name": "Seigbichl",
"PostCode": "9062",
"Latitude": 46.6661,
"Longitude": 14.2111
},
{
"Name": "Simislau",
"PostCode": "9062",
"Latitude": 46.6566,
"Longitude": 14.345
},
{
"Name": "St. Peter",
"PostCode": "9062",
"Latitude": 46.6566,
"Longitude": 14.345
},
{
"Name": "Stallhofen",
"PostCode": "9062",
"Latitude": 46.6667,
"Longitude": 14.15
},
{
"Name": "Tigring",
"PostCode": "9062",
"Latitude": 46.6836,
"Longitude": 14.1867
},
{
"Name": "Tuderschitz",
"PostCode": "9062",
"Latitude": 46.65,
"Longitude": 14.2
},
{
"Name": "Untergöriach",
"PostCode": "9062",
"Latitude": 46.6566,
"Longitude": 14.345
},
{
"Name": "Unterlinden",
"PostCode": "9062",
"Latitude": 46.6566,
"Longitude": 14.345
},
{
"Name": "Vögelitz",
"PostCode": "9062",
"Latitude": 46.6566,
"Longitude": 14.345
},
{
"Name": "Wielen",
"PostCode": "9062",
"Latitude": 46.6566,
"Longitude": 14.345
},
{
"Name": "Windischbach",
"PostCode": "9062",
"Latitude": 46.6566,
"Longitude": 14.345
},
{
"Name": "Windischbach-Gegend",
"PostCode": "9062",
"Latitude": 46.6566,
"Longitude": 14.345
},
{
"Name": "Witsch",
"PostCode": "9062",
"Latitude": 46.6566,
"Longitude": 14.345
},
{
"Name": "Witsch",
"PostCode": "9560",
"Latitude": 46.7413,
"Longitude": 14.0634
},
{
"Name": "Ziegelsdorf",
"PostCode": "9061",
"Latitude": 46.6703,
"Longitude": 14.2036
},
{
"Name": "Ziegelsdorf",
"PostCode": "9062",
"Latitude": 46.6703,
"Longitude": 14.2036
}
]
},
{
"Name": "Pörtschach am Wörther See",
"Code": "20424",
"Places": [
{
"Name": "Pörtschach am Wörther See",
"PostCode": "9201",
"Latitude": 46.6364,
"Longitude": 14.1464
},
{
"Name": "Pörtschach am Wörther See",
"PostCode": "9210",
"Latitude": 46.6364,
"Longitude": 14.1464
}
]
},
{
"Name": "Poggersdorf",
"Code": "20425",
"Places": [
{
"Name": "Ameisbichl",
"PostCode": "9130",
"Latitude": 46.5782,
"Longitude": 14.5256
},
{
"Name": "Annamischl",
"PostCode": "9130",
"Latitude": 46.5782,
"Longitude": 14.5256
},
{
"Name": "Eibelhof",
"PostCode": "9130",
"Latitude": 46.5782,
"Longitude": 14.5256
},
{
"Name": "Eiersdorf",
"PostCode": "9130",
"Latitude": 46.65,
"Longitude": 14.5167
},
{
"Name": "Erlach",
"PostCode": "9130",
"Latitude": 46.5782,
"Longitude": 14.5256
},
{
"Name": "Goritschach",
"PostCode": "9130",
"Latitude": 46.5782,
"Longitude": 14.5256
},
{
"Name": "Haidach",
"PostCode": "9130",
"Latitude": 46.6397,
"Longitude": 14.4286
},
{
"Name": "Haidach",
"PostCode": "9131",
"Latitude": 46.6397,
"Longitude": 14.4286
},
{
"Name": "Kreuth",
"PostCode": "9130",
"Latitude": 46.5782,
"Longitude": 14.5256
},
{
"Name": "Kreuzergegend-Ost",
"PostCode": "9130",
"Latitude": 46.5782,
"Longitude": 14.5256
},
{
"Name": "Kreuzergegend-West",
"PostCode": "9130",
"Latitude": 46.5782,
"Longitude": 14.5256
},
{
"Name": "Krobathen",
"PostCode": "9130",
"Latitude": 46.6903,
"Longitude": 14.4864
},
{
"Name": "Lanzendorf",
"PostCode": "9130",
"Latitude": 46.65,
"Longitude": 14.45
},
{
"Name": "Leibsdorf",
"PostCode": "9130",
"Latitude": 46.65,
"Longitude": 14.4667
},
{
"Name": "Linsenberg",
"PostCode": "9130",
"Latitude": 46.6667,
"Longitude": 14.4667
},
{
"Name": "Pischeldorf",
"PostCode": "9130",
"Latitude": 46.6833,
"Longitude": 14.45
},
{
"Name": "Poggersdorf",
"PostCode": "9130",
"Latitude": 46.65,
"Longitude": 14.45
},
{
"Name": "Pubersdorf",
"PostCode": "9130",
"Latitude": 46.6511,
"Longitude": 14.4292
},
{
"Name": "Rain",
"PostCode": "9130",
"Latitude": 46.6333,
"Longitude": 14.4167
},
{
"Name": "Raunachmoos",
"PostCode": "9130",
"Latitude": 46.5782,
"Longitude": 14.5256
},
{
"Name": "St. Johann",
"PostCode": "9130",
"Latitude": 46.5782,
"Longitude": 14.5256
},