[
{
"Name": "Abşeron",
"Code": "01",
"Provinces": [
{
"Communities": [
{
"Places": [
{
"Name": "1 Sayli",
"PostCode": "AZ 0101",
"Location": {
"Latitude": 40.4982,
"Longitude": 49.7582
}
},
{
"Name": "2 Sayli",
"PostCode": "AZ 0102",
"Location": {
"Latitude": 40.4982,
"Longitude": 49.7582
}
},
{
"Name": "Abşeron",
"PostCode": "AZ 0100",
"Location": {
"Latitude": 40.4982,
"Longitude": 49.7582
}
},
{
"Name": "Aşaği Güzdək",
"PostCode": "AZ 0111",
"Location": {
"Latitude": 40.4813,
"Longitude": 49.6656
}
},
{
"Name": "At Yali",
"PostCode": "AZ 0130",
"Location": {
"Latitude": 40.4982,
"Longitude": 49.7582
}
},
{
"Name": "Çayli",
"PostCode": "AZ 0124",
"Location": {
"Latitude": 40.5085,
"Longitude": 49.7657
}
},
{
"Name": "Ceyranbatan",
"PostCode": "AZ 0112",
"Location": {
"Latitude": 40.5419,
"Longitude": 49.6607
}
},
{
"Name": "Digah",
"PostCode": "AZ 0127",
"Location": {
"Latitude": 40.4926,
"Longitude": 49.8748
}
},
{
"Name": "Fatmayi",
"PostCode": "AZ 0113",
"Location": {
"Latitude": 40.5301,
"Longitude": 49.8449
}
},
{
"Name": "Goradil",
"PostCode": "AZ 0122",
"Location": {
"Latitude": 40.5486,
"Longitude": 49.8297
}
},
{
"Name": "Goradil-2",
"PostCode": "AZ 0131",
"Location": {
"Latitude": 40.4982,
"Longitude": 49.7582
}
},
{
"Name": "Güzdək-2",
"PostCode": "AZ 0114",
"Location": {
"Latitude": 40.4879,
"Longitude": 49.7507
}
},
{
"Name": "Hökməli",
"PostCode": "AZ 0115",
"Location": {
"Latitude": 40.4311,
"Longitude": 49.7372
}
},
{
"Name": "Masazir-1",
"PostCode": "AZ 0116",
"Location": {
"Latitude": 40.4879,
"Longitude": 49.7507
}
},
{
"Name": "Masazir-2",
"PostCode": "AZ 0123",
"Location": {
"Latitude": 40.5085,
"Longitude": 49.7657
}
},
{
"Name": "Mehdiabad",
"PostCode": "AZ 0118",
"Location": {
"Latitude": 40.4969,
"Longitude": 49.8517
}
},
{
"Name": "Mexkalon",
"PostCode": "AZ 0129",
"Location": {
"Latitude": 40.5085,
"Longitude": 49.7657
}
},
{
"Name": "Məhəmmmədli",
"PostCode": "AZ 0125",
"Location": {
"Latitude": 40.5085,
"Longitude": 49.7657
}
},
{
"Name": "Müşviqabad",
"PostCode": "AZ 0155",
"Location": {
"Latitude": 40.4982,
"Longitude": 49.7582
}
},
{
"Name": "Novxani",
"PostCode": "AZ 0119",
"Location": {
"Latitude": 40.5291,
"Longitude": 49.7819
}
},
{
"Name": "Pirəkəşkül",
"PostCode": "AZ 0120",
"Location": {
"Latitude": 40.4843,
"Longitude": 49.5925
}
},
{
"Name": "Qobu",
"PostCode": "AZ 0117",
"Location": {
"Latitude": 40.4047,
"Longitude": 49.7131
}
},
{
"Name": "Saray-1pş",
"PostCode": "AZ 0121",
"Location": {
"Latitude": 40.5085,
"Longitude": 49.7657
}
},
{
"Name": "Saray-2",
"PostCode": "AZ 0128",
"Location": {
"Latitude": 40.5085,
"Longitude": 49.7657
}
}
]
}
]
}
]
},
{
"Name": "Ağcabədi",
"Code": "02",
"Provinces": [
{
"Communities": [
{
"Places": [
{
"Name": "2 Sayli",
"PostCode": "AZ 0402",
"Location": {
"Latitude": 40.0501,
"Longitude": 47.4594
}
},
{
"Name": "3 Sayli",
"PostCode": "AZ 0403",
"Location": {
"Latitude": 40.0501,
"Longitude": 47.4594
}
},
{
"Name": "4 Sayli",
"PostCode": "AZ 0404",
"Location": {
"Latitude": 40.0501,
"Longitude": 47.4594
}
},
{
"Name": "Ağcabədi",
"PostCode": "AZ 0400",
"Location": {
"Latitude": 40.0501,
"Longitude": 47.4594
}
},
{
"Name": "Aran",
"PostCode": "AZ 0432",
"Location": {
"Latitude": 39.9241,
"Longitude": 47.4291
}
},
{
"Name": "Avşar",
"PostCode": "AZ 0411",
"Location": {
"Latitude": 39.9739,
"Longitude": 47.4239
}
},
{
"Name": "Boyad",
"PostCode": "AZ 0412",
"Location": {
"Latitude": 40.0302,
"Longitude": 47.3447
}
},
{
"Name": "Gələbədin",
"PostCode": "AZ 0413",
"Location": {
"Latitude": 40.1387,
"Longitude": 47.2514
}
},
{
"Name": "Hacibədəlli",
"PostCode": "AZ 0414",
"Location": {
"Latitude": 40.0622,
"Longitude": 47.3676
}
},
{
"Name": "Hindarx",
"PostCode": "AZ 0415",
"Location": {
"Latitude": 40.0687,
"Longitude": 47.2078
}
},
{
"Name": "Hüsülü",
"PostCode": "AZ 0416",
"Location": {
"Latitude": 40.0694,
"Longitude": 47.2995
}
},
{
"Name": "Kəbirli",
"PostCode": "AZ 0418",
"Location": {
"Latitude": 39.8667,
"Longitude": 47.4528
}
},
{
"Name": "Kəhrizli",
"PostCode": "AZ 0419",
"Location": {
"Latitude": 40.0302,
"Longitude": 47.3447
}
},
{
"Name": "Minəxorlu",
"PostCode": "AZ 0424",
"Location": {
"Latitude": 40.0601,
"Longitude": 47.4194
}
},
{
"Name": "Muğanli",
"PostCode": "AZ 0425",
"Location": {
"Latitude": 40.0084,
"Longitude": 47.2743
}
},
{
"Name": "Pərioğullar",
"PostCode": "AZ 0426",
"Location": {
"Latitude": 40.0601,
"Longitude": 47.4194
}
},
{
"Name": "Qaradolaq",
"PostCode": "AZ 0420",
"Location": {
"Latitude": 39.9277,
"Longitude": 47.4677
}
},
{
"Name": "Qaravəlli",
"PostCode": "AZ 0421",
"Location": {
"Latitude": 40.1696,
"Longitude": 47.7802
}
},
{
"Name": "Salmanbəyli",
"PostCode": "AZ 0427",
"Location": {
"Latitude": 39.9809,
"Longitude": 47.3785
}
},
{
"Name": "Saricali",
"PostCode": "AZ 0428",
"Location": {
"Latitude": 40.1415,
"Longitude": 47.1834
}
},
{
"Name": "Şənlik",
"PostCode": "AZ 0429",
"Location": {
"Latitude": 40.1322,
"Longitude": 47.4324
}
},
{
"Name": "Şərəfxanli",
"PostCode": "AZ 0433",
"Location": {
"Latitude": 40.0512,
"Longitude": 47.1754
}
},
{
"Name": "Təzəkənd",
"PostCode": "AZ 0430",
"Location": {
"Latitude": 39.9876,
"Longitude": 47.3022
}
},
{
"Name": "Xocavənd",
"PostCode": "AZ 0417",
"Location": {
"Latitude": 40.032,
"Longitude": 47.4099
}
},
{
"Name": "Yeniqaradolaq",
"PostCode": "AZ 0431",
"Location": {
"Latitude": 39.9876,
"Longitude": 47.3022
}
},
{
"Name": "Yuxari Qiyamadinli",
"PostCode": "AZ 0422",
"Location": {
"Latitude": 40.0601,
"Longitude": 47.4194
}
}
]
}
]
}
]
},
{
"Name": "Ağdam",
"Code": "03",
"Provinces": [
{
"Communities": [
{
"Places": [
{
"Name": "Ağdam",
"PostCode": "AZ 0200",
"Location": {
"Latitude": 40.002,
"Longitude": 46.9545
}
},
{
"Name": "Çəmənli",
"PostCode": "AZ 0216",
"Location": {
"Latitude": 40.0706,
"Longitude": 47.0428
}
},
{
"Name": "Əfətli",
"PostCode": "AZ 0217",
"Location": {
"Latitude": 40.0094,
"Longitude": 47.0858
}
},
{
"Name": "Mahrizli",
"PostCode": "AZ 0234",
"Location": {
"Latitude": 40.0415,
"Longitude": 47.0599
}
},
{
"Name": "Qaradağli",
"PostCode": "AZ 0230",
"Location": {
"Latitude": 40.0254,
"Longitude": 47.0681
}
},
{
"Name": "Quzanli",
"PostCode": "AZ 0233",
"Location": {
"Latitude": 40.1591,
"Longitude": 47.1653
}
},
{
"Name": "Üç Oğlan",
"PostCode": "AZ 0246",
"Location": {
"Latitude": 40.0619,
"Longitude": 47.0684
}
},
{
"Name": "Xindiristan",
"PostCode": "AZ 0227",
"Location": {
"Latitude": 40.125,
"Longitude": 47.1026
}
}
]
}
]
}
]
},
{
"Name": "Ağdaş",
"Code": "04",
"Provinces": [
{
"Communities": [
{
"Places": [
{
"Name": "1 Sayli",
"PostCode": "AZ 0301",
"Location": {
"Latitude": 40.647,
"Longitude": 47.4738
}
},
{
"Name": "2 Sayli (Maşad)",
"PostCode": "AZ 0302",
"Location": {
"Latitude": 40.647,
"Longitude": 47.4738
}
},
{
"Name": "Abad",
"PostCode": "AZ 0311",
"Location": {
"Latitude": 40.4666,
"Longitude": 47.336
}
},
{
"Name": "Ağdaş",
"PostCode": "AZ 0300",
"Location": {
"Latitude": 40.647,
"Longitude": 47.4738
}
},
{
"Name": "Dəhnəxəlil",
"PostCode": "AZ 0331",
"Location": {
"Latitude": 40.6802,
"Longitude": 47.5207
}
},
{
"Name": "Ərəb",
"PostCode": "AZ 0340",
"Location": {
"Latitude": 40.6714,
"Longitude": 47.5892
}
},
{
"Name": "Güvəkənd",
"PostCode": "AZ 0318",
"Location": {
"Latitude": 40.5585,
"Longitude": 47.3942
}
},
{
"Name": "Kükəl",
"PostCode": "AZ 0321",
"Location": {
"Latitude": 40.6709,
"Longitude": 47.5679
}
},
{
"Name": "Ləki",
"PostCode": "AZ 0325",
"Location": {
"Latitude": 40.57,
"Longitude": 47.4522
}
},
{
"Name": "Orta Ləki",
"PostCode": "AZ 0327",
"Location": {
"Latitude": 40.5199,
"Longitude": 47.4201
}
},
{
"Name": "Pirəzə",
"PostCode": "AZ 0328",
"Location": {
"Latitude": 40.4131,
"Longitude": 47.3463
}
},
{
"Name": "Qolqəti",
"PostCode": "AZ 0324",
"Location": {
"Latitude": 40.676,
"Longitude": 47.4744
}
},
{
"Name": "Şordəhnə",
"PostCode": "AZ 0313",
"Location": {
"Latitude": 40.5126,
"Longitude": 47.3651
}
},
{
"Name": "Yenicə",
"PostCode": "AZ 0332",
"Location": {
"Latitude": 40.5419,
"Longitude": 47.4851
}
},
{
"Name": "Yuxari Qəsil",
"PostCode": "AZ 0333",
"Location": {
"Latitude": 40.651,
"Longitude": 47.5176
}
}
]
}
]
}
]
},
{
"Name": "Ağstafa",
"Code": "05",
"Provinces": [
{
"Communities": [
{
"Places": [
{
"Name": "Ağstafa",
"PostCode": "AZ 0500",
"Location": {
"Latitude": 41.1189,
"Longitude": 45.4539
}
},
{
"Name": "Ağstafa Vağzal",
"PostCode": "AZ 0511",
"Location": {
"Latitude": 41.156,
"Longitude": 45.4352
}
},
{
"Name": "Aşaği Göycəli",
"PostCode": "AZ 0512",
"Location": {
"Latitude": 41.1156,
"Longitude": 45.485
}
},
{
"Name": "Aşaği Kəsəmən",
"PostCode": "AZ 0513",
"Location": {
"Latitude": 41.1532,
"Longitude": 45.4892
}
},
{
"Name": "Böyük Kəsik",
"PostCode": "AZ 0514",
"Location": {
"Latitude": 41.3902,
"Longitude": 45.1876
}
},
{
"Name": "Dağkəsəmən",
"PostCode": "AZ 0515",
"Location": {
"Latitude": 41.156,
"Longitude": 45.4352
}
},
{
"Name": "Eynalli",
"PostCode": "AZ 0517",
"Location": {
"Latitude": 41.068,
"Longitude": 45.4991
}
},
{
"Name": "Həsənsu",
"PostCode": "AZ 0518",
"Location": {
"Latitude": 41.0822,
"Longitude": 45.4925
}
},
{
"Name": "Kənd Poylu",
"PostCode": "AZ 0520",
"Location": {
"Latitude": 41.107,
"Longitude": 45.6362
}
},
{
"Name": "Köçəsgər",
"PostCode": "AZ 0521",
"Location": {
"Latitude": 41.0575,
"Longitude": 45.5211
}
},
{
"Name": "Muğanli",
"PostCode": "AZ 0525",
"Location": {
"Latitude": 41.3446,
"Longitude": 45.197
}
},
{
"Name": "Poylu Vağzal",
"PostCode": "AZ 0527",
"Location": {
"Latitude": 41.107,
"Longitude": 45.6362
}
},
{
"Name": "Qirli",
"PostCode": "AZ 0523",
"Location": {
"Latitude": 41.107,
"Longitude": 45.6362
}
},
{
"Name": "Sadixli",
"PostCode": "AZ 0529",
"Location": {
"Latitude": 41.107,
"Longitude": 45.6362
}
},
{
"Name": "Sadixli-1 Gomruk",
"PostCode": "AZ 0533",
"Location": {
"Latitude": 41.0257,
"Longitude": 45.4495
}
},
{
"Name": "Səməd Vurğun",
"PostCode": "AZ 0528",
"Location": {
"Latitude": 40.919,
"Longitude": 46.1906
}
},
{
"Name": "Tatli",
"PostCode": "AZ 0532",
"Location": {
"Latitude": 41.0257,
"Longitude": 45.4495
}
},
{
"Name": "Xətai",
"PostCode": "AZ 0519",
"Location": {
"Latitude": 41.1268,
"Longitude": 45.458
}
}
]
}
]
}
]
},
{
"Name": "Ağsu",
"Code": "06",
"Provinces": [
{
"Communities": [
{
"Places": [
{
"Name": "1 Sayli",
"PostCode": "AZ 0601",
"Location": {
"Latitude": 40.5703,
"Longitude": 48.4009
}
},
{
"Name": "Ağsu",
"PostCode": "AZ 0600",
"Location": {
"Latitude": 40.5703,
"Longitude": 48.4009
}
},
{
"Name": "Bico",
"PostCode": "AZ 0611",
"Location": {
"Latitude": 40.5087,
"Longitude": 48.5578
}
},
{
"Name": "Bozavand",
"PostCode": "AZ 0612",
"Location": {
"Latitude": 40.5049,
"Longitude": 48.3762
}
},
{
"Name": "Çaparli",
"PostCode": "AZ 0614",
"Location": {
"Latitude": 40.5096,
"Longitude": 48.4538
}
},
{
"Name": "Çiyni",
"PostCode": "AZ 0615",
"Location": {
"Latitude": 40.523,
"Longitude": 48.2458
}
},
{
"Name": "Ərəbmehdibəy",
"PostCode": "AZ 0616",
"Location": {
"Latitude": 40.5439,
"Longitude": 48.1855
}
},
{
"Name": "Ərəbuşaği",
"PostCode": "AZ 0617",
"Location": {
"Latitude": 40.5274,
"Longitude": 48.4156
}
},
{
"Name": "Gəgəli",
"PostCode": "AZ 0618",
"Location": {
"Latitude": 40.5385,
"Longitude": 48.4942
}
},
{
"Name": "Ilxiçi",
"PostCode": "AZ 0620",
"Location": {
"Latitude": 40.4907,
"Longitude": 48.2952
}
},
{
"Name": "Kalva",
"PostCode": "AZ 0621",
"Location": {
"Latitude": 40.7268,
"Longitude": 48.4811
}
},
{
"Name": "Növcü",
"PostCode": "AZ 0625",
"Location": {
"Latitude": 40.5187,
"Longitude": 48.2595
}
},
{
"Name": "Padar",
"PostCode": "AZ 0627",
"Location": {
"Latitude": 40.5881,
"Longitude": 48.2512
}
},
{
"Name": "Pirhəsənli",
"PostCode": "AZ 0629",
"Location": {
"Latitude": 40.5806,
"Longitude": 48.3604
}
},
{
"Name": "Qaraqoyunlu",
"PostCode": "AZ 0623",
"Location": {
"Latitude": 40.5404,
"Longitude": 48.2995
}
},
{
"Name": "Rəhimli",
"PostCode": "AZ 0630",
"Location": {
"Latitude": 40.4477,
"Longitude": 48.3826
}
}
]
}
]
}
]
},
{
"Name": "Şirvan",
"Code": "07",
"Provinces": [
{
"Communities": [
{
"Places": [
{
"Name": "1 Sayli",
"PostCode": "AZ 1801",
"Location": {
"Latitude": 39.9378,
"Longitude": 48.929
}
},
{
"Name": "12 Sayli",
"PostCode": "AZ 1812",
"Location": {
"Latitude": 39.9378,
"Longitude": 48.929
}
},
{
"Name": "2 Sayli",
"PostCode": "AZ 1802",
"Location": {
"Latitude": 39.9378,
"Longitude": 48.929
}
},
{
"Name": "3 Sayli",
"PostCode": "AZ 1803",
"Location": {
"Latitude": 39.9378,
"Longitude": 48.929
}
},
{
"Name": "4 Sayli",
"PostCode": "AZ 1804",
"Location": {
"Latitude": 39.9378,
"Longitude": 48.929
}
},
{
"Name": "6 Sayli",
"PostCode": "AZ 1806",
"Location": {
"Latitude": 39.9378,
"Longitude": 48.929
}
},
{
"Name": "Şirvan",
"PostCode": "AZ 1800",
"Location": {
"Latitude": 39.9378,
"Longitude": 48.929
}
}
]
}
]
}
]
},
{
"Name": "Astara",
"Code": "08",
"Provinces": [
{
"Communities": [
{
"Places": [
{
"Name": "1 Sayli",
"PostCode": "AZ 0701",
"Location": {
"Latitude": 38.456,
"Longitude": 48.875
}
},
{
"Name": "2 Sayli",
"PostCode": "AZ 0702",
"Location": {
"Latitude": 38.456,
"Longitude": 48.875
}
},
{
"Name": "Astara",
"PostCode": "AZ 0700",
"Location": {
"Latitude": 38.456,
"Longitude": 48.875
}
},
{
"Name": "Astara Gomruk",
"PostCode": "AZ 0704",
"Location": {
"Latitude": 38.456,
"Longitude": 48.875
}
},
{
"Name": "Ərçivan",
"PostCode": "AZ 0711",
"Location": {
"Latitude": 38.5043,
"Longitude": 48.8316
}
},
{
"Name": "Kakalos",
"PostCode": "AZ 0714",
"Location": {
"Latitude": 38.6114,
"Longitude": 48.8429
}
},
{
"Name": "Kicabə",
"PostCode": "AZ 0715",
"Location": {
"Latitude": 38.5487,
"Longitude": 48.8242
}
},
{
"Name": "Maşxan",
"PostCode": "AZ 0716",
"Location": {
"Latitude": 38.5492,
"Longitude": 48.8203
}
},
{
"Name": "Pensər",
"PostCode": "AZ 0717",
"Location": {
"Latitude": 38.6097,
"Longitude": 48.8175
}
},
{
"Name": "Şahağaci",
"PostCode": "AZ 0722",
"Location": {
"Latitude": 38.5229,
"Longitude": 48.8251
}
},
{
"Name": "Səncərədi",
"PostCode": "AZ 0719",
"Location": {
"Latitude": 38.4688,
"Longitude": 48.8086
}
},
{
"Name": "Şiyəkəran",
"PostCode": "AZ 0723",
"Location": {
"Latitude": 38.5576,
"Longitude": 48.8694
}
},
{
"Name": "Siyəkü",
"PostCode": "AZ 0720",
"Location": {
"Latitude": 38.5229,
"Longitude": 48.8251
}
},
{
"Name": "Suparibağ",
"PostCode": "AZ 0721",
"Location": {
"Latitude": 38.4609,
"Longitude": 48.8523
}
},
{
"Name": "Şuvi",
"PostCode": "AZ 0724",
"Location": {
"Latitude": 38.4952,
"Longitude": 48.7621
}
},
{
"Name": "Təngərüd",
"PostCode": "AZ 0725",
"Location": {
"Latitude": 38.578,
"Longitude": 48.8167
}
}
]
}
]
}
]
},
{
"Name": "Baki",
"Code": "09",
"Provinces": [
{
"Communities": [
{
"Places": [
{
"Name": "Baki",
"PostCode": "AZ 1000",
"Location": {
"Latitude": 40.3777,
"Longitude": 49.892
}
},
{
"Name": "Baki Deniz Limani",
"PostCode": "AZ 1157",
"Location": {
"Latitude": 40.3777,
"Longitude": 49.892
}
},
{
"Name": "Baki-1",
"PostCode": "AZ 1001",
"Location": {
"Latitude": 40.3777,
"Longitude": 49.892
}
},
{
"Name": "Baki-10",
"PostCode": "AZ 1010",
"Location": {
"Latitude": 39.9179,
"Longitude": 49.2168
}
},
{
"Name": "Baki-100",
"PostCode": "AZ 1100",
"Location": {
"Latitude": 40.3777,
"Longitude": 49.892
}
},
{
"Name": "Baki-102",
"PostCode": "AZ 1102",
"Location": {
"Latitude": 40.3777,
"Longitude": 49.892
}
},
{
"Name": "Baki-104",
"PostCode": "AZ 1104",
"Location": {
"Latitude": 40.3777,
"Longitude": 49.892
}
},
{
"Name": "Baki-106",
"PostCode": "AZ 1106",
"Location": {
"Latitude": 40.3777,
"Longitude": 49.892
}
},
{
"Name": "Baki-107",
"PostCode": "AZ 1107",
"Location": {
"Latitude": 40.3777,
"Longitude": 49.892
}
},
{
"Name": "Baki-108",
"PostCode": "AZ 1108",
"Location": {
"Latitude": 40.3777,
"Longitude": 49.892
}
},
{
"Name": "Baki-110",
"PostCode": "AZ 1110",
"Location": {
"Latitude": 40.3777,
"Longitude": 49.892
}
},
{
"Name": "Baki-111",
"PostCode": "AZ 1111",
"Location": {
"Latitude": 40.3777,
"Longitude": 49.892
}
},
{
"Name": "Baki-112",
"PostCode": "AZ 1112",
"Location": {
"Latitude": 40.3777,
"Longitude": 49.892
}
},
{
"Name": "Baki-113",
"PostCode": "AZ 1113",
"Location": {
"Latitude": 40.3777,
"Longitude": 49.892
}
},
{
"Name": "Baki-114",
"PostCode": "AZ 1114",
"Location": {
"Latitude": 40.3777,
"Longitude": 49.892
}
},
{
"Name": "Baki-115",
"PostCode": "AZ 1115",
"Location": {
"Latitude": 40.3777,
"Longitude": 49.892
}
},
{
"Name": "Baki-116",
"PostCode": "AZ 1116",
"Location": {
"Latitude": 40.3777,
"Longitude": 49.892
}
},
{
"Name": "Baki-117",
"PostCode": "AZ 1117",
"Location": {
"Latitude": 40.3777,
"Longitude": 49.892
}
},
{
"Name": "Baki-118",
"PostCode": "AZ 1118",
"Location": {
"Latitude": 40.3777,
"Longitude": 49.892
}
},
{
"Name": "Baki-119",
"PostCode": "AZ 1119",
"Location": {
"Latitude": 40.3777,
"Longitude": 49.892
}
},
{
"Name": "Baki-12",
"PostCode": "AZ 1012",
"Location": {
"Latitude": 39.9179,
"Longitude": 49.2168
}
},
{
"Name": "Baki-120",
"PostCode": "AZ 1120",
"Location": {
"Latitude": 40.3777,
"Longitude": 49.892
}
},
{
"Name": "Baki-121",
"PostCode": "AZ 1121",
"Location": {
"Latitude": 40.3777,
"Longitude": 49.892
}
},
{
"Name": "Baki-122",
"PostCode": "AZ 1122",
"Location": {
"Latitude": 40.3777,
"Longitude": 49.892
}
},
{
"Name": "Baki-123",
"PostCode": "AZ 1123",
"Location": {
"Latitude": 40.3777,
"Longitude": 49.892
}
},
{
"Name": "Baki-124",
"PostCode": "AZ 1124",
"Location": {
"Latitude": 40.3777,
"Longitude": 49.892
}
},
{
"Name": "Baki-125",
"PostCode": "AZ 1125",
"Location": {
"Latitude": 40.3777,
"Longitude": 49.892
}
},
{
"Name": "Baki-126",
"PostCode": "AZ 1126",
"Location": {
"Latitude": 40.3777,
"Longitude": 49.892
}
},
{
"Name": "Baki-127",
"PostCode": "AZ 1127",
"Location": {
"Latitude": 40.3777,
"Longitude": 49.892
}
},
{
"Name": "Baki-128",
"PostCode": "AZ 1128",
"Location": {
"Latitude": 40.3777,
"Longitude": 49.892
}
},
{
"Name": "Baki-129",
"PostCode": "AZ 1129",
"Location": {
"Latitude": 40.3777,
"Longitude": 49.892
}
},
{
"Name": "Baki-130",
"PostCode": "AZ 1130",
"Location": {
"Latitude": 40.3777,
"Longitude": 49.892
}
},
{
"Name": "Baki-131",
"PostCode": "AZ 1131",
"Location": {
"Latitude": 40.3777,
"Longitude": 49.892
}
},
{
"Name": "Baki-132",
"PostCode": "AZ 1132",
"Location": {
"Latitude": 40.3777,
"Longitude": 49.892
}
},
{
"Name": "Baki-133",
"PostCode": "AZ 1133",
"Location": {
"Latitude": 40.3777,
"Longitude": 49.892
}
},
{
"Name": "Baki-134",
"PostCode": "AZ 1134",
"Location": {
"Latitude": 40.3777,
"Longitude": 49.892
}
},
{
"Name": "Baki-135",
"PostCode": "AZ 1135",
"Location": {
"Latitude": 40.3777,
"Longitude": 49.892
}
},
{
"Name": "Baki-136",
"PostCode": "AZ 1136",
"Location": {
"Latitude": 40.3777,
"Longitude": 49.892
}
},
{
"Name": "Baki-137",
"PostCode": "AZ 1137",
"Location": {
"Latitude": 40.3777,
"Longitude": 49.892
}
},
{
"Name": "Baki-138",
"PostCode": "AZ 1138",
"Location": {
"Latitude": 40.3777,
"Longitude": 49.892
}
},
{
"Name": "Baki-139",
"PostCode": "AZ 1139",
"Location": {
"Latitude": 40.3777,
"Longitude": 49.892
}
},
{
"Name": "Baki-14",
"PostCode": "AZ 1014",
"Location": {
"Latitude": 39.9179,
"Longitude": 49.2168
}
},
{
"Name": "Baki-140",
"PostCode": "AZ 1140",
"Location": {
"Latitude": 40.3777,
"Longitude": 49.892
}
},
{
"Name": "Baki-141",
"PostCode": "AZ 1141",
"Location": {
"Latitude": 40.3777,
"Longitude": 49.892
}
},
{
"Name": "Baki-142",
"PostCode": "AZ 1142",
"Location": {
"Latitude": 40.3777,
"Longitude": 49.892
}
},
{
"Name": "Baki-143",
"PostCode": "AZ 1143",
"Location": {
"Latitude": 40.3777,
"Longitude": 49.892
}
},
{
"Name": "Baki-144",
"PostCode": "AZ 1144",
"Location": {
"Latitude": 40.3777,
"Longitude": 49.892
}
},
{
"Name": "Baki-145",
"PostCode": "AZ 1145",
"Location": {
"Latitude": 40.3777,
"Longitude": 49.892
}
},
{
"Name": "Baki-146",
"PostCode": "AZ 1146",
"Location": {
"Latitude": 40.3777,
"Longitude": 49.892
}
},
{
"Name": "Baki-147",
"PostCode": "AZ 1147",
"Location": {
"Latitude": 40.3777,
"Longitude": 49.892
}
},
{
"Name": "Baki-148",
"PostCode": "AZ 1148",
"Location": {
"Latitude": 40.3777,
"Longitude": 49.892
}
},
{
"Name": "Baki-149",
"PostCode": "AZ 1149",
"Location": {
"Latitude": 40.3777,
"Longitude": 49.892
}
},
{
"Name": "Baki-15",
"PostCode": "AZ 1015",
"Location": {
"Latitude": 39.9179,
"Longitude": 49.2168
}
},
{
"Name": "Baki-150",
"PostCode": "AZ 1150",
"Location": {
"Latitude": 40.3777,
"Longitude": 49.892
}
},
{
"Name": "Baki-151",
"PostCode": "AZ 1151",
"Location": {
"Latitude": 40.3777,
"Longitude": 49.892
}
},
{
"Name": "Baki-152",
"PostCode": "AZ 1152",
"Location": {
"Latitude": 40.3777,
"Longitude": 49.892
}
},
{
"Name": "Baki-153",
"PostCode": "AZ 1153",
"Location": {
"Latitude": 40.3777,
"Longitude": 49.892
}
},
{
"Name": "Baki-154",
"PostCode": "AZ 1154",
"Location": {
"Latitude": 40.3777,
"Longitude": 49.892
}
},
{
"Name": "Baki-16",
"PostCode": "AZ 1016",
"Location": {
"Latitude": 39.9179,
"Longitude": 49.2168
}
},
{
"Name": "Baki-17",
"PostCode": "AZ 1017",
"Location": {
"Latitude": 39.9179,
"Longitude": 49.2168
}
},
{
"Name": "Baki-18",
"PostCode": "AZ 1018",
"Location": {
"Latitude": 39.9179,
"Longitude": 49.2168
}
},
{
"Name": "Baki-2",
"PostCode": "AZ 1002",
"Location": {
"Latitude": 40.3777,
"Longitude": 49.892
}
},
{
"Name": "Baki-20",
"PostCode": "AZ 1020",
"Location": {
"Latitude": 39.3138,
"Longitude": 49.2072
}
},
{
"Name": "Baki-21",
"PostCode": "AZ 1021",
"Location": {
"Latitude": 39.3138,
"Longitude": 49.2072
}
},
{
"Name": "Baki-22",
"PostCode": "AZ 1022",
"Location": {
"Latitude": 39.3138,
"Longitude": 49.2072
}
},
{
"Name": "Baki-23",
"PostCode": "AZ 1023",
"Location": {
"Latitude": 39.3138,
"Longitude": 49.2072
}
},
{
"Name": "Baki-25",
"PostCode": "AZ 1025",
"Location": {
"Latitude": 39.3138,
"Longitude": 49.2072
}
},
{
"Name": "Baki-26",
"PostCode": "AZ 1026",
"Location": {
"Latitude": 39.3138,
"Longitude": 49.2072
}
},
{
"Name": "Baki-27",
"PostCode": "AZ 1027",
"Location": {
"Latitude": 39.3138,
"Longitude": 49.2072
}
},
{
"Name": "Baki-29",
"PostCode": "AZ 1029",
"Location": {
"Latitude": 39.3138,
"Longitude": 49.2072
}
},
{
"Name": "Baki-3",
"PostCode": "AZ 1003",
"Location": {
"Latitude": 40.3777,
"Longitude": 49.892
}
},
{
"Name": "Baki-30",
"PostCode": "AZ 1030",
"Location": {
"Latitude": 39.9179,
"Longitude": 49.2168
}
},
{
"Name": "Baki-31",
"PostCode": "AZ 1031",
"Location": {
"Latitude": 39.9179,
"Longitude": 49.2168
}
},
{
"Name": "Baki-32",
"PostCode": "AZ 1032",
"Location": {
"Latitude": 39.9179,
"Longitude": 49.2168
}
},
{
"Name": "Baki-33",
"PostCode": "AZ 1033",
"Location": {
"Latitude": 39.9179,
"Longitude": 49.2168
}
},
{
"Name": "Baki-34",
"PostCode": "AZ 1034",
"Location": {
"Latitude": 39.9179,
"Longitude": 49.2168
}
},
{
"Name": "Baki-35",
"PostCode": "AZ 1035",
"Location": {
"Latitude": 39.9179,
"Longitude": 49.2168
}
},
{
"Name": "Baki-37",
"PostCode": "AZ 1037",
"Location": {
"Latitude": 39.9179,
"Longitude": 49.2168
}
},
{
"Name": "Baki-38",
"PostCode": "AZ 1038",
"Location": {
"Latitude": 39.9179,
"Longitude": 49.2168
}
},
{
"Name": "Baki-39",
"PostCode": "AZ 1039",
"Location": {
"Latitude": 39.9179,
"Longitude": 49.2168
}
},
{
"Name": "Baki-4",
"PostCode": "AZ 1004",
"Location": {
"Latitude": 40.3777,
"Longitude": 49.892
}
},
{
"Name": "Baki-40",
"PostCode": "AZ 1040",
"Location": {
"Latitude": 39.9415,
"Longitude": 48.5493
}
},
{
"Name": "Baki-41",
"PostCode": "AZ 1041",
"Location": {
"Latitude": 39.9415,
"Longitude": 48.5493
}
},
{
"Name": "Baki-42",
"PostCode": "AZ 1042",
"Location": {
"Latitude": 39.9415,
"Longitude": 48.5493
}
},
{
"Name": "Baki-43",
"PostCode": "AZ 1043",
"Location": {
"Latitude": 39.9415,
"Longitude": 48.5493
}
},
{
"Name": "Baki-44",
"PostCode": "AZ 1044",
"Location": {
"Latitude": 39.9415,
"Longitude": 48.5493
}
},
{
"Name": "Baki-45",
"PostCode": "AZ 1045",
"Location": {
"Latitude": 39.9415,
"Longitude": 48.5493
}
},
{
"Name": "Baki-46",
"PostCode": "AZ 1046",
"Location": {
"Latitude": 39.9415,
"Longitude": 48.5493
}
},
{
"Name": "Baki-47",
"PostCode": "AZ 1047",
"Location": {
"Latitude": 39.9415,
"Longitude": 48.5493
}
},
{
"Name": "Baki-48",
"PostCode": "AZ 1048",
"Location": {
"Latitude": 39.9415,
"Longitude": 48.5493
}
},
{
"Name": "Baki-49",
"PostCode": "AZ 1049",
"Location": {
"Latitude": 39.9415,
"Longitude": 48.5493
}
},
{
"Name": "Baki-5",
"PostCode": "AZ 1005",
"Location": {
"Latitude": 40.3777,
"Longitude": 49.892
}
},
{
"Name": "Baki-50",
"PostCode": "AZ 1050",
"Location": {
"Latitude": 39.9179,
"Longitude": 49.2168
}
},
{
"Name": "Baki-52",
"PostCode": "AZ 1052",
"Location": {
"Latitude": 39.9179,
"Longitude": 49.2168
}
},
{
"Name": "Baki-53",
"PostCode": "AZ 1053",
"Location": {
"Latitude": 39.9179,
"Longitude": 49.2168
}
},
{
"Name": "Baki-54",
"PostCode": "AZ 1054",
"Location": {
"Latitude": 39.9179,
"Longitude": 49.2168
}
},
{
"Name": "Baki-56",
"PostCode": "AZ 1056",
"Location": {
"Latitude": 39.9179,
"Longitude": 49.2168
}
},
{
"Name": "Baki-59",
"PostCode": "AZ 1059",
"Location": {
"Latitude": 39.9179,
"Longitude": 49.2168
}
},
{
"Name": "Baki-6",
"PostCode": "AZ 1006",
"Location": {
"Latitude": 40.3777,
"Longitude": 49.892
}
},
{
"Name": "Baki-60",
"PostCode": "AZ 1060",
"Location": {
"Latitude": 39.9179,
"Longitude": 49.2168
}
},
{
"Name": "Baki-61",
"PostCode": "AZ 1061",
"Location": {
"Latitude": 39.9179,
"Longitude": 49.2168
}
},
{
"Name": "Baki-62",
"PostCode": "AZ 1062",
"Location": {
"Latitude": 39.9179,
"Longitude": 49.2168
}
},
{
"Name": "Baki-63",
"PostCode": "AZ 1063",
"Location": {
"Latitude": 39.9179,
"Longitude": 49.2168
}
},
{
"Name": "Baki-64",
"PostCode": "AZ 1064",
"Location": {
"Latitude": 39.9179,
"Longitude": 49.2168
}
},
{
"Name": "Baki-65",
"PostCode": "AZ 1065",
"Location": {
"Latitude": 39.9179,
"Longitude": 49.2168
}
},
{
"Name": "Baki-66",
"PostCode": "AZ 1066",
"Location": {
"Latitude": 39.9179,
"Longitude": 49.2168
}
},
{
"Name": "Baki-67",
"PostCode": "AZ 1067",
"Location": {
"Latitude": 39.9179,
"Longitude": 49.2168
}
},
{
"Name": "Baki-68",
"PostCode": "AZ 1068",
"Location": {
"Latitude": 39.9179,
"Longitude": 49.2168
}
},
{
"Name": "Baki-69",
"PostCode": "AZ 1069",
"Location": {
"Latitude": 39.9179,
"Longitude": 49.2168
}
},
{
"Name": "Baki-7",
"PostCode": "AZ 1007",
"Location": {
"Latitude": 40.3777,
"Longitude": 49.892
}
},
{
"Name": "Baki-70",
"PostCode": "AZ 1070",
"Location": {
"Latitude": 39.9179,
"Longitude": 49.2168
}
},
{
"Name": "Baki-71",
"PostCode": "AZ 1071",
"Location": {
"Latitude": 39.9179,
"Longitude": 49.2168
}
},
{
"Name": "Baki-72",
"PostCode": "AZ 1072",
"Location": {
"Latitude": 39.9179,
"Longitude": 49.2168
}
},
{
"Name": "Baki-73",
"PostCode": "AZ 1073",
"Location": {
"Latitude": 39.9179,
"Longitude": 49.2168
}
},
{
"Name": "Baki-74",
"PostCode": "AZ 1074",
"Location": {
"Latitude": 39.9179,
"Longitude": 49.2168
}
},
{
"Name": "Baki-75",
"PostCode": "AZ 1075",
"Location": {
"Latitude": 39.9179,
"Longitude": 49.2168
}
},
{
"Name": "Baki-76",
"PostCode": "AZ 1076",
"Location": {
"Latitude": 39.9179,
"Longitude": 49.2168
}
},
{
"Name": "Baki-77",
"PostCode": "AZ 1077",
"Location": {
"Latitude": 39.9179,
"Longitude": 49.2168
}
},
{
"Name": "Baki-78",
"PostCode": "AZ 1078",
"Location": {
"Latitude": 39.9179,
"Longitude": 49.2168
}
},
{
"Name": "Baki-79",
"PostCode": "AZ 1079",
"Location": {
"Latitude": 39.9179,
"Longitude": 49.2168
}
},
{
"Name": "Baki-8",
"PostCode": "AZ 1008",
"Location": {
"Latitude": 40.3777,
"Longitude": 49.892
}
},
{
"Name": "Baki-80",
"PostCode": "AZ 1080",
"Location": {
"Latitude": 39.9179,
"Longitude": 49.2168
}
},
{
"Name": "Baki-81",
"PostCode": "AZ 1081",
"Location": {
"Latitude": 39.9179,
"Longitude": 49.2168
}
},
{
"Name": "Baki-82",
"PostCode": "AZ 1082",
"Location": {
"Latitude": 39.9179,
"Longitude": 49.2168
}
},
{
"Name": "Baki-83",
"PostCode": "AZ 1083",
"Location": {
"Latitude": 39.9179,
"Longitude": 49.2168
}
},
{
"Name": "Baki-84",
"PostCode": "AZ 1084",
"Location": {
"Latitude": 39.9179,
"Longitude": 49.2168
}
},
{
"Name": "Baki-85",
"PostCode": "AZ 1085",
"Location": {
"Latitude": 39.9179,
"Longitude": 49.2168
}
},
{
"Name": "Baki-86",
"PostCode": "AZ 1086",
"Location": {
"Latitude": 39.9179,
"Longitude": 49.2168
}
},
{
"Name": "Baki-88",
"PostCode": "AZ 1088",
"Location": {
"Latitude": 39.9179,
"Longitude": 49.2168
}
},
{
"Name": "Baki-89",
"PostCode": "AZ 1089",
"Location": {
"Latitude": 39.9179,
"Longitude": 49.2168
}
},
{
"Name": "Baki-9",
"PostCode": "AZ 1009",
"Location": {
"Latitude": 40.3777,
"Longitude": 49.892
}
},
{
"Name": "Baki-90",
"PostCode": "AZ 1090",
"Location": {
"Latitude": 39.9179,
"Longitude": 49.2168
}
},
{
"Name": "Baki-91",
"PostCode": "AZ 1091",
"Location": {
"Latitude": 39.9179,
"Longitude": 49.2168
}
},
{
"Name": "Baki-92",
"PostCode": "AZ 1092",
"Location": {
"Latitude": 39.9179,
"Longitude": 49.2168
}
},
{
"Name": "Baki-93",
"PostCode": "AZ 1093",
"Location": {
"Latitude": 39.9179,
"Longitude": 49.2168
}
},
{
"Name": "Baki-94",
"PostCode": "AZ 1094",
"Location": {
"Latitude": 39.9179,
"Longitude": 49.2168
}
},
{
"Name": "Baki-96",
"PostCode": "AZ 1096",
"Location": {
"Latitude": 39.9179,
"Longitude": 49.2168
}
},
{
"Name": "Baki-97",
"PostCode": "AZ 1097",
"Location": {
"Latitude": 39.9179,
"Longitude": 49.2168
}
},
{
"Name": "Baki-98",
"PostCode": "AZ 1098",
"Location": {
"Latitude": 39.9179,
"Longitude": 49.2168
}
},
{
"Name": "Elet Liman Gomruk",
"PostCode": "AZ 1170",
"Location": {
"Latitude": 40.3777,
"Longitude": 49.892
}
},
{
"Name": "Hava Limani Baki Gomruk",
"PostCode": "AZ 1156",
"Location": {
"Latitude": 40.3777,
"Longitude": 49.892
}
},
{
"Name": "Qobu Park",
"PostCode": "AZ 1158",
"Location": {
"Latitude": 40.3777,
"Longitude": 49.892
}
}
]
}
]
}
]
},
{
"Name": "Balakən",
"Code": "10",
"Provinces": [
{
"Communities": [
{
"Places": [
{
"Name": "1 Sayli",
"PostCode": "AZ 0801",
"Location": {
"Latitude": 41.7263,
"Longitude": 46.4048
}
},
{
"Name": "Balakən",
"PostCode": "AZ 0800",
"Location": {
"Latitude": 41.7263,
"Longitude": 46.4048
}
},
{
"Name": "Gərəkli",
"PostCode": "AZ 0811",
"Location": {
"Latitude": 41.7618,
"Longitude": 46.3274
}
},
{
"Name": "Hənifə",
"PostCode": "AZ 0812",
"Location": {
"Latitude": 41.7128,
"Longitude": 46.4073
}
},
{
"Name": "Ititala",
"PostCode": "AZ 0814",
"Location": {
"Latitude": 41.5813,
"Longitude": 46.3673
}
},
{
"Name": "Katex",
"PostCode": "AZ 0815",
"Location": {
"Latitude": 41.656,
"Longitude": 46.5516
}
},
{
"Name": "Kortala",
"PostCode": "AZ 0817",
"Location": {
"Latitude": 41.6148,
"Longitude": 46.3818
}
},
{
"Name": "Mahamalar",
"PostCode": "AZ 0823",
"Location": {
"Latitude": 41.7366,
"Longitude": 46.4141
}
},
{
"Name": "Mazimçay (Dgk)",
"PostCode": "AZ 0833",
"Location": {
"Latitude": 41.7325,
"Longitude": 46.3129
}
},
{
"Name": "Meşəşambul",
"PostCode": "AZ 0824",
"Location": {
"Latitude": 41.7129,
"Longitude": 46.2905
}
},
{
"Name": "Püştətala",
"PostCode": "AZ 0818",
"Location": {
"Latitude": 41.6285,
"Longitude": 46.4141
}
},
{
"Name": "Qabaqçöl",
"PostCode": "AZ 0816",
"Location": {
"Latitude": 41.7526,
"Longitude": 46.2705
}
},
{
"Name": "Qazbinə",
"PostCode": "AZ 0821",
"Location": {
"Latitude": 41.7121,
"Longitude": 46.3412
}
},
{
"Name": "Qazma",
"PostCode": "AZ 0820",
"Location": {
"Latitude": 41.6942,
"Longitude": 46.386
}
},
{
"Name": "Qullar",
"PostCode": "AZ 0822",
"Location": {
"Latitude": 41.7312,
"Longitude": 46.4328
}
},
{
"Name": "Şambul",
"PostCode": "AZ 0827",
"Location": {
"Latitude": 41.6921,
"Longitude": 46.272
}
},
{
"Name": "Saribulaq",
"PostCode": "AZ 0826",
"Location": {
"Latitude": 41.679,
"Longitude": 46.3025
}
},
{
"Name": "Şərif",
"PostCode": "AZ 0828",
"Location": {
"Latitude": 41.7379,
"Longitude": 46.2559
}
},
{
"Name": "Talalar",
"PostCode": "AZ 0829",
"Location": {
"Latitude": 41.7132,
"Longitude": 46.3763
}
},
{
"Name": "Tülü",
"PostCode": "AZ 0830",
"Location": {
"Latitude": 41.7272,
"Longitude": 46.3698
}
},
{
"Name": "Yeni Şərif",
"PostCode": "AZ 0831",
"Location": {
"Latitude": 41.7379,
"Longitude": 46.2559
}
}
]
}
]
}
]
},
{
"Name": "Bərdə",
"Code": "11",
"Provinces": [
{
"Communities": [
{
"Places": [
{
"Name": "Alpout",
"PostCode": "AZ 0911",
"Location": {
"Latitude": 40.3242,
"Longitude": 47.2019
}
},
{
"Name": "Bərdə",
"PostCode": "AZ 0900",
"Location": {
"Latitude": 40.3758,
"Longitude": 47.1262
}
},
{
"Name": "Bərdə St",
"PostCode": "AZ 0912",
"Location": {
"Latitude": 40.4064,
"Longitude": 47.1376
}
},
{
"Name": "Bərdə-1",
"PostCode": "AZ 0901",
"Location": {
"Latitude": 40.3758,
"Longitude": 47.1262
}
},
{
"Name": "Bərdə-2",
"PostCode": "AZ 0902",
"Location": {
"Latitude": 40.3758,
"Longitude": 47.1262
}
},
{
"Name": "Böyük Göyüşlü",
"PostCode": "AZ 0913",
"Location": {
"Latitude": 40.3453,
"Longitude": 47.2252
}
},
{
"Name": "Hacalli",
"PostCode": "AZ 0918",
"Location": {
"Latitude": 40.4781,
"Longitude": 47.0623
}
},
{
"Name": "Həsənqaya",
"PostCode": "AZ 0919",
"Location": {
"Latitude": 40.4442,
"Longitude": 47.079
}
},
{
"Name": "Kətəlparaq",
"PostCode": "AZ 0922",
"Location": {
"Latitude": 40.2826,
"Longitude": 47.1146
}
},
{
"Name": "Lənbəran",
"PostCode": "AZ 0927",
"Location": {
"Latitude": 40.2191,
"Longitude": 47.3124
}
},
{
"Name": "Mehdili",
"PostCode": "AZ 0929",
"Location": {
"Latitude": 40.2803,
"Longitude": 47.2017
}
},
{
"Name": "Mehdixanli",
"PostCode": "AZ 0928",
"Location": {
"Latitude": 40.4826,
"Longitude": 47.0516
}
},
{
"Name": "Mirzəcəfərli",
"PostCode": "AZ 0931",
"Location": {
"Latitude": 40.4733,
"Longitude": 47.1629
}
},
{
"Name": "Mirzəlibəyli",
"PostCode": "AZ 0933",
"Location": {
"Latitude": 40.5415,
"Longitude": 46.9371
}
},
{
"Name": "Otuzikilər",
"PostCode": "AZ 0937",
"Location": {
"Latitude": 40.3864,
"Longitude": 47.2397
}
},
{
"Name": "Qaradəmirçi",
"PostCode": "AZ 0924",
"Location": {
"Latitude": 40.3161,
"Longitude": 47.1701
}
},
{
"Name": "Qaraqirnaq",
"PostCode": "AZ 0925",
"Location": {
"Latitude": 40.3161,
"Longitude": 47.1701
}
},
{
"Name": "Qazaxlar",
"PostCode": "AZ 0914",
"Location": {
"Latitude": 40.4197,
"Longitude": 47.0234
}
},
{
"Name": "Samux",
"PostCode": "AZ 0938",
"Location": {
"Latitude": 40.7649,
"Longitude": 46.4087
}
},
{
"Name": "Şirvanli",
"PostCode": "AZ 0942",
"Location": {
"Latitude": 40.3238,
"Longitude": 47.1275
}
},
{
"Name": "Yeni Əyriçə",
"PostCode": "AZ 0915",
"Location": {
"Latitude": 40.4268,
"Longitude": 47.2338
}
},
{
"Name": "Yenidaşkənd",
"PostCode": "AZ 0943",
"Location": {
"Latitude": 40.3238,
"Longitude": 47.1275
}
}
]
}
]
}
]
},
{
"Name": "Beyləqan",
"Code": "12",
"Provinces": [
{
"Communities": [
{
"Places": [
{
"Name": "Allahyarli",
"PostCode": "AZ 1214",
"Location": {
"Latitude": 39.7225,
"Longitude": 47.5725
}
},
{
"Name": "Aşaği Çəmənli",
"PostCode": "AZ 1211",
"Location": {
"Latitude": 39.6848,
"Longitude": 47.8153
}
},
{
"Name": "Aşiqli-1",
"PostCode": "AZ 1215",
"Location": {
"Latitude": 39.7627,
"Longitude": 47.6959
}
},
{
"Name": "Beyləqan",
"PostCode": "AZ 1200",
"Location": {
"Latitude": 39.7756,
"Longitude": 47.6186
}
},
{
"Name": "Binnətli",
"PostCode": "AZ 1213",
"Location": {
"Latitude": 39.7627,
"Longitude": 47.6959
}
},
{
"Name": "Daşburun",
"PostCode": "AZ 1216",
"Location": {
"Latitude": 39.7627,
"Longitude": 47.6959
}
},
{
"Name": "Dünyamallar",
"PostCode": "AZ 1217",
"Location": {
"Latitude": 39.7728,
"Longitude": 47.7589
}
},
{
"Name": "Eyvazallar",
"PostCode": "AZ 1218",
"Location": {
"Latitude": 39.8705,
"Longitude": 47.637
}
},
{
"Name": "Əlinəzərli",
"PostCode": "AZ 1219",
"Location": {
"Latitude": 39.7627,
"Longitude": 47.6959
}
},
{
"Name": "Kəbirli",
"PostCode": "AZ 1222",
"Location": {
"Latitude": 39.8519,
"Longitude": 47.5344
}
},
{
"Name": "Mil-2",
"PostCode": "AZ 1225",
"Location": {
"Latitude": 39.808,
"Longitude": 47.5591
}
},
{
"Name": "Milabad",
"PostCode": "AZ 1226",
"Location": {
"Latitude": 39.6863,
"Longitude": 47.645
}
},
{
"Name": "Örənqala",
"PostCode": "AZ 1227",
"Location": {
"Latitude": 39.8858,
"Longitude": 47.4978
}
},
{
"Name": "Qarallar",
"PostCode": "AZ 1223",
"Location": {
"Latitude": 39.808,
"Longitude": 47.5591
}
},
{
"Name": "Qəhrəmanli",
"PostCode": "AZ 1224",
"Location": {
"Latitude": 39.808,
"Longitude": 47.5591
}
},
{
"Name": "Şahsevən-2",
"PostCode": "AZ 1228",
"Location": {
"Latitude": 39.808,
"Longitude": 47.5591
}
},
{
"Name": "Tatallar",
"PostCode": "AZ 1230",
"Location": {
"Latitude": 39.7403,
"Longitude": 47.68
}
},
{
"Name": "Təzəkənd",
"PostCode": "AZ 1236",
"Location": {
"Latitude": 39.8156,
"Longitude": 47.5886
}
},
{
"Name": "Xalaç",
"PostCode": "AZ 1220",
"Location": {
"Latitude": 39.808,
"Longitude": 47.5591
}
},
{
"Name": "Yuxari Aran",
"PostCode": "AZ 1232",
"Location": {
"Latitude": 39.7327,
"Longitude": 47.6576
}
},
{
"Name": "Yuxari Çəmənli",
"PostCode": "AZ 1234",
"Location": {
"Latitude": 39.6725,
"Longitude": 47.7938
}
}
]
}
]
}
]
},
{
"Name": "Biləsuvar",
"Code": "13",
"Provinces": [
{
"Communities": [
{
"Places": [
{
"Name": "1 Sayli",
"PostCode": "AZ 1301",
"Location": {
"Latitude": 39.5868,
"Longitude": 48.54
}
},
{
"Name": "Ağalikənd",
"PostCode": "AZ 1311",
"Location": {
"Latitude": 39.4275,
"Longitude": 48.4541
}
},
{
"Name": "Aşaği Cürəli",
"PostCode": "AZ 1313",
"Location": {
"Latitude": 39.479,
"Longitude": 48.5086
}
},
{
"Name": "Bağbanlar",
"PostCode": "AZ 1312",
"Location": {
"Latitude": 39.4921,
"Longitude": 48.5627
}
},
{
"Name": "Biləsuvar",
"PostCode": "AZ 1300",
"Location": {
"Latitude": 39.5868,
"Longitude": 48.54
}
},
{
"Name": "Dövrüşlü",
"PostCode": "AZ 1323",
"Location": {
"Latitude": 39.8385,
"Longitude": 48.6133
}
},
{
"Name": "Əsgərabad",
"PostCode": "AZ 1316",
"Location": {
"Latitude": 39.4308,
"Longitude": 48.5718
}
},
{
"Name": "Ismətli",
"PostCode": "AZ 1318",
"Location": {
"Latitude": 39.5303,
"Longitude": 48.5301
}
},
{
"Name": "Nəsimikənd",
"PostCode": "AZ 1320",
"Location": {
"Latitude": 39.8385,
"Longitude": 48.6133
}
},
{
"Name": "Qoşatəpə Gömrük (Dgk)",
"PostCode": "AZ 1325",
"Location": {
"Latitude": 39.8385,
"Longitude": 48.6133
}
},
{
"Name": "Səmədabad",
"PostCode": "AZ 1319",
"Location": {
"Latitude": 39.5421,
"Longitude": 48.3253
}
},
{
"Name": "Xirmandali",
"PostCode": "AZ 1317",
"Location": {
"Latitude": 39.4511,
"Longitude": 48.6075
}
}
]
}
]
}
]
},
{
"Name": "Cəlilabad",
"Code": "15",
"Provinces": [
{
"Communities": [
{
"Places": [
{
"Name": "1 Sayli",
"PostCode": "AZ 1501",
"Location": {
"Latitude": 39.2096,
"Longitude": 48.4919
}
},
{
"Name": "2 Sayli",
"PostCode": "AZ 1502",
"Location": {
"Latitude": 39.2096,
"Longitude": 48.4919
}
},
{
"Name": "Ağdaş",
"PostCode": "AZ 1511",
"Location": {
"Latitude": 39.1181,
"Longitude": 48.4961
}
},
{
"Name": "Alar",
"PostCode": "AZ 1512",
"Location": {
"Latitude": 39.3164,
"Longitude": 48.5349
}
},
{
"Name": "Astanli",
"PostCode": "AZ 1530",
"Location": {
"Latitude": 39.1948,
"Longitude": 48.4282
}
},
{
"Name": "Cəlilabad",
"PostCode": "AZ 1500",
"Location": {
"Latitude": 39.2096,
"Longitude": 48.4919
}
},
{
"Name": "Cəngan",
"PostCode": "AZ 1513",
"Location": {
"Latitude": 39.1827,
"Longitude": 48.3233
}
},
{
"Name": "Əliqasimli",
"PostCode": "AZ 1529",
"Location": {
"Latitude": 39.2866,
"Longitude": 48.4569
}
},
{
"Name": "Göytəpə",
"PostCode": "AZ 1514",
"Location": {
"Latitude": 39.12,
"Longitude": 48.5938
}
},
{
"Name": "Günəşli",
"PostCode": "AZ 1516",
"Location": {
"Latitude": 39.2877,
"Longitude": 48.5703
}
},
{
"Name": "Hamarqişlaq",
"PostCode": "AZ 1517",
"Location": {
"Latitude": 39.1694,
"Longitude": 48.4692
}
},
{
"Name": "Komanli",
"PostCode": "AZ 1519",
"Location": {
"Latitude": 39.0846,
"Longitude": 48.5508
}
},
{
"Name": "Privolnoye",
"PostCode": "AZ 1523",
"Location": {
"Latitude": 39.1292,
"Longitude": 48.5403
}
},
{
"Name": "Qarakazimli",
"PostCode": "AZ 1520",
"Location": {
"Latitude": 39.3071,
"Longitude": 48.2769
}
},
{
"Name": "Qarazəncir",
"PostCode": "AZ 1521",
"Location": {
"Latitude": 39.2633,
"Longitude": 48.5084
}
},
{
"Name": "Sabirabad",
"PostCode": "AZ 1524",
"Location": {
"Latitude": 39.2609,
"Longitude": 48.5335
}
},
{
"Name": "Şiləvəngə",
"PostCode": "AZ 1525",
"Location": {
"Latitude": 39.2604,
"Longitude": 48.4367
}
},
{
"Name": "Təklə",
"PostCode": "AZ 1526",
"Location": {
"Latitude": 39.2568,
"Longitude": 48.3468
}
},
{
"Name": "Üçtəpə",
"PostCode": "AZ 1528",
"Location": {
"Latitude": 39.3367,
"Longitude": 48.4269
}
},
{
"Name": "Uzuntəpə",
"PostCode": "AZ 1527",
"Location": {
"Latitude": 39.2184,
"Longitude": 48.6068
}
},
{
"Name": "Xənagah",
"PostCode": "AZ 1518",
"Location": {
"Latitude": 39.1827,
"Longitude": 48.5055
}
}
]
}
]
}
]
},
{
"Name": "Daşkəsən",
"Code": "16",
"Provinces": [
{
"Communities": [
{
"Places": [
{
"Name": "Bayan",
"PostCode": "AZ 1613",
"Location": {
"Latitude": 40.5538,
"Longitude": 46.1504
}
},
{
"Name": "Daşkəsən",
"PostCode": "AZ 1600",
"Location": {
"Latitude": 40.5239,
"Longitude": 46.0819
}
},
{
"Name": "Qabaqtəpə",
"PostCode": "AZ 1621",
"Location": {
"Latitude": 40.4787,
"Longitude": 45.9068
}
},
{
"Name": "Yuxari Daşkəsən",
"PostCode": "AZ 1626",
"Location": {
"Latitude": 40.4936,
"Longitude": 46.0718
}
}
]
}
]
}
]
},
{
"Name": "Şabran",
"Code": "17",
"Provinces": [
{
"Communities": [
{
"Places": [
{
"Name": "1 Sayli",
"PostCode": "AZ 1701",
"Location": {
"Latitude": 41.2012,
"Longitude": 48.9871
}
},
{
"Name": "Ağaliq",
"PostCode": "AZ 1711",
"Location": {
"Latitude": 41.2168,
"Longitude": 48.8801
}
},
{
"Name": "Dağbilici",
"PostCode": "AZ 1714",
"Location": {
"Latitude": 41.2168,
"Longitude": 48.8801
}
},
{
"Name": "Dəvəçi Vağzal",
"PostCode": "AZ 1715",
"Location": {
"Latitude": 41.2168,
"Longitude": 48.8801
}
},
{
"Name": "Dəvəçikənd",
"PostCode": "AZ 1720",
"Location": {
"Latitude": 41.2418,
"Longitude": 48.8096
}
},
{
"Name": "Əmirxanli",
"PostCode": "AZ 1716",
"Location": {
"Latitude": 41.1282,
"Longitude": 48.9258
}
},
{
"Name": "Gəndob",
"PostCode": "AZ 1717",
"Location": {
"Latitude": 41.2168,
"Longitude": 48.8801
}
},
{
"Name": "Pirəbədil",
"PostCode": "AZ 1718",
"Location": {
"Latitude": 41.2081,
"Longitude": 48.8013
}
},
{
"Name": "Rəhimli",
"PostCode": "AZ 1719",
"Location": {
"Latitude": 41.3141,
"Longitude": 48.9132
}
},
{
"Name": "Şabran",
"PostCode": "AZ 1700",
"Location": {
"Latitude": 41.2012,
"Longitude": 48.9871
}
},
{
"Name": "Şahnəzərli",
"PostCode": "AZ 1721",
"Location": {
"Latitude": 41.2857,
"Longitude": 48.8783
}
},
{
"Name": "Zeyvə",
"PostCode": "AZ 1725",
"Location": {
"Latitude": 41.1979,
"Longitude": 48.7409
}
}
]
}
]
}
]
},
{
"Name": "Füzuli",
"Code": "18",
"Provinces": [
{
"Communities": [
{
"Places": [
{
"Name": "Babi",
"PostCode": "AZ 1915",
"Location": {
"Latitude": 39.5527,
"Longitude": 47.5921
}
},
{
"Name": "Bala Bəhmənli",
"PostCode": "AZ 1917",
"Location": {
"Latitude": 39.5527,
"Longitude": 47.5921
}
},
{
"Name": "Əhmədbəyli",
"PostCode": "AZ 1921",
"Location": {
"Latitude": 39.5656,
"Longitude": 47.5516
}
},
{
"Name": "Füzuli",
"PostCode": "AZ 1900",
"Location": {
"Latitude": 39.6009,
"Longitude": 47.1453
}
},
{
"Name": "Horadiz Qəsəbə",
"PostCode": "AZ 1924",
"Location": {
"Latitude": 39.5656,
"Longitude": 47.5516
}
},
{
"Name": "Kərimbəyli",
"PostCode": "AZ 1930",
"Location": {
"Latitude": 39.5085,
"Longitude": 47.4167
}
}
]
}
]
}
]
},
{
"Name": "Gədəbəy",
"Code": "19",
"Provinces": [
{
"Communities": [
{
"Places": [
{
"Name": "Alnabat",
"PostCode": "AZ 2120",
"Location": {
"Latitude": 40.629,
"Longitude": 45.4758
}
},
{
"Name": "Arabaçi",
"PostCode": "AZ 2112",
"Location": {
"Latitude": 40.545,
"Longitude": 45.5693
}
},
{
"Name": "Böyük Qaramurad",
"PostCode": "AZ 2114",
"Location": {
"Latitude": 40.5763,
"Longitude": 45.6373
}
},
{
"Name": "Çanaqçi",
"PostCode": "AZ 2111",
"Location": {
"Latitude": 40.4126,
"Longitude": 46.1323
}
},
{
"Name": "Çobankənd",
"PostCode": "AZ 2116",
"Location": {
"Latitude": 40.5628,
"Longitude": 45.5832
}
},
{
"Name": "Dəyirmandağ",
"PostCode": "AZ 2118",
"Location": {
"Latitude": 40.5592,
"Longitude": 45.6957
}
},
{
"Name": "Gədəbəy",
"PostCode": "AZ 2100",
"Location": {
"Latitude": 40.5706,
"Longitude": 45.8123
}
},
{
"Name": "Gər-Gər",
"PostCode": "AZ 2123",
"Location": {
"Latitude": 40.629,
"Longitude": 45.4758
}
},
{
"Name": "Göyəlli",
"PostCode": "AZ 2124",
"Location": {
"Latitude": 40.6946,
"Longitude": 45.4225
}
},
{
"Name": "Isali",
"PostCode": "AZ 2128",
"Location": {
"Latitude": 40.6338,
"Longitude": 45.4609
}
},
{
"Name": "Ivanovka",
"PostCode": "AZ 2129",
"Location": {
"Latitude": 40.5586,
"Longitude": 45.544
}
},
{
"Name": "Kiçik Qaramurad",
"PostCode": "AZ 2130",
"Location": {
"Latitude": 40.5543,
"Longitude": 45.6713
}
},
{
"Name": "Miskinli",
"PostCode": "AZ 2138",
"Location": {
"Latitude": 40.8293,
"Longitude": 46.1176
}
},
{
"Name": "Nərimankənd",
"PostCode": "AZ 2139",
"Location": {
"Latitude": 40.7192,
"Longitude": 45.7673
}
},
{
"Name": "Plankənd",
"PostCode": "AZ 2135",
"Location": {
"Latitude": 40.4861,
"Longitude": 45.7539
}
},
{
"Name": "Qaraməmmədli",
"PostCode": "AZ 2131",
"Location": {
"Latitude": 40.5924,
"Longitude": 45.6451
}
},
{
"Name": "Qoşabulaq",
"PostCode": "AZ 2133",
"Location": {
"Latitude": 40.7442,
"Longitude": 45.7407
}
},
{
"Name": "Rəsullu",
"PostCode": "AZ 2137",
"Location": {
"Latitude": 40.6543,
"Longitude": 45.7826
}
},
{
"Name": "Saratovka",
"PostCode": "AZ 2140",
"Location": {
"Latitude": 40.5981,
"Longitude": 45.6008
}
},
{
"Name": "Slavyanka",
"PostCode": "AZ 2141",
"Location": {
"Latitude": 40.6566,
"Longitude": 45.8117
}
},
{
"Name": "Söyüdlü",
"PostCode": "AZ 2142",
"Location": {
"Latitude": 40.5967,
"Longitude": 45.8366
}
},
{
"Name": "Zəhmət",
"PostCode": "AZ 2144",
"Location": {
"Latitude": 40.6171,
"Longitude": 45.7497
}
}
]
}
]
}
]
},
{
"Name": "Gəncə",
"Code": "20",
"Provinces": [
{
"Communities": [
{
"Places": [
{
"Name": "1 Sayli",
"PostCode": "AZ 2001",
"Location": {
"Latitude": 40.6828,
"Longitude": 46.3606
}
},
{
"Name": "10 Sayli",
"PostCode": "AZ 2010",
"Location": {
"Latitude": 40.6828,
"Longitude": 46.3606
}
},
{
"Name": "11 Sayli",
"PostCode": "AZ 2011",
"Location": {
"Latitude": 40.6828,
"Longitude": 46.3606
}
},
{
"Name": "12 Sayli",
"PostCode": "AZ 2012",
"Location": {
"Latitude": 40.6828,
"Longitude": 46.3606
}
},
{
"Name": "13 Sayli",
"PostCode": "AZ 2013",
"Location": {
"Latitude": 40.6828,
"Longitude": 46.3606
}
},
{
"Name": "16 Sayli",
"PostCode": "AZ 2016",
"Location": {
"Latitude": 40.6828,
"Longitude": 46.3606
}
},
{
"Name": "17 Sayli",
"PostCode": "AZ 2017",
"Location": {
"Latitude": 40.6828,
"Longitude": 46.3606
}
},
{
"Name": "18 Sayli",
"PostCode": "AZ 2018",
"Location": {
"Latitude": 40.6828,
"Longitude": 46.3606
}
},
{
"Name": "19 Sayli",
"PostCode": "AZ 2019",
"Location": {
"Latitude": 40.6828,
"Longitude": 46.3606
}
},
{
"Name": "2 Sayli",
"PostCode": "AZ 2002",
"Location": {
"Latitude": 40.6828,
"Longitude": 46.3606
}
},
{
"Name": "21 Sayli",
"PostCode": "AZ 2021",
"Location": {
"Latitude": 40.6828,
"Longitude": 46.3606
}
},
{
"Name": "22 Sayli",
"PostCode": "AZ 2022",
"Location": {
"Latitude": 40.6828,
"Longitude": 46.3606
}
},
{
"Name": "23 Sayli",
"PostCode": "AZ 2023",
"Location": {
"Latitude": 40.6828,
"Longitude": 46.3606
}
},
{
"Name": "24 Sayli",
"PostCode": "AZ 2024",
"Location": {
"Latitude": 40.6828,
"Longitude": 46.3606
}
},
{
"Name": "3 Sayli",
"PostCode": "AZ 2003",
"Location": {
"Latitude": 40.6828,
"Longitude": 46.3606
}
},
{
"Name": "4 Sayli",
"PostCode": "AZ 2004",
"Location": {
"Latitude": 40.6828,
"Longitude": 46.3606
}
},
{
"Name": "5 Sayli",
"PostCode": "AZ 2005",
"Location": {
"Latitude": 40.6828,
"Longitude": 46.3606
}
},
{
"Name": "6 Sayli",
"PostCode": "AZ 2006",
"Location": {
"Latitude": 40.6828,
"Longitude": 46.3606
}
},
{
"Name": "7 Sayli",
"PostCode": "AZ 2007",
"Location": {
"Latitude": 40.6828,
"Longitude": 46.3606
}
},
{
"Name": "8 Sayli",
"PostCode": "AZ 2008",
"Location": {
"Latitude": 40.6828,
"Longitude": 46.3606
}
},
{
"Name": "9 Sayli",
"PostCode": "AZ 2009",
"Location": {
"Latitude": 40.6828,
"Longitude": 46.3606
}
},
{
"Name": "Gəncə",
"PostCode": "AZ 2000",
"Location": {
"Latitude": 40.6828,
"Longitude": 46.3606
}
}
]
}
]
}
]
},
{
"Name": "Goranboy",
"Code": "21",
"Provinces": [
{
"Communities": [
{
"Places": [
{
"Name": "1 Sayli",
"PostCode": "AZ 2201",
"Location": {
"Latitude": 40.6103,
"Longitude": 46.7897
}
},
{
"Name": "Aşaği Ağcakənd",
"PostCode": "AZ 2212",
"Location": {
"Latitude": 40.4179,
"Longitude": 46.5648
}
},
{
"Name": "Boluslu",
"PostCode": "AZ 2215",
"Location": {
"Latitude": 40.6326,
"Longitude": 46.8551
}
},
{
"Name": "Borsunlu",
"PostCode": "AZ 2214",
"Location": {
"Latitude": 40.6502,
"Longitude": 46.6653
}
},
{
"Name": "Dəliməmmədli",
"PostCode": "AZ 2216",
"Location": {
"Latitude": 40.694,
"Longitude": 46.5717
}
},
{
"Name": "Duzqishlaq",
"PostCode": "AZ 2211",
"Location": {
"Latitude": 40.6282,
"Longitude": 46.6432
}
},
{
"Name": "Faxrali",
"PostCode": "AZ 2218",
"Location": {
"Latitude": 40.7465,
"Longitude": 46.5592
}
},
{
"Name": "Goranboy",
"PostCode": "AZ 2200",
"Location": {
"Latitude": 40.6103,
"Longitude": 46.7897
}
},
{
"Name": "Hazir Əhmədli",
"PostCode": "AZ 2222",
"Location": {
"Latitude": 40.6298,
"Longitude": 46.6754
}
},
{
"Name": "Muzdurlar",
"PostCode": "AZ 2233",
"Location": {
"Latitude": 40.6998,
"Longitude": 46.6053
}
},
{
"Name": "Nizami",
"PostCode": "AZ 2235",
"Location": {
"Latitude": 40.6628,
"Longitude": 46.5235
}
},
{
"Name": "Qaradağli",
"PostCode": "AZ 2227",
"Location": {
"Latitude": 40.6522,
"Longitude": 46.5502
}
},
{
"Name": "Qizil Hacili",
"PostCode": "AZ 2231",
"Location": {
"Latitude": 40.5896,
"Longitude": 46.6364
}
},
{
"Name": "Qizil Hacili 1",
"PostCode": "AZ 2232",
"Location": {
"Latitude": 40.5896,
"Longitude": 46.6364
}
},
{
"Name": "Şəfəq",
"PostCode": "AZ 2239",
"Location": {
"Latitude": 40.4523,
"Longitude": 46.6423
}
},
{
"Name": "Səfikürd",
"PostCode": "AZ 2237",
"Location": {
"Latitude": 40.5434,
"Longitude": 46.7747
}
},
{
"Name": "Səmədabad",
"PostCode": "AZ 2248",
"Location": {
"Latitude": 40.6823,
"Longitude": 46.6505
}
},
{
"Name": "Tap Qaraqoyunlu",
"PostCode": "AZ 2240",
"Location": {
"Latitude": 40.4312,
"Longitude": 46.7705
}
},
{
"Name": "Veyisli",
"PostCode": "AZ 2241",
"Location": {
"Latitude": 40.5828,
"Longitude": 46.7253
}
},
{
"Name": "Xan Qərvənd",
"PostCode": "AZ 2223",
"Location": {
"Latitude": 40.4949,
"Longitude": 46.8934
}
},
{
"Name": "Xinali",
"PostCode": "AZ 2225",
"Location": {
"Latitude": 40.7266,
"Longitude": 46.7217
}
},
{
"Name": "Xoylu",
"PostCode": "AZ 2226",
"Location": {
"Latitude": 40.6453,
"Longitude": 46.5364
}
},
{
"Name": "Zeyvə",
"PostCode": "AZ 2243",
"Location": {
"Latitude": 40.4597,
"Longitude": 46.6831
}
}
]
}
]
}
]
},
{
"Name": "Göyçay",
"Code": "22",
"Provinces": [
{
"Communities": [
{
"Places": [
{
"Name": "1 Sayli",
"PostCode": "AZ 2301",
"Location": {
"Latitude": 40.6506,
"Longitude": 47.7422
}
},
{
"Name": "2 Sayli",
"PostCode": "AZ 2302",
"Location": {
"Latitude": 40.6506,
"Longitude": 47.7422
}
},
{
"Name": "3 Sayli",
"PostCode": "AZ 2303",
"Location": {
"Latitude": 40.6506,
"Longitude": 47.7422
}
},
{
"Name": "Alpoud",
"PostCode": "AZ 2312",
"Location": {
"Latitude": 40.5834,
"Longitude": 47.8416
}
},
{
"Name": "Alxasafa",
"PostCode": "AZ 2311",
"Location": {
"Latitude": 40.5834,
"Longitude": 47.8416
}
},
{
"Name": "Bəydövül",
"PostCode": "AZ 2313",
"Location": {
"Latitude": 40.5834,
"Longitude": 47.8416
}
},
{
"Name": "Biğir",
"PostCode": "AZ 2314",
"Location": {
"Latitude": 40.6052,
"Longitude": 47.8499
}
},
{
"Name": "Çaxirlipş",
"PostCode": "AZ 2316",
"Location": {
"Latitude": 40.5834,
"Longitude": 47.8416
}
},
{
"Name": "Çərəkə",
"PostCode": "AZ 2317",
"Location": {
"Latitude": 40.5614,
"Longitude": 47.6872
}
},
{
"Name": "Cəyirli",
"PostCode": "AZ 2315",
"Location": {
"Latitude": 40.5669,
"Longitude": 47.7155
}
},
{
"Name": "Ərəbcəbirli",
"PostCode": "AZ 2331",
"Location": {
"Latitude": 40.5853,
"Longitude": 47.7639
}
},
{
"Name": "Göyçay",
"PostCode": "AZ 2300",
"Location": {
"Latitude": 40.6506,
"Longitude": 47.7422
}
},
{
"Name": "Inçə",
"PostCode": "AZ 2319",
"Location": {
"Latitude": 40.5555,
"Longitude": 47.9742
}
},
{
"Name": "Kürdşaban",
"PostCode": "AZ 2320",
"Location": {
"Latitude": 40.5325,
"Longitude": 47.7522
}
},
{
"Name": "Ləkçiplaq",
"PostCode": "AZ 2325",
"Location": {
"Latitude": 40.581,
"Longitude": 47.8044
}
},
{
"Name": "Malli Şixli",
"PostCode": "AZ 2326",
"Location": {
"Latitude": 40.5952,
"Longitude": 47.6761
}
},
{
"Name": "Məlikkənd",
"PostCode": "AZ 2327",
"Location": {
"Latitude": 40.5335,
"Longitude": 47.7882
}
},
{
"Name": "Mirti",
"PostCode": "AZ 2328",
"Location": {
"Latitude": 40.5691,
"Longitude": 47.8525
}
},
{
"Name": "Müşkürlü",
"PostCode": "AZ 2329",
"Location": {
"Latitude": 40.581,
"Longitude": 47.8044
}
},
{
"Name": "Potu",
"PostCode": "AZ 2330",
"Location": {
"Latitude": 40.6153,
"Longitude": 47.7409
}
},
{
"Name": "Qarabaqqal",
"PostCode": "AZ 2321",
"Location": {
"Latitude": 40.6335,
"Longitude": 47.7908
}
},
{
"Name": "Qaraman",
"PostCode": "AZ 2322",
"Location": {
"Latitude": 40.6024,
"Longitude": 47.8133
}
},
{
"Name": "Qaraməryəm",
"PostCode": "AZ 2323",
"Location": {
"Latitude": 40.6127,
"Longitude": 48.015
}
},
{
"Name": "Qarayazi",
"PostCode": "AZ 2318",
"Location": {
"Latitude": 40.6281,
"Longitude": 47.9813
}
},
{
"Name": "Qizilağac",
"PostCode": "AZ 2324",
"Location": {
"Latitude": 40.5693,
"Longitude": 47.7467
}
},
{
"Name": "Şəkər",
"PostCode": "AZ 2333",
"Location": {
"Latitude": 40.5693,
"Longitude": 47.881
}
},
{
"Name": "Yeniarx",
"PostCode": "AZ 2332",
"Location": {
"Latitude": 40.5713,
"Longitude": 47.6697
}
}
]
}
]
}
]
},
{
"Name": "Göy-Göl",
"Code": "22",
"Provinces": [
{
"Communities": [
{
"Places": [
{
"Name": "1 Sayli",
"PostCode": "AZ 2501",
"Location": {
"Latitude": 40.617,
"Longitude": 46.3129
}
},
{
"Name": "Aşiqli",
"PostCode": "AZ 2511",
"Location": {
"Latitude": 40.5358,
"Longitude": 46.3348
}
},
{
"Name": "Balçili",
"PostCode": "AZ 2516",
"Location": {
"Latitude": 40.6883,
"Longitude": 46.2723
}
},
{
"Name": "Çaykənd",
"PostCode": "AZ 2512",
"Location": {
"Latitude": 40.6121,
"Longitude": 46.3035
}
},
{
"Name": "Göy-Göl",
"PostCode": "AZ 2500",
"Location": {
"Latitude": 40.617,
"Longitude": 46.3129
}
},
{
"Name": "Mollacəlilli",
"PostCode": "AZ 2521",
"Location": {
"Latitude": 40.5925,
"Longitude": 46.3708
}
},
{
"Name": "Nadel",
"PostCode": "AZ 2522",
"Location": {
"Latitude": 40.7399,
"Longitude": 46.29
}
},
{
"Name": "Qirixli",
"PostCode": "AZ 2517",
"Location": {
"Latitude": 40.6121,
"Longitude": 46.3035
}
},
{
"Name": "Quşqara",
"PostCode": "AZ 2520",
"Location": {
"Latitude": 40.7183,
"Longitude": 46.2998
}
},
{
"Name": "Toğana",
"PostCode": "AZ 2525",
"Location": {
"Latitude": 40.6198,
"Longitude": 46.3183
}
},
{
"Name": "Topalhəsənli",
"PostCode": "AZ 2526",
"Location": {
"Latitude": 40.5569,
"Longitude": 46.2767
}
},
{
"Name": "Üçtəpə",
"PostCode": "AZ 2527",
"Location": {
"Latitude": 40.6198,
"Longitude": 46.3183
}
},
{
"Name": "Yeni Zod",
"PostCode": "AZ 2528",
"Location": {
"Latitude": 40.4914,
"Longitude": 46.3542
}
}
]
}
]
}
]
},
{
"Name": "Haciqabul",
"Code": "23",
"Provinces": [
{
"Communities": [
{
"Places": [
{
"Name": "1 Sayli",
"PostCode": "AZ 2401",
"Location": {
"Latitude": 40.0387,
"Longitude": 48.9429
}
},
{
"Name": "Abdulabad",
"PostCode": "AZ 2411",
"Location": {
"Latitude": 40.0954,
"Longitude": 48.6588
}
},
{
"Name": "Atbulaq",
"PostCode": "AZ 2412",
"Location": {
"Latitude": 39.9731,
"Longitude": 49.2624
}
},
{
"Name": "Haciqabul",
"PostCode": "AZ 2400",
"Location": {
"Latitude": 40.0387,
"Longitude": 48.9429
}
},
{
"Name": "Meyniman",
"PostCode": "AZ 2414",
"Location": {
"Latitude": 40.03,
"Longitude": 48.7682
}
},
{
"Name": "Muğan",
"PostCode": "AZ 2415",
"Location": {
"Latitude": 40.099,
"Longitude": 48.8189
}
},
{
"Name": "Nəvahi",
"PostCode": "AZ 2416",
"Location": {
"Latitude": 40.0403,
"Longitude": 49.0995
}
},
{
"Name": "Padar Qəsəbə",
"PostCode": "AZ 2421",
"Location": {
"Latitude": 40.0817,
"Longitude": 48.8907
}
},
{
"Name": "Qarasu",
"PostCode": "AZ 2413",
"Location": {
"Latitude": 40.1618,
"Longitude": 48.6777
}
},
{
"Name": "Qubali Balaoğlan",
"PostCode": "AZ 2420",
"Location": {
"Latitude": 40.0817,
"Longitude": 48.8907
}
},
{
"Name": "Rəncbər",
"PostCode": "AZ 2417",
"Location": {
"Latitude": 40.0936,
"Longitude": 49.0696
}
},
{
"Name": "Taliş",
"PostCode": "AZ 2418",
"Location": {
"Latitude": 40.0655,
"Longitude": 48.6877
}
},
{
"Name": "Udulu",
"PostCode": "AZ 2419",
"Location": {
"Latitude": 40.2625,
"Longitude": 48.8688
}
}
]
}
]
}
]
},
{
"Name": "Imişli",
"Code": "24",
"Provinces": [
{
"Communities": [
{
"Places": [
{
"Name": "Ağaməmmədli",
"PostCode": "AZ 3011",
"Location": {
"Latitude": 39.9589,
"Longitude": 47.99
}
},
{
"Name": "Aranli",
"PostCode": "AZ 3012",
"Location": {
"Latitude": 39.6981,
"Longitude": 48.1035
}
},
{
"Name": "Bəcrəvan",
"PostCode": "AZ 3013",
"Location": {
"Latitude": 39.8012,
"Longitude": 48.0174
}
},
{
"Name": "Bəhrəmtəpə",
"PostCode": "AZ 3014",
"Location": {
"Latitude": 39.7467,
"Longitude": 47.9589
}
},
{
"Name": "Əliqullar",
"PostCode": "AZ 3018",
"Location": {
"Latitude": 39.8012,
"Longitude": 48.0174
}
},
{
"Name": "Göbəktala",
"PostCode": "AZ 3039",
"Location": {
"Latitude": 39.8102,
"Longitude": 48.0072
}
},
{
"Name": "Imişli",
"PostCode": "AZ 3000",
"Location": {
"Latitude": 39.8709,
"Longitude": 48.0599
}
},
{
"Name": "Məmmədli",
"PostCode": "AZ 3028",
"Location": {
"Latitude": 39.7764,
"Longitude": 48.0642
}
},
{
"Name": "Məzrəli",
"PostCode": "AZ 3029",
"Location": {
"Latitude": 39.7728,
"Longitude": 48.0298
}
},
{
"Name": "Muradxanli",
"PostCode": "AZ 3031",
"Location": {
"Latitude": 39.9275,
"Longitude": 47.9542
}
},
{
"Name": "Otuzikilər",
"PostCode": "AZ 3030",
"Location": {
"Latitude": 40.3864,
"Longitude": 47.2397
}
},
{
"Name": "Qaradonlu",
"PostCode": "AZ 3022",
"Location": {
"Latitude": 39.79,
"Longitude": 48.0626
}
},
{
"Name": "Qaralar",
"PostCode": "AZ 3024",
"Location": {
"Latitude": 39.8262,
"Longitude": 48.0848
}
},
{
"Name": "Qizilkənd",
"PostCode": "AZ 3026",
"Location": {
"Latitude": 39.7168,
"Longitude": 48.0794
}
},
{
"Name": "Rəsullu",
"PostCode": "AZ 3034",
"Location": {
"Latitude": 39.8361,
"Longitude": 48.033
}
},
{
"Name": "Şahverdili",
"PostCode": "AZ 3035",
"Location": {
"Latitude": 39.7962,
"Longitude": 47.9879
}
},
{
"Name": "Sarixanli",
"PostCode": "AZ 3036",
"Location": {
"Latitude": 39.8232,
"Longitude": 47.9227
}
},
{
"Name": "Soltanmuradli",
"PostCode": "AZ 3037",
"Location": {
"Latitude": 39.8042,
"Longitude": 48.0746
}
}
]
}
]
}
]
},
{
"Name": "Ismayilli",
"Code": "25",
"Provinces": [
{
"Communities": [
{
"Places": [
{
"Name": "1 Sayli",
"PostCode": "AZ 3101",
"Location": {
"Latitude": 40.7848,
"Longitude": 48.1514
}
},
{
"Name": "Aşiqbayramli",
"PostCode": "AZ 3112",
"Location": {
"Latitude": 40.7136,
"Longitude": 48.0466
}
},
{
"Name": "Basqal",
"PostCode": "AZ 3111",
"Location": {
"Latitude": 40.7552,
"Longitude": 48.391
}
},
{
"Name": "Diyalli",
"PostCode": "AZ 3115",
"Location": {
"Latitude": 40.7699,
"Longitude": 48.2298
}
},
{
"Name": "Gülyan",
"PostCode": "AZ 3130",
"Location": {
"Latitude": 40.6491,
"Longitude": 48.04
}
},
{
"Name": "Hacihətəmli",
"PostCode": "AZ 3113",
"Location": {
"Latitude": 40.7,
"Longitude": 47.9059
}
},
{
"Name": "Ismayilli",
"PostCode": "AZ 3100",
"Location": {
"Latitude": 40.7848,
"Longitude": 48.1514
}
},
{
"Name": "Ivanovka",
"PostCode": "AZ 3114",
"Location": {
"Latitude": 40.7467,
"Longitude": 48.0314
}
},
{
"Name": "Kürdmaşi",
"PostCode": "AZ 3116",
"Location": {
"Latitude": 40.6684,
"Longitude": 48.0341
}
},
{
"Name": "Lahic",
"PostCode": "AZ 3123",
"Location": {
"Latitude": 40.8462,
"Longitude": 48.3823
}
},
{
"Name": "Mollaisaqli",
"PostCode": "AZ 3135",
"Location": {
"Latitude": 40.6817,
"Longitude": 47.8816
}
},
{
"Name": "Qalaçiq",
"PostCode": "AZ 3117",
"Location": {
"Latitude": 40.9602,
"Longitude": 48.045
}
},
{
"Name": "Qalagah",
"PostCode": "AZ 3118",
"Location": {
"Latitude": 40.7144,
"Longitude": 47.9364
}
},
{
"Name": "Qalinçaq",
"PostCode": "AZ 3119",
"Location": {
"Latitude": 40.8179,
"Longitude": 48.0901
}
},
{
"Name": "Qubaxəlilli",
"PostCode": "AZ 3121",
"Location": {
"Latitude": 40.6119,
"Longitude": 48.1252
}
},
{
"Name": "Qurbanəfəndi",
"PostCode": "AZ 3129",
"Location": {
"Latitude": 40.8752,
"Longitude": 48.1051
}
},
{
"Name": "Quşencə",
"PostCode": "AZ 3122",
"Location": {
"Latitude": 40.7861,
"Longitude": 48.1838
}
},
{
"Name": "Ruşan",
"PostCode": "AZ 3124",
"Location": {
"Latitude": 40.8027,
"Longitude": 47.9993
}
},
{
"Name": "Sumağali",
"PostCode": "AZ 3136",
"Location": {
"Latitude": 40.6491,
"Longitude": 48.04
}
},
{
"Name": "Talistan",
"PostCode": "AZ 3125",
"Location": {
"Latitude": 40.7967,
"Longitude": 48.196
}
},
{
"Name": "Təzəkənd",
"PostCode": "AZ 3126",
"Location": {
"Latitude": 40.7436,
"Longitude": 48.2682
}
},
{
"Name": "Tircan",
"PostCode": "AZ 3127",
"Location": {
"Latitude": 40.7377,
"Longitude": 48.331
}
},
{
"Name": "Topçu",
"PostCode": "AZ 3128",
"Location": {
"Latitude": 40.8749,
"Longitude": 48.0637
}
},
{
"Name": "Xəlilli",
"PostCode": "AZ 3131",
"Location": {
"Latitude": 40.6164,
"Longitude": 48.1984
}
}
]
}
]
}
]
},
{
"Name": "Kəlbəcər",
"Code": "26",
"Provinces": [
{
"Communities": [
{
"Places": [
{
"Name": "Kəlbəcər",
"PostCode": "AZ 3200",
"Location": {
"Latitude": 40.1098,
"Longitude": 46.0445
}
},
{
"Name": "Zar (Gənjə)",
"PostCode": "AZ 3218",
"Location": {
"Latitude": 40.1098,
"Longitude": 46.0445
}
}
]
}
]
}
]
},
{
"Name": "Kürdəmir",
"Code": "27",
"Provinces": [
{
"Communities": [
{
"Places": [
{
"Name": "1 Sayli",
"PostCode": "AZ 3301",
"Location": {
"Latitude": 40.3453,
"Longitude": 48.1508
}
},
{
"Name": "Atakişili",
"PostCode": "AZ 3329",
"Location": {
"Latitude": 40.3498,
"Longitude": 48.171
}
},
{
"Name": "Cəyli",
"PostCode": "AZ 3313",
"Location": {
"Latitude": 40.4353,
"Longitude": 48.267
}
},
{
"Name": "Çöhranli",
"PostCode": "AZ 3333",
"Location": {
"Latitude": 40.2829,
"Longitude": 48.1919
}
},
{
"Name": "Karrar",
"PostCode": "AZ 3316",
"Location": {
"Latitude": 40.2824,
"Longitude": 48.3657
}
},
{
"Name": "Karrar Qəsəbə",
"PostCode": "AZ 3314",
"Location": {
"Latitude": 40.3042,
"Longitude": 48.1924
}
},
{
"Name": "Köhünlü",
"PostCode": "AZ 3317",
"Location": {
"Latitude": 40.1344,
"Longitude": 47.9825
}
},
{
"Name": "Kürdəmir",
"PostCode": "AZ 3300",
"Location": {
"Latitude": 40.3453,
"Longitude": 48.1508
}
},
{
"Name": "Mehdili",
"PostCode": "AZ 3334",
"Location": {
"Latitude": 40.0459,
"Longitude": 48.2953
}
},
{
"Name": "Mollakənd",
"PostCode": "AZ 3320",
"Location": {
"Latitude": 40.1169,
"Longitude": 48.1039
}
},
{
"Name": "Muradxan",
"PostCode": "AZ 3321",
"Location": {
"Latitude": 40.1903,
"Longitude": 48.1461
}
},
{
"Name": "Qarasaqqal",
"PostCode": "AZ 3332",
"Location": {
"Latitude": 40.3815,
"Longitude": 48.2869
}
},
{
"Name": "Siğirli",
"PostCode": "AZ 3323",
"Location": {
"Latitude": 40.2676,
"Longitude": 48.4092
}
},
{
"Name": "Şilyan",
"PostCode": "AZ 3326",
"Location": {
"Latitude": 40.3293,
"Longitude": 48.011
}
},
{
"Name": "Şiximli",
"PostCode": "AZ 3325",
"Location": {
"Latitude": 40.3637,
"Longitude": 48.1853
}
},
{
"Name": "Sor-Sor",
"PostCode": "AZ 3324",
"Location": {
"Latitude": 40.299,
"Longitude": 48.1701
}
},
{
"Name": "Topalhəsənli",
"PostCode": "AZ 3327",
"Location": {
"Latitude": 40.3845,
"Longitude": 48.1957
}
},
{
"Name": "Xirdapay",
"PostCode": "AZ 3315",
"Location": {
"Latitude": 40.3647,
"Longitude": 48.1544
}
},
{
"Name": "Yenikənd",
"PostCode": "AZ 3328",
"Location": {
"Latitude": 40.3897,
"Longitude": 48.1384
}
}
]
}
]
}
]
},
{
"Name": "Laçin",
"Code": "28",
"PostCode": "AZ 4100",
"Provinces": [
{
"PostCode": "AZ 4100",
"Communities": [
{
"Places": [
{
"Name": "Laçin",
"PostCode": "AZ 4100",
"Location": {
"Latitude": 39.5988,
"Longitude": 46.5504
}
}
],
"PostCode": "AZ 4100"
}
]
}
]
},
{
"Name": "Lənkəran",
"Code": "30",
"Provinces": [
{
"Communities": [
{
"Places": [
{
"Name": "1 Sayli",
"PostCode": "AZ 4201",
"Location": {
"Latitude": 38.7543,
"Longitude": 48.8506
}
},
{
"Name": "2 Sayli",
"PostCode": "AZ 4202",
"Location": {
"Latitude": 38.7543,
"Longitude": 48.8506
}
},
{
"Name": "3 Sayli",
"PostCode": "AZ 4203",
"Location": {
"Latitude": 38.7543,
"Longitude": 48.8506
}
},
{
"Name": "4 Sayli",
"PostCode": "AZ 4204",
"Location": {
"Latitude": 38.7543,
"Longitude": 48.8506
}
},
{
"Name": "5 Sayli",
"PostCode": "AZ 4205",
"Location": {
"Latitude": 38.7543,
"Longitude": 48.8506
}
},
{
"Name": "Boladi",
"PostCode": "AZ 4212",
"Location": {
"Latitude": 38.8904,
"Longitude": 48.7658
}
},
{
"Name": "Bürcəli",
"PostCode": "AZ 4235",
"Location": {
"Latitude": 38.6642,
"Longitude": 48.7951
}
},
{
"Name": "Gərmətük",
"PostCode": "AZ 4214",
"Location": {
"Latitude": 38.7214,
"Longitude": 48.8328
}
},
{
"Name": "Girdəni",
"PostCode": "AZ 4215",
"Location": {
"Latitude": 38.7972,
"Longitude": 48.7861
}
},
{
"Name": "Göyşaban",
"PostCode": "AZ 4239",
"Location": {
"Latitude": 38.8058,
"Longitude": 48.8283
}
},
{
"Name": "Haftoni",
"PostCode": "AZ 4216",
"Location": {
"Latitude": 38.7633,
"Longitude": 48.7622
}
},
{
"Name": "Hirkan",
"PostCode": "AZ 4217",
"Location": {
"Latitude": 38.6604,
"Longitude": 48.8121
}
},
{
"Name": "Istisu",
"PostCode": "AZ 4219",
"Location": {
"Latitude": 38.794,
"Longitude": 48.736
}
},
{
"Name": "Kərgəlan",
"PostCode": "AZ 4221",
"Location": {
"Latitude": 38.7381,
"Longitude": 48.8079
}
},
{
"Name": "Lənkəran",
"PostCode": "AZ 4200",
"Location": {
"Latitude": 38.7543,
"Longitude": 48.8506
}
},
{
"Name": "Liman",
"PostCode": "AZ 4222",
"Location": {
"Latitude": 38.8742,
"Longitude": 48.8083
}
},
{
"Name": "Mamusta",
"PostCode": "AZ 4223",
"Location": {
"Latitude": 38.6585,
"Longitude": 48.845
}
},
{
"Name": "Nərimanabad-1pş",
"PostCode": "AZ 4224",
"Location": {
"Latitude": 38.7774,
"Longitude": 48.7711
}
},
{
"Name": "Osaküçə",
"PostCode": "AZ 4226",
"Location": {
"Latitude": 38.8094,
"Longitude": 48.7021
}
},
{
"Name": "Rvo",
"PostCode": "AZ 4227",
"Location": {
"Latitude": 38.7172,
"Longitude": 48.7469
}
},
{
"Name": "Şağlaser",
"PostCode": "AZ 4230",
"Location": {
"Latitude": 38.8638,
"Longitude": 48.7371
}
},
{
"Name": "Separadi",
"PostCode": "AZ 4228",
"Location": {
"Latitude": 38.8671,
"Longitude": 48.7161
}
},
{
"Name": "Şilavar",
"PostCode": "AZ 4243",
"Location": {
"Latitude": 38.7511,
"Longitude": 48.8296
}
},
{
"Name": "Şürük",
"PostCode": "AZ 4231",
"Location": {
"Latitude": 38.7752,
"Longitude": 48.7894
}
},
{
"Name": "Sutəmurdov",
"PostCode": "AZ 4244",
"Location": {
"Latitude": 38.7449,
"Longitude": 48.8614
}
},
{
"Name": "Vel",
"PostCode": "AZ 4232",
"Location": {
"Latitude": 38.6763,
"Longitude": 48.8702
}
},
{
"Name": "Veravul",
"PostCode": "AZ 4233",
"Location": {
"Latitude": 38.8156,
"Longitude": 48.7624
}
},
{
"Name": "Vilvan",
"PostCode": "AZ 4234",
"Location": {
"Latitude": 38.8257,
"Longitude": 48.7431
}
}
]
}
]
}
]
},
{
"Name": "Lerik",
"Code": "31",
"Provinces": [
{
"Communities": [
{
"Places": [
{
"Name": "Bilabənd",
"PostCode": "AZ 4312",
"Location": {
"Latitude": 38.7375,
"Longitude": 48.4265
}
},
{
"Name": "Çayrud",
"PostCode": "AZ 4316",
"Location": {
"Latitude": 38.7149,
"Longitude": 48.4981
}
},
{
"Name": "Əliabad",
"PostCode": "AZ 4318",
"Location": {
"Latitude": 38.7475,
"Longitude": 48.4685
}
},
{
"Name": "Günəşli",
"PostCode": "AZ 4311",
"Location": {
"Latitude": 38.7903,
"Longitude": 48.4809
}
},
{
"Name": "Kələxan",
"PostCode": "AZ 4320",
"Location": {
"Latitude": 38.6472,
"Longitude": 48.3404
}
},
{
"Name": "Kirəvud",
"PostCode": "AZ 4321",
"Location": {
"Latitude": 38.876,
"Longitude": 48.4467
}
},
{
"Name": "Lerik",
"PostCode": "AZ 4300",
"Location": {
"Latitude": 38.7739,
"Longitude": 48.415
}
},
{
"Name": "Livədirqə",
"PostCode": "AZ 4323",
"Location": {
"Latitude": 38.8179,
"Longitude": 48.3953
}
},
{
"Name": "Monidigah",
"PostCode": "AZ 4324",
"Location": {
"Latitude": 38.7242,
"Longitude": 48.4481
}
},
{
"Name": "Piran",
"PostCode": "AZ 4327",
"Location": {
"Latitude": 38.7307,
"Longitude": 48.6558
}
},
{
"Name": "Pirasora",
"PostCode": "AZ 4328",
"Location": {
"Latitude": 38.719,
"Longitude": 48.3771
}
},
{
"Name": "Qosmalyan",
"PostCode": "AZ 4322",
"Location": {
"Latitude": 38.6732,
"Longitude": 48.3704
}
},
{
"Name": "Rvarud",
"PostCode": "AZ 4329",
"Location": {
"Latitude": 38.6952,
"Longitude": 48.4935
}
},
{
"Name": "Şingədulan",
"PostCode": "AZ 4331",
"Location": {
"Latitude": 38.8595,
"Longitude": 48.397
}
},
{
"Name": "Tikəbənd",
"PostCode": "AZ 4332",
"Location": {
"Latitude": 38.7099,
"Longitude": 48.5456
}
},
{
"Name": "Vizəzəmin",
"PostCode": "AZ 4335",
"Location": {
"Latitude": 38.7709,
"Longitude": 48.5192
}
},
{
"Name": "Züvüc",
"PostCode": "AZ 4336",
"Location": {
"Latitude": 38.8627,
"Longitude": 48.3346
}
}
]
}
]
}
]
},
{
"Name": "Masalli",
"Code": "32",
"Provinces": [
{
"Communities": [
{
"Places": [
{
"Name": "2 Sayli",
"PostCode": "AZ 4402",
"Location": {
"Latitude": 39.0353,
"Longitude": 48.6654
}
},
{
"Name": "3 Sayli",
"PostCode": "AZ 4403",
"Location": {
"Latitude": 39.0353,
"Longitude": 48.6654
}
},
{
"Name": "4 Sayli",
"PostCode": "AZ 4404",
"Location": {
"Latitude": 39.0353,
"Longitude": 48.6654
}
},
{
"Name": "5 Sayli",
"PostCode": "AZ 4405",
"Location": {
"Latitude": 39.0353,
"Longitude": 48.6654
}
},
{
"Name": "Bambaşi",
"PostCode": "AZ 4411",
"Location": {
"Latitude": 39.0087,
"Longitude": 48.6685
}
},
{
"Name": "Bədəlan",
"PostCode": "AZ 4412",
"Location": {
"Latitude": 38.9524,
"Longitude": 48.6846
}
},
{
"Name": "Boradigah",
"PostCode": "AZ 4413",
"Location": {
"Latitude": 38.9301,
"Longitude": 48.7092
}
},
{
"Name": "Çaxirli",
"PostCode": "AZ 4414",
"Location": {
"Latitude": 39.0896,
"Longitude": 48.6654
}
},
{
"Name": "Ərkivan",
"PostCode": "AZ 4415",
"Location": {
"Latitude": 39.0171,
"Longitude": 48.6431
}
},
{
"Name": "Gəyəçöl",
"PostCode": "AZ 4416",
"Location": {
"Latitude": 39.0087,
"Longitude": 48.6685
}
},
{
"Name": "Güllütəpə",
"PostCode": "AZ 4417",
"Location": {
"Latitude": 39.0493,
"Longitude": 48.5759
}
},
{
"Name": "Hacitəpə",
"PostCode": "AZ 4446",
"Location": {
"Latitude": 39.1358,
"Longitude": 48.7076
}
},
{
"Name": "Həsənli",
"PostCode": "AZ 4418",
"Location": {
"Latitude": 39.1115,
"Longitude": 48.7019
}
},
{
"Name": "Hişkədərə",
"PostCode": "AZ 4419",
"Location": {
"Latitude": 38.911,
"Longitude": 48.6997
}
},
{
"Name": "Kalinovka",
"PostCode": "AZ 4422",
"Location": {
"Latitude": 39.0427,
"Longitude": 48.7796
}
},
{
"Name": "Köhnə Alvadi",
"PostCode": "AZ 4424",
"Location": {
"Latitude": 39.0549,
"Longitude": 48.6184
}
},
{
"Name": "Kolatan",
"PostCode": "AZ 4423",
"Location": {
"Latitude": 39.0259,
"Longitude": 48.7223
}
},
{
"Name": "Lürən",
"PostCode": "AZ 4444",
"Location": {
"Latitude": 38.991,
"Longitude": 48.6817
}
},
{
"Name": "Mahmudavar",
"PostCode": "AZ 4429",
"Location": {
"Latitude": 38.8939,
"Longitude": 48.7014
}
},
{
"Name": "Masalli",
"PostCode": "AZ 4400",
"Location": {
"Latitude": 39.0353,
"Longitude": 48.6654
}
},
{
"Name": "Masalli Vağzal",
"PostCode": "AZ 4430",
"Location": {
"Latitude": 39.002,
"Longitude": 48.6685
}
},
{
"Name": "Musaküçə",
"PostCode": "AZ 4431",
"Location": {
"Latitude": 39.011,
"Longitude": 48.6957
}
},
{
"Name": "Oncakələ",
"PostCode": "AZ 4441",
"Location": {
"Latitude": 39.037,
"Longitude": 48.6835
}
},
{
"Name": "Qarğaliq",
"PostCode": "AZ 4425",
"Location": {
"Latitude": 39.0777,
"Longitude": 48.7468
}
},
{
"Name": "Qəriblər",
"PostCode": "AZ 4442",
"Location": {
"Latitude": 38.9981,
"Longitude": 48.594
}
},
{
"Name": "Qizilağac",
"PostCode": "AZ 4426",
"Location": {
"Latitude": 39.0373,
"Longitude": 48.811
}
},
{
"Name": "Qizilavar",
"PostCode": "AZ 4427",
"Location": {
"Latitude": 38.9647,
"Longitude": 48.6793
}
},
{
"Name": "Səmidxan",
"PostCode": "AZ 4443",
"Location": {
"Latitude": 39.037,
"Longitude": 48.6835
}
},
{
"Name": "Şərəfə",
"PostCode": "AZ 4433",
"Location": {
"Latitude": 39.0661,
"Longitude": 48.6821
}
},
{
"Name": "Siğdaş",
"PostCode": "AZ 4432",
"Location": {
"Latitude": 38.9564,
"Longitude": 48.6162
}
},
{
"Name": "Şixlar",
"PostCode": "AZ 4440",
"Location": {
"Latitude": 39.023,
"Longitude": 48.7505
}
},
{
"Name": "Təzə Alvadi",
"PostCode": "AZ 4434",
"Location": {
"Latitude": 39.0872,
"Longitude": 48.6026
}
},
{
"Name": "Təzəkənd10.4.44.35",
"PostCode": "AZ 4435",
"Location": {
"Latitude": 39.002,
"Longitude": 48.6685
}
},
{
"Name": "Tüklə",
"PostCode": "AZ 4436",
"Location": {
"Latitude": 38.9208,
"Longitude": 48.6684
}
},
{
"Name": "Türkoba",
"PostCode": "AZ 4437",
"Location": {
"Latitude": 38.9184,
"Longitude": 48.7048
}
},
{
"Name": "Xil",
"PostCode": "AZ 4420",
"Location": {
"Latitude": 38.974,
"Longitude": 48.7241
}
},
{
"Name": "Xirmandali",
"PostCode": "AZ 4421",
"Location": {
"Latitude": 39.1619,
"Longitude": 48.7175
}
},
{
"Name": "Yeddioymaq",
"PostCode": "AZ 4438",
"Location": {
"Latitude": 39.0289,
"Longitude": 48.768
}
},
{
"Name": "Yeddioymaq-1",
"PostCode": "AZ 4449",
"Location": {
"Latitude": 39.037,
"Longitude": 48.6835
}
},
{
"Name": "Yeyənkənd",
"PostCode": "AZ 4439",
"Location": {
"Latitude": 39.0277,
"Longitude": 48.6103
}
}
]
}
]
}
]
},
{
"Name": "Mingəçevir",
"Code": "33",
"Provinces": [
{
"Communities": [
{
"Places": [
{
"Name": "1 Sayli",
"PostCode": "AZ 4501",
"Location": {
"Latitude": 40.7639,
"Longitude": 47.0595
}
},
{
"Name": "10 Sayli",
"PostCode": "AZ 4510",
"Location": {
"Latitude": 40.7639,
"Longitude": 47.0595
}
},
{
"Name": "11 Sayli",
"PostCode": "AZ 4511",
"Location": {
"Latitude": 40.7639,
"Longitude": 47.0595
}
},
{
"Name": "2 Sayli",
"PostCode": "AZ 4502",
"Location": {
"Latitude": 40.7639,
"Longitude": 47.0595
}
},
{
"Name": "4 Sayli",
"PostCode": "AZ 4504",
"Location": {
"Latitude": 40.7639,
"Longitude": 47.0595
}
},
{
"Name": "5 Sayli",
"PostCode": "AZ 4505",
"Location": {
"Latitude": 40.7639,
"Longitude": 47.0595
}
},
{
"Name": "6 Sayli",
"PostCode": "AZ 4506",
"Location": {
"Latitude": 40.7639,
"Longitude": 47.0595
}
},
{
"Name": "7 Sayli",
"PostCode": "AZ 4507",
"Location": {
"Latitude": 40.7639,
"Longitude": 47.0595
}
},
{
"Name": "8 Sayli",
"PostCode": "AZ 4508",
"Location": {
"Latitude": 40.7639,
"Longitude": 47.0595
}
},
{
"Name": "9 Sayli",
"PostCode": "AZ 4509",
"Location": {
"Latitude": 40.7639,
"Longitude": 47.0595
}
},
{
"Name": "Mingəçevir",
"PostCode": "AZ 4500",
"Location": {
"Latitude": 40.7639,
"Longitude": 47.0595
}
}
]
}
]
}
]
},
{
"Name": "Naftalan",
"Code": "34",
"Provinces": [
{
"Communities": [
{
"Places": [
{
"Name": "1 Sayli",
"PostCode": "AZ 4601",
"Location": {
"Latitude": 40.5082,
"Longitude": 46.8203
}
},
{
"Name": "Naftalan",
"PostCode": "AZ 4600",
"Location": {
"Latitude": 40.5082,
"Longitude": 46.8203
}
}
]
}
]
}
]
},
{
"Name": "Neftçala",
"Code": "36",
"Provinces": [
{
"Communities": [
{
"Places": [
{
"Name": "1 Sayli",
"PostCode": "AZ 4701",
"Location": {
"Latitude": 39.3768,
"Longitude": 49.247
}
},
{
"Name": "2 Sayli",
"PostCode": "AZ 4702",
"Location": {
"Latitude": 39.3768,
"Longitude": 49.247
}
},
{
"Name": "4 Sayli",
"PostCode": "AZ 4704",
"Location": {
"Latitude": 39.3768,
"Longitude": 49.247
}
},
{
"Name": "5 Sayli",
"PostCode": "AZ 4705",
"Location": {
"Latitude": 39.3768,
"Longitude": 49.247
}
},
{
"Name": "Aşaği Qaramanli",
"PostCode": "AZ 4711",
"Location": {
"Latitude": 39.4299,
"Longitude": 49.0409
}
},
{
"Name": "Aşaği Surra",
"PostCode": "AZ 4712",
"Location": {
"Latitude": 39.4808,
"Longitude": 49.0082
}
},
{
"Name": "Bankə",
"PostCode": "AZ 4713",
"Location": {
"Latitude": 39.4112,
"Longitude": 49.2479
}
},
{
"Name": "Boyat",
"PostCode": "AZ 4715",
"Location": {
"Latitude": 39.3996,
"Longitude": 49.0847
}
},
{
"Name": "Həsənabad",
"PostCode": "AZ 4717",
"Location": {
"Latitude": 39.3367,
"Longitude": 49.2141
}
},
{
"Name": "Kürkənd",
"PostCode": "AZ 4729",
"Location": {
"Latitude": 39.4021,
"Longitude": 49.2592
}
},
{
"Name": "Neftçala",
"PostCode": "AZ 4700",
"Location": {
"Latitude": 39.3768,
"Longitude": 49.247
}
},
{
"Name": "Qaçaqkənd",
"PostCode": "AZ 4723",
"Location": {
"Latitude": 39.3904,
"Longitude": 48.7833
}
},
{
"Name": "Qirmizikənd",
"PostCode": "AZ 4724",
"Location": {
"Latitude": 39.3424,
"Longitude": 48.7632
}
},
{
"Name": "Xilli",
"PostCode": "AZ 4719",
"Location": {
"Latitude": 39.4301,
"Longitude": 49.1017
}
},
{
"Name": "Xol Qarabucaq",
"PostCode": "AZ 4720",
"Location": {
"Latitude": 39.3087,
"Longitude": 48.8182
}
},
{
"Name": "Yuxari Qaramanli",
"PostCode": "AZ 4728",
"Location": {
"Latitude": 39.4767,
"Longitude": 49.0251
}
}
]
}
]
}
]
},
{
"Name": "Oğuz",
"Code": "37",
"Provinces": [
{
"Communities": [
{
"Places": [
{
"Name": "Bayan",
"PostCode": "AZ 4812",
"Location": {
"Latitude": 41.0261,
"Longitude": 47.4493
}
},
{
"Name": "Bucaq",
"PostCode": "AZ 4814",
"Location": {
"Latitude": 41.078,
"Longitude": 47.3698
}
},
{
"Name": "Calud",
"PostCode": "AZ 4815",
"Location": {
"Latitude": 41.0315,
"Longitude": 47.4775
}
},
{
"Name": "Kərimli",
"PostCode": "AZ 4819",
"Location": {
"Latitude": 40.9772,
"Longitude": 47.4865
}
},
{
"Name": "Oğuz",
"PostCode": "AZ 4800",
"Location": {
"Latitude": 41.0713,
"Longitude": 47.4653
}
},
{
"Name": "Padar",
"PostCode": "AZ 4823",
"Location": {
"Latitude": 40.9632,
"Longitude": 47.517
}
},
{
"Name": "Qumlaq",
"PostCode": "AZ 4821",
"Location": {
"Latitude": 41.0248,
"Longitude": 47.4878
}
},
{
"Name": "Sincan",
"PostCode": "AZ 4824",
"Location": {
"Latitude": 40.9428,
"Longitude": 47.5856
}
},
{
"Name": "Şirvanli",
"PostCode": "AZ 4825",
"Location": {
"Latitude": 41.0191,
"Longitude": 47.5019
}
},
{
"Name": "Xaçmaz",
"PostCode": "AZ 4817",
"Location": {
"Latitude": 41.0446,
"Longitude": 47.6045
}
},
{
"Name": "Yaqublu",
"PostCode": "AZ 4826",
"Location": {
"Latitude": 40.9226,
"Longitude": 47.4614
}
}
]
}
]
}
]
},
{
"Name": "Qəbələ",
"Code": "38",
"Provinces": [
{
"Communities": [
{
"Places": [
{
"Name": "1 Sayli",
"PostCode": "AZ 3601",
"Location": {
"Latitude": 40.9825,
"Longitude": 47.8491
}
},
{
"Name": "2 Sayli",
"PostCode": "AZ 3602",
"Location": {
"Latitude": 40.9825,
"Longitude": 47.8491
}
},
{
"Name": "Böyük Əmilli",
"PostCode": "AZ 3635",
"Location": {
"Latitude": 40.938,
"Longitude": 47.8511
}
},
{
"Name": "Bum",
"PostCode": "AZ 3611",
"Location": {
"Latitude": 41.0144,
"Longitude": 47.7781
}
},
{
"Name": "Bunud",
"PostCode": "AZ 3612",
"Location": {
"Latitude": 40.9191,
"Longitude": 47.9895
}
},
{
"Name": "Çuxur Qəbələ",
"PostCode": "AZ 3613",
"Location": {
"Latitude": 40.8907,
"Longitude": 47.6944
}
},
{
"Name": "Dizaxli",
"PostCode": "AZ 3614",
"Location": {
"Latitude": 40.8525,
"Longitude": 47.6781
}
},
{
"Name": "Əmirvan",
"PostCode": "AZ 3615",
"Location": {
"Latitude": 40.8309,
"Longitude": 47.8956
}
},
{
"Name": "Hacialili",
"PostCode": "AZ 3616",
"Location": {
"Latitude": 40.8431,
"Longitude": 47.7297
}
},
{
"Name": "Həmzəlli",
"PostCode": "AZ 3617",
"Location": {
"Latitude": 40.9023,
"Longitude": 47.7814
}
},
{
"Name": "Kürd",
"PostCode": "AZ 3618",
"Location": {
"Latitude": 40.8063,
"Longitude": 47.6896
}
},
{
"Name": "Məlikli",
"PostCode": "AZ 3620",
"Location": {
"Latitude": 40.7984,
"Longitude": 47.8491
}
},
{
"Name": "Mirzəbəyli",
"PostCode": "AZ 3622",
"Location": {
"Latitude": 40.9189,
"Longitude": 47.725
}
},
{
"Name": "Mixliqovaq",
"PostCode": "AZ 3621",
"Location": {
"Latitude": 40.9767,
"Longitude": 47.7066
}
},
{
"Name": "Nic-1",
"PostCode": "AZ 3623",
"Location": {
"Latitude": 40.902,
"Longitude": 47.8192
}
},
{
"Name": "Nic-2",
"PostCode": "AZ 3624",
"Location": {
"Latitude": 40.902,
"Longitude": 47.8192
}
},
{
"Name": "Nohurqişlaq",
"PostCode": "AZ 3632",
"Location": {
"Latitude": 40.944,
"Longitude": 47.8976
}
},
{
"Name": "Pirəli",
"PostCode": "AZ 3625",
"Location": {
"Latitude": 40.902,
"Longitude": 47.8192
}
},
{
"Name": "Qəbələ",
"PostCode": "AZ 3600",
"Location": {
"Latitude": 40.9825,
"Longitude": 47.8491
}
},
{
"Name": "Qəmərvan",
"PostCode": "AZ 3619",
"Location": {
"Latitude": 41.061,
"Longitude": 47.7961
}
},
{
"Name": "Soltan Nuxa",
"PostCode": "AZ 3636",
"Location": {
"Latitude": 40.938,
"Longitude": 47.8511
}
},
{
"Name": "Tüntül",
"PostCode": "AZ 3627",
"Location": {
"Latitude": 40.93,
"Longitude": 47.8811
}
},
{
"Name": "Vəndam",
"PostCode": "AZ 3628",
"Location": {
"Latitude": 40.946,
"Longitude": 47.9436
}
},
{
"Name": "Zalam",
"PostCode": "AZ 3629",
"Location": {
"Latitude": 40.8419,
"Longitude": 47.8096
}
},
{
"Name": "Zaragan",
"PostCode": "AZ 3630",
"Location": {
"Latitude": 40.9321,
"Longitude": 47.8046
}
},
{
"Name": "Zaragan-1",
"PostCode": "AZ 3638",
"Location": {
"Latitude": 40.938,
"Longitude": 47.8511
}
}
]
}
]
}
]
},
{
"Name": "Qax",
"Code": "39",
"Provinces": [
{
"Communities": [
{
"Places": [
{
"Name": "1 Sayli",
"PostCode": "AZ 3401",
"Location": {
"Latitude": 41.4183,
"Longitude": 46.9204
}
},
{
"Name": "Alatəmir",
"PostCode": "AZ 3411",
"Location": {
"Latitude": 41.4234,
"Longitude": 46.8704
}
},
{
"Name": "Almali",
"PostCode": "AZ 3412",
"Location": {
"Latitude": 41.3397,
"Longitude": 46.764
}
},
{
"Name": "Cəlayer",
"PostCode": "AZ 3413",
"Location": {
"Latitude": 41.4234,
"Longitude": 46.8704
}
},
{
"Name": "Əlibəyli",
"PostCode": "AZ 3414",
"Location": {
"Latitude": 41.3814,
"Longitude": 46.8256
}
},
{
"Name": "Güllük",
"PostCode": "AZ 3416",
"Location": {
"Latitude": 41.5039,
"Longitude": 46.7589
}
},
{
"Name": "Ilisu",
"PostCode": "AZ 3417",
"Location": {
"Latitude": 41.4679,
"Longitude": 47.0651
}
},
{
"Name": "Kötüklü",
"PostCode": "AZ 3418",
"Location": {
"Latitude": 41.4234,
"Longitude": 46.8704
}
},
{
"Name": "Ləkit",
"PostCode": "AZ 3424",
"Location": {
"Latitude": 41.4839,
"Longitude": 46.849
}
},
{
"Name": "Qaşqaçay",
"PostCode": "AZ 3421",
"Location": {
"Latitude": 41.387,
"Longitude": 47.0394
}
},
{
"Name": "Qax",
"PostCode": "AZ 3400",
"Location": {
"Latitude": 41.4183,
"Longitude": 46.9204
}
},
{
"Name": "Qax Ingiloy",
"PostCode": "AZ 3419",
"Location": {
"Latitude": 41.4241,
"Longitude": 46.9386
}
},
{
"Name": "Qipçaq",
"PostCode": "AZ 3422",
"Location": {
"Latitude": 41.3025,
"Longitude": 46.8281
}
},
{
"Name": "Qorağan",
"PostCode": "AZ 3420",
"Location": {
"Latitude": 41.3815,
"Longitude": 46.7312
}
},
{
"Name": "Qum",
"PostCode": "AZ 3423",
"Location": {
"Latitude": 41.4586,
"Longitude": 46.9127
}
},
{
"Name": "Tasmali",
"PostCode": "AZ 3425",
"Location": {
"Latitude": 41.4315,
"Longitude": 46.7026
}
},
{
"Name": "Turacli",
"PostCode": "AZ 3426",
"Location": {
"Latitude": 41.4152,
"Longitude": 46.7742
}
},
{
"Name": "Üzümlü",
"PostCode": "AZ 3427",
"Location": {
"Latitude": 41.409,
"Longitude": 46.815
}
},
{
"Name": "Zəyəm",
"PostCode": "AZ 3428",
"Location": {
"Latitude": 41.4121,
"Longitude": 46.6826
}
}
]
}
]
}
]
},
{
"Name": "Qazax",
"Code": "40",
"Provinces": [
{
"Communities": [
{
"Places": [
{
"Name": "1 Sayli",
"PostCode": "AZ 3501",
"Location": {
"Latitude": 41.0925,
"Longitude": 45.3656
}
},
{
"Name": "2 Sayli",
"PostCode": "AZ 3502",
"Location": {
"Latitude": 41.0925,
"Longitude": 45.3656
}
},
{
"Name": "Ağköynək",
"PostCode": "AZ 3511",
"Location": {
"Latitude": 41.0824,
"Longitude": 45.3374
}
},
{
"Name": "Alpoud",
"PostCode": "AZ 3512",
"Location": {
"Latitude": 41.1226,
"Longitude": 45.2647
}
},
{
"Name": "Aslanbəyli",
"PostCode": "AZ 3513",
"Location": {
"Latitude": 41.2315,
"Longitude": 45.1653
}
},
{
"Name": "Çayli",
"PostCode": "AZ 3517",
"Location": {
"Latitude": 41.1257,
"Longitude": 45.3107
}
},
{
"Name": "Cəfərli",
"PostCode": "AZ 3516",
"Location": {
"Latitude": 41.0335,
"Longitude": 45.2419
}
},
{
"Name": "Daş Salahli",
"PostCode": "AZ 3518",
"Location": {
"Latitude": 41.14,
"Longitude": 45.2683
}
},
{
"Name": "Dəmirçilər",
"PostCode": "AZ 3519",
"Location": {
"Latitude": 41.1226,
"Longitude": 45.2647
}
},
{
"Name": "Fərəhli",
"PostCode": "AZ 3536",
"Location": {
"Latitude": 41.1044,
"Longitude": 45.1451
}
},
{
"Name": "Hüseynbəyli",
"PostCode": "AZ 3534",
"Location": {
"Latitude": 41.1144,
"Longitude": 45.3641
}
},
{
"Name": "Kəmərli",
"PostCode": "AZ 3521",
"Location": {
"Latitude": 41.208,
"Longitude": 45.0853
}
},
{
"Name": "Kosalar",
"PostCode": "AZ 3523",
"Location": {
"Latitude": 41.1331,
"Longitude": 45.358
}
},
{
"Name": "Nərimanov Qəsəbəsi",
"PostCode": "AZ 3533",
"Location": {
"Latitude": 41.1935,
"Longitude": 45.2188
}
},
{
"Name": "Orta Salahli",
"PostCode": "AZ 3528",
"Location": {
"Latitude": 41.1891,
"Longitude": 45.3248
}
},
{
"Name": "Qaymaqli",
"PostCode": "AZ 3524",
"Location": {
"Latitude": 41.2242,
"Longitude": 45.1363
}
},
{
"Name": "Qazax",
"PostCode": "AZ 3500",
"Location": {
"Latitude": 41.0925,
"Longitude": 45.3656
}
},
{
"Name": "Siniq Körpü (Dgk)",
"PostCode": "AZ 3525",
"Location": {
"Latitude": 41.164,
"Longitude": 45.2402
}
},
{
"Name": "Şixli-1",
"PostCode": "AZ 3529",
"Location": {
"Latitude": 41.164,
"Longitude": 45.2402
}
},
{
"Name": "Şixli-2",
"PostCode": "AZ 3530",
"Location": {
"Latitude": 41.3116,
"Longitude": 45.0992
}
},
{
"Name": "Xanliqlar",
"PostCode": "AZ 3520",
"Location": {
"Latitude": 41.0657,
"Longitude": 45.2964
}
},
{
"Name": "Yuxari Salahli",
"PostCode": "AZ 3532",
"Location": {
"Latitude": 41.2435,
"Longitude": 45.2669
}
}
]
}
]
}
]
},
{
"Name": "Qobustan",
"Code": "41",
"Provinces": [
{
"Communities": [
{
"Places": [
{
"Name": "1 Sayli",
"PostCode": "AZ 3701",
"Location": {
"Latitude": 40.5336,
"Longitude": 48.9282
}
},
{
"Name": "Cəyirli",
"PostCode": "AZ 3711",
"Location": {
"Latitude": 40.579,
"Longitude": 48.8643
}
},
{
"Name": "Ərəbşalbaş",
"PostCode": "AZ 3713",
"Location": {
"Latitude": 40.6183,
"Longitude": 48.7613
}
},
{
"Name": "Nabur",
"PostCode": "AZ 3715",
"Location": {
"Latitude": 40.6316,
"Longitude": 48.9177
}
},
{
"Name": "Poladli",
"PostCode": "AZ 3717",
"Location": {
"Latitude": 40.42,
"Longitude": 48.8176
}
},
{
"Name": "Qobustan",
"PostCode": "AZ 3700",
"Location": {
"Latitude": 40.5336,
"Longitude": 48.9282
}
},
{
"Name": "Təklə",
"PostCode": "AZ 3719",
"Location": {
"Latitude": 40.588,
"Longitude": 48.8455
}
},
{
"Name": "Xilmilli",
"PostCode": "AZ 3714",
"Location": {
"Latitude": 40.6913,
"Longitude": 48.8665
}
}
]
}
]
}
]
},
{
"Name": "Quba",
"Code": "42",
"Provinces": [
{
"Communities": [
{
"Places": [
{
"Name": "1 Sayli",
"PostCode": "AZ 4001",
"Location": {
"Latitude": 41.3611,
"Longitude": 48.5134
}
},
{
"Name": "2 Sayli",
"PostCode": "AZ 4002",
"Location": {
"Latitude": 41.3611,
"Longitude": 48.5134
}
},
{
"Name": "3 Sayli",
"PostCode": "AZ 4003",
"Location": {
"Latitude": 41.3611,
"Longitude": 48.5134
}
},
{
"Name": "Alekseyevka",
"PostCode": "AZ 4011",
"Location": {
"Latitude": 41.3762,
"Longitude": 48.578
}
},
{
"Name": "Alpan",
"PostCode": "AZ 4012",
"Location": {
"Latitude": 41.3866,
"Longitude": 48.4301
}
},
{
"Name": "Amsar",
"PostCode": "AZ 4013",
"Location": {
"Latitude": 41.3289,
"Longitude": 48.5403
}
},
{
"Name": "Aşaği Atuc",
"PostCode": "AZ 4015",
"Location": {
"Latitude": 41.4475,
"Longitude": 48.5705
}
},
{
"Name": "Barli",
"PostCode": "AZ 4038",
"Location": {
"Latitude": 41.3998,
"Longitude": 48.6957
}
},
{
"Name": "Çiçi",
"PostCode": "AZ 4014",
"Location": {
"Latitude": 41.2124,
"Longitude": 48.6776
}
},
{
"Name": "Hacihüseynli",
"PostCode": "AZ 4033",
"Location": {
"Latitude": 41.3655,
"Longitude": 48.6359
}
},
{
"Name": "Kupçal",
"PostCode": "AZ 4022",
"Location": {
"Latitude": 41.3312,
"Longitude": 48.3829
}
},
{
"Name": "Nügədi-1",
"PostCode": "AZ 4026",
"Location": {
"Latitude": 41.2695,
"Longitude": 48.4946
}
},
{
"Name": "Nügədi-2",
"PostCode": "AZ 4027",
"Location": {
"Latitude": 41.2695,
"Longitude": 48.4946
}
},
{
"Name": "Qəçrəş",
"PostCode": "AZ 4023",
"Location": {
"Latitude": 41.3216,
"Longitude": 48.3869
}
},
{
"Name": "Qirmizi Qəsəbə",
"PostCode": "AZ 4024",
"Location": {
"Latitude": 41.3716,
"Longitude": 48.5176
}
},
{
"Name": "Qonaqkənd",
"PostCode": "AZ 4025",
"Location": {
"Latitude": 41.0731,
"Longitude": 48.6084
}
},
{
"Name": "Quba",
"PostCode": "AZ 4000",
"Location": {
"Latitude": 41.3611,
"Longitude": 48.5134
}
},
{
"Name": "Rustov",
"PostCode": "AZ 4028",
"Location": {
"Latitude": 41.2501,
"Longitude": 48.5771
}
},
{
"Name": "Talabi",
"PostCode": "AZ 4030",
"Location": {
"Latitude": 41.267,
"Longitude": 48.6597
}
},
{
"Name": "Vəl-Vələ",
"PostCode": "AZ 4031",
"Location": {
"Latitude": 41.3655,
"Longitude": 48.6359
}
},
{
"Name": "Vladimirovka",
"PostCode": "AZ 4032",
"Location": {
"Latitude": 41.3983,
"Longitude": 48.5483
}
},
{
"Name": "Xucbala",
"PostCode": "AZ 4019",
"Location": {
"Latitude": 41.4149,
"Longitude": 48.4661
}
},
{
"Name": "Zərdabi",
"PostCode": "AZ 4035",
"Location": {
"Latitude": 41.3969,
"Longitude": 48.64
}
}
]
}
]
}
]
},
{
"Name": "Qubadli",
"Code": "43",
"PostCode": "AZ 3900",
"Provinces": [
{
"PostCode": "AZ 3900",
"Communities": [
{
"Places": [
{
"Name": "Qubadli",
"PostCode": "AZ 3900",
"Location": {
"Latitude": 39.3444,
"Longitude": 46.5818
}
}
],
"PostCode": "AZ 3900"
}
]
}
]
},
{
"Name": "Qusar",
"Code": "44",
"Provinces": [
{
"Communities": [
{
"Places": [
{
"Name": "2 Sayli",
"PostCode": "AZ 3802",
"Location": {
"Latitude": 41.4275,
"Longitude": 48.4302
}
},
{
"Name": "3 Sayli",
"PostCode": "AZ 3803",
"Location": {
"Latitude": 41.4275,
"Longitude": 48.4302
}
},
{
"Name": "Aşaği Ləyər",
"PostCode": "AZ 3811",
"Location": {
"Latitude": 41.453,
"Longitude": 48.2958
}
},
{
"Name": "Düztahir",
"PostCode": "AZ 3814",
"Location": {
"Latitude": 41.4095,
"Longitude": 48.1529
}
},
{
"Name": "Əniq",
"PostCode": "AZ 3816",
"Location": {
"Latitude": 41.3329,
"Longitude": 48.2197
}
},
{
"Name": "Gədəzeyxur",
"PostCode": "AZ 3817",
"Location": {
"Latitude": 41.4884,
"Longitude": 48.4242
}
},
{
"Name": "Gündüzqala",
"PostCode": "AZ 3818",
"Location": {
"Latitude": 41.5294,
"Longitude": 48.4321
}
},
{
"Name": "Həzrə",
"PostCode": "AZ 3819",
"Location": {
"Latitude": 41.5046,
"Longitude": 48.2502
}
},
{
"Name": "Hil",
"PostCode": "AZ 3820",
"Location": {
"Latitude": 41.4677,
"Longitude": 48.3444
}
},
{
"Name": "Imamqulukənd",
"PostCode": "AZ 3824",
"Location": {
"Latitude": 41.4013,
"Longitude": 48.2429
}
},
{
"Name": "Kuzun",
"PostCode": "AZ 3827",
"Location": {
"Latitude": 41.335,
"Longitude": 48.1414
}
},
{
"Name": "Kuzun Qişlaq",
"PostCode": "AZ 3826",
"Location": {
"Latitude": 41.4013,
"Longitude": 48.2429
}
},
{
"Name": "Piral",
"PostCode": "AZ 3833",
"Location": {
"Latitude": 41.495,
"Longitude": 48.2857
}
},
{
"Name": "Qullar",
"PostCode": "AZ 3831",
"Location": {
"Latitude": 41.6399,
"Longitude": 48.4719
}
},
{
"Name": "Qusar",
"PostCode": "AZ 3800",
"Location": {
"Latitude": 41.4275,
"Longitude": 48.4302
}
},
{
"Name": "Quxur Oba",
"PostCode": "AZ 3830",
"Location": {
"Latitude": 41.5725,
"Longitude": 48.4237
}
},
{
"Name": "Samur Sdk Gömrük",
"PostCode": "AZ 3840",
"Location": {
"Latitude": 41.4806,
"Longitude": 48.3501
}
},
{
"Name": "Şirvanovka",
"PostCode": "AZ 3834",
"Location": {
"Latitude": 41.696,
"Longitude": 48.4888
}
},
{
"Name": "Urva",
"PostCode": "AZ 3835",
"Location": {
"Latitude": 41.5423,
"Longitude": 48.5936
}
},
{
"Name": "Yasab",
"PostCode": "AZ 3836",
"Location": {
"Latitude": 41.4926,
"Longitude": 48.3203
}
},
{
"Name": "Yuxari Zeyxur",
"PostCode": "AZ 3838",
"Location": {
"Latitude": 41.5692,
"Longitude": 48.3817
}
}
]
}
]
}
]
},
{
"Name": "Saatli",
"Code": "45",
"Provinces": [
{
"Communities": [
{
"Places": [
{
"Name": "1 Sayli",
"PostCode": "AZ 4901",
"Location": {
"Latitude": 39.9321,
"Longitude": 48.3689
}
},
{
"Name": "Azadkənd",
"PostCode": "AZ 4911",
"Location": {
"Latitude": 39.7906,
"Longitude": 48.5566
}
},
{
"Name": "Bəylik",
"PostCode": "AZ 4912",
"Location": {
"Latitude": 39.9563,
"Longitude": 48.4106
}
},
{
"Name": "Dədə Qorqud",
"PostCode": "AZ 4913",
"Location": {
"Latitude": 39.8708,
"Longitude": 48.3903
}
},
{
"Name": "Əlisoltanli",
"PostCode": "AZ 4914",
"Location": {
"Latitude": 39.9023,
"Longitude": 48.3391
}
},
{
"Name": "Fətəlikənd",
"PostCode": "AZ 4915",
"Location": {
"Latitude": 39.8759,
"Longitude": 48.555
}
},
{
"Name": "Haciqasimli",
"PostCode": "AZ 4916",
"Location": {
"Latitude": 39.9135,
"Longitude": 48.244
}
},
{
"Name": "Məmmədabad",
"PostCode": "AZ 4922",
"Location": {
"Latitude": 39.8615,
"Longitude": 48.4691
}
},
{
"Name": "Mircəlalkənd",
"PostCode": "AZ 4923",
"Location": {
"Latitude": 39.8912,
"Longitude": 48.4977
}
},
{
"Name": "Mollavazli",
"PostCode": "AZ 4924",
"Location": {
"Latitude": 39.9196,
"Longitude": 48.3451
}
},
{
"Name": "Nərimankənd",
"PostCode": "AZ 4925",
"Location": {
"Latitude": 39.8912,
"Longitude": 48.4977
}
},
{
"Name": "Nəsimikənd",
"PostCode": "AZ 4926",
"Location": {
"Latitude": 39.8385,
"Longitude": 48.6133
}
},
{
"Name": "Qara Nuru",
"PostCode": "AZ 4918",
"Location": {
"Latitude": 39.9238,
"Longitude": 48.4993
}
},
{
"Name": "Qaraçalar",
"PostCode": "AZ 4919",
"Location": {
"Latitude": 39.887,
"Longitude": 48.311
}
},
{
"Name": "Qarayevkənd",
"PostCode": "AZ 4920",
"Location": {
"Latitude": 39.9122,
"Longitude": 48.653
}
},
{
"Name": "Qiraqli",
"PostCode": "AZ 4921",
"Location": {
"Latitude": 39.9449,
"Longitude": 48.392
}
},
{
"Name": "Saatli",
"PostCode": "AZ 4900",
"Location": {
"Latitude": 39.9321,
"Longitude": 48.3689
}
},
{
"Name": "Saatlikənd",
"PostCode": "AZ 4927",
"Location": {
"Latitude": 39.8912,
"Longitude": 48.4977
}
},
{
"Name": "Saracalar",
"PostCode": "AZ 4928",
"Location": {
"Latitude": 39.8912,
"Longitude": 48.4977
}
},
{
"Name": "Şirinbəyli",
"PostCode": "AZ 4929",
"Location": {
"Latitude": 39.8707,
"Longitude": 48.5136
}
},
{
"Name": "Varxankənd",
"PostCode": "AZ 4930",
"Location": {
"Latitude": 39.8945,
"Longitude": 48.4589
}
},
{
"Name": "Xanlarkənd",
"PostCode": "AZ 4917",
"Location": {
"Latitude": 39.8873,
"Longitude": 48.617
}
}
]
}
]
}
]
},
{
"Name": "Sabirabad",
"Code": "46",
"Provinces": [
{
"Communities": [
{
"Places": [
{
"Name": "1 Sayli",
"PostCode": "AZ 5401",
"Location": {
"Latitude": 40.0087,
"Longitude": 48.477
}
},
{
"Name": "3 Sayli",
"PostCode": "AZ 5403",
"Location": {
"Latitude": 40.0087,
"Longitude": 48.477
}
},
{
"Name": "Axisxa",
"PostCode": "AZ 5411",
"Location": {
"Latitude": 40.0855,
"Longitude": 48.5398
}
},
{
"Name": "Axtaçi",
"PostCode": "AZ 5412",
"Location": {
"Latitude": 40.0163,
"Longitude": 48.7175
}
},
{
"Name": "Cavad",
"PostCode": "AZ 5415",
"Location": {
"Latitude": 40.0418,
"Longitude": 48.4694
}
},
{
"Name": "Əhmədabad",
"PostCode": "AZ 5418",
"Location": {
"Latitude": 39.9963,
"Longitude": 48.618
}
},
{
"Name": "Həşimxanli",
"PostCode": "AZ 5420",
"Location": {
"Latitude": 40.0093,
"Longitude": 48.6077
}
},
{
"Name": "Kürkəndi",
"PostCode": "AZ 5422",
"Location": {
"Latitude": 40.0262,
"Longitude": 48.4821
}
},
{
"Name": "Minbaşi",
"PostCode": "AZ 5429",
"Location": {
"Latitude": 39.9229,
"Longitude": 48.8778
}
},
{
"Name": "Moranli",
"PostCode": "AZ 5430",
"Location": {
"Latitude": 39.7868,
"Longitude": 48.7381
}
},
{
"Name": "Mürsəlli",
"PostCode": "AZ 5432",
"Location": {
"Latitude": 40.0834,
"Longitude": 48.5603
}
},
{
"Name": "Nizamikənd",
"PostCode": "AZ 5434",
"Location": {
"Latitude": 39.9927,
"Longitude": 48.6572
}
},
{
"Name": "Qalağayin",
"PostCode": "AZ 5423",
"Location": {
"Latitude": 39.9812,
"Longitude": 48.4796
}
},
{
"Name": "Qaragüney",
"PostCode": "AZ 5424",
"Location": {
"Latitude": 39.9707,
"Longitude": 48.8499
}
},
{
"Name": "Qaralar",
"PostCode": "AZ 5443",
"Location": {
"Latitude": 40.033,
"Longitude": 48.5139
}
},
{
"Name": "Qaratəpə",
"PostCode": "AZ 5426",
"Location": {
"Latitude": 39.9645,
"Longitude": 48.6145
}
},
{
"Name": "Qasimbəyli",
"PostCode": "AZ 5427",
"Location": {
"Latitude": 40.0346,
"Longitude": 48.3392
}
},
{
"Name": "Qəzli",
"PostCode": "AZ 5428",
"Location": {
"Latitude": 40.085,
"Longitude": 48.6089
}
},
{
"Name": "Quruzma",
"PostCode": "AZ 5425",
"Location": {
"Latitude": 40.0896,
"Longitude": 48.6096
}
},
{
"Name": "Sabirabad",
"PostCode": "AZ 5400",
"Location": {
"Latitude": 40.0087,
"Longitude": 48.477
}
},
{
"Name": "Şəhriyar",
"PostCode": "AZ 5436",
"Location": {
"Latitude": 39.9445,
"Longitude": 48.7138
}
},
{
"Name": "Şix Salahli",
"PostCode": "AZ 5437",
"Location": {
"Latitude": 39.9927,
"Longitude": 48.8068
}
},
{
"Name": "Suqovuşan",
"PostCode": "AZ 5435",
"Location": {
"Latitude": 39.9927,
"Longitude": 48.6572
}
},
{
"Name": "Surra",
"PostCode": "AZ 5433",
"Location": {
"Latitude": 40.0785,
"Longitude": 48.5302
}
},
{
"Name": "Ulacali",
"PostCode": "AZ 5439",
"Location": {
"Latitude": 40.0706,
"Longitude": 48.5939
}
},
{
"Name": "Xəlfəli",
"PostCode": "AZ 5446",
"Location": {
"Latitude": 39.9559,
"Longitude": 48.6782
}
},
{
"Name": "Yolçubəyli",
"PostCode": "AZ 5440",
"Location": {
"Latitude": 40.058,
"Longitude": 48.3901
}
},
{
"Name": "Zəngənə",
"PostCode": "AZ 5441",
"Location": {
"Latitude": 40.0934,
"Longitude": 48.4135
}
}
]
}
]
}
]
},
{
"Name": "Şəki",
"Code": "48",
"Provinces": [
{
"Communities": [
{
"Places": [
{
"Name": "1 Sayli",
"PostCode": "AZ 5501",
"Location": {
"Latitude": 41.1919,
"Longitude": 47.1706
}
},
{
"Name": "2 Sayli",
"PostCode": "AZ 5502",
"Location": {
"Latitude": 41.1919,
"Longitude": 47.1706
}
},
{
"Name": "3 Sayli",
"PostCode": "AZ 5503",
"Location": {
"Latitude": 41.1919,
"Longitude": 47.1706
}
},
{
"Name": "4 Sayli",
"PostCode": "AZ 5504",
"Location": {
"Latitude": 41.1919,
"Longitude": 47.1706
}
},
{
"Name": "5 Sayli",
"PostCode": "AZ 5505",
"Location": {
"Latitude": 41.1919,
"Longitude": 47.1706
}
},
{
"Name": "6 Sayli",
"PostCode": "AZ 5506",
"Location": {
"Latitude": 41.1919,
"Longitude": 47.1706
}
},
{
"Name": "7 Sayli",
"PostCode": "AZ 5507",
"Location": {
"Latitude": 41.1919,
"Longitude": 47.1706
}
},
{
"Name": "8 Sayli",
"PostCode": "AZ 5508",
"Location": {
"Latitude": 41.1919,
"Longitude": 47.1706
}
},
{
"Name": "Aşaği Göynük",
"PostCode": "AZ 5511",
"Location": {
"Latitude": 41.2848,
"Longitude": 47.0227
}
},
{
"Name": "Aşaği Küngüt",
"PostCode": "AZ 5512",
"Location": {
"Latitude": 41.065,
"Longitude": 47.2546
}
},
{
"Name": "Aydinbulaq",
"PostCode": "AZ 5535",
"Location": {
"Latitude": 40.994,
"Longitude": 47.2802
}
},
{
"Name": "Baltali",
"PostCode": "AZ 5513",
"Location": {
"Latitude": 41.1867,
"Longitude": 47.0899
}
},
{
"Name": "Baş Göynük",
"PostCode": "AZ 5514",
"Location": {
"Latitude": 41.3258,
"Longitude": 47.1136
}
},
{
"Name": "Baş Göynük-2",
"PostCode": "AZ 5537",
"Location": {
"Latitude": 41.0751,
"Longitude": 47.1556
}
},
{
"Name": "Baş Küngüt",
"PostCode": "AZ 5515",
"Location": {
"Latitude": 41.162,
"Longitude": 47.3233
}
},
{
"Name": "Baş Layiski",
"PostCode": "AZ 5516",
"Location": {
"Latitude": 41.1509,
"Longitude": 47.165
}
},
{
"Name": "Baş Zəyzit",
"PostCode": "AZ 5517",
"Location": {
"Latitude": 41.1903,
"Longitude": 47.247
}
},
{
"Name": "Biləcik",
"PostCode": "AZ 5534",
"Location": {
"Latitude": 41.3322,
"Longitude": 46.9437
}
},
{
"Name": "Böyük Dəhnə",
"PostCode": "AZ 5518",
"Location": {
"Latitude": 40.9733,
"Longitude": 47.114
}
},
{
"Name": "Cəfərabad",
"PostCode": "AZ 5519",
"Location": {
"Latitude": 41.0195,
"Longitude": 47.1547
}
},
{
"Name": "Cəyirli",
"PostCode": "AZ 5520",
"Location": {
"Latitude": 41.1233,
"Longitude": 47.1802
}
},
{
"Name": "Cumaykənd",
"PostCode": "AZ 5521",
"Location": {
"Latitude": 41.1233,
"Longitude": 47.1802
}
},
{
"Name": "Inçə",
"PostCode": "AZ 5523",
"Location": {
"Latitude": 41.2526,
"Longitude": 47.1103
}
},
{
"Name": "Kiçik Dəhnə",
"PostCode": "AZ 5524",
"Location": {
"Latitude": 40.9942,
"Longitude": 47.0803
}
},
{
"Name": "Kiş",
"PostCode": "AZ 5525",
"Location": {
"Latitude": 41.1233,
"Longitude": 47.1802
}
},
{
"Name": "Köbər Zəyzid",
"PostCode": "AZ 5540",
"Location": {
"Latitude": 41.137,
"Longitude": 47.1682
}
},
{
"Name": "Oravan",
"PostCode": "AZ 5536",
"Location": {
"Latitude": 41.1482,
"Longitude": 47.3407
}
},
{
"Name": "Orta Zəyzit",
"PostCode": "AZ 5528",
"Location": {
"Latitude": 41.1697,
"Longitude": 47.2479
}
},
{
"Name": "Oxud",
"PostCode": "AZ 5527",
"Location": {
"Latitude": 41.2374,
"Longitude": 47.1586
}
},
{
"Name": "Qoxmuq",
"PostCode": "AZ 5526",
"Location": {
"Latitude": 41.2113,
"Longitude": 47.1407
}
},
{
"Name": "Sarica",
"PostCode": "AZ 5529",
"Location": {
"Latitude": 40.8747,
"Longitude": 47.3432
}
},
{
"Name": "Şəki",
"PostCode": "AZ 5500",
"Location": {
"Latitude": 41.1919,
"Longitude": 47.1706
}
},
{
"Name": "Şəkikənd",
"PostCode": "AZ 5531",
"Location": {
"Latitude": 41.0751,
"Longitude": 47.1556
}
},
{
"Name": "Şorsu",
"PostCode": "AZ 5532",
"Location": {
"Latitude": 41.1598,
"Longitude": 46.9905
}
},
{
"Name": "Suçma",
"PostCode": "AZ 5530",
"Location": {
"Latitude": 40.9598,
"Longitude": 47.1336
}
},
{
"Name": "Turan",
"PostCode": "AZ 5533",
"Location": {
"Latitude": 40.8564,
"Longitude": 47.2451
}
}
]
}
]
}
]
},
{
"Name": "Salyan",
"Code": "49",
"Provinces": [
{
"Communities": [
{
"Places": [
{
"Name": "1 Sayli",
"PostCode": "AZ 5201",
"Location": {
"Latitude": 39.5962,
"Longitude": 48.9848
}
},
{
"Name": "5 Sayli",
"PostCode": "AZ 5205",
"Location": {
"Latitude": 39.5962,
"Longitude": 48.9848
}
},
{
"Name": "6 Sayli",
"PostCode": "AZ 5206",
"Location": {
"Latitude": 39.5962,
"Longitude": 48.9848
}
},
{
"Name": "Arbatan",
"PostCode": "AZ 5211",
"Location": {
"Latitude": 39.5782,
"Longitude": 48.9488
}
},
{
"Name": "Çuxanli",
"PostCode": "AZ 5213",
"Location": {
"Latitude": 39.6396,
"Longitude": 48.9728
}
},
{
"Name": "Həsənli",
"PostCode": "AZ 5214",
"Location": {
"Latitude": 39.736,
"Longitude": 49.0516
}
},
{
"Name": "Kür Qaraqaşli",
"PostCode": "AZ 5218",
"Location": {
"Latitude": 39.5802,
"Longitude": 48.9803
}
},
{
"Name": "Kürsəngi",
"PostCode": "AZ 5219",
"Location": {
"Latitude": 39.6879,
"Longitude": 49.0526
}
},
{
"Name": "Marişli",
"PostCode": "AZ 5223",
"Location": {
"Latitude": 39.5646,
"Longitude": 48.9226
}
},
{
"Name": "Noxudlu",
"PostCode": "AZ 5224",
"Location": {
"Latitude": 39.6455,
"Longitude": 48.9544
}
},
{
"Name": "Qarabağli",
"PostCode": "AZ 5220",
"Location": {
"Latitude": 39.7675,
"Longitude": 48.9679
}
},
{
"Name": "Qaraçala",
"PostCode": "AZ 5221",
"Location": {
"Latitude": 39.8161,
"Longitude": 48.9379
}
},
{
"Name": "Qizilağac",
"PostCode": "AZ 5222",
"Location": {
"Latitude": 39.5116,
"Longitude": 48.9181
}
},
{
"Name": "Salyan",
"PostCode": "AZ 5200",
"Location": {
"Latitude": 39.5962,
"Longitude": 48.9848
}
},
{
"Name": "Sarvan",
"PostCode": "AZ 5227",
"Location": {
"Latitude": 39.4825,
"Longitude": 48.8963
}
},
{
"Name": "Şəkərli",
"PostCode": "AZ 5233",
"Location": {
"Latitude": 39.6942,
"Longitude": 49.0668
}
},
{
"Name": "Şorsulu",
"PostCode": "AZ 5228",
"Location": {
"Latitude": 39.4236,
"Longitude": 48.8246
}
},
{
"Name": "Xalac",
"PostCode": "AZ 5215",
"Location": {
"Latitude": 39.75,
"Longitude": 49.0411
}
},
{
"Name": "Xidirli",
"PostCode": "AZ 5216",
"Location": {
"Latitude": 39.8432,
"Longitude": 49.3209
}
},
{
"Name": "Yenikənd",
"PostCode": "AZ 5230",
"Location": {
"Latitude": 39.7101,
"Longitude": 49.0897
}
}
]
}
]
}
]
},
{
"Name": "Şamaxi",
"Code": "50",
"Provinces": [
{
"Communities": [
{
"Places": [
{
"Name": "1 Sayli",
"PostCode": "AZ 5601",
"Location": {
"Latitude": 40.6314,
"Longitude": 48.6414
}
},
{
"Name": "2 Sayli",
"PostCode": "AZ 5602",
"Location": {
"Latitude": 40.6314,
"Longitude": 48.6414
}
},
{
"Name": "Bağirli",
"PostCode": "AZ 5612",
"Location": {
"Latitude": 40.4567,
"Longitude": 48.5953
}
},
{
"Name": "Cabani",
"PostCode": "AZ 5613",
"Location": {
"Latitude": 40.6692,
"Longitude": 48.7079
}
},
{
"Name": "Çarhan",
"PostCode": "AZ 5623",
"Location": {
"Latitude": 40.5523,
"Longitude": 48.6469
}
},
{
"Name": "Çuxuryurd",
"PostCode": "AZ 5614",
"Location": {
"Latitude": 40.7118,
"Longitude": 48.6319
}
},
{
"Name": "Göylər",
"PostCode": "AZ 5615",
"Location": {
"Latitude": 40.6505,
"Longitude": 48.6541
}
},
{
"Name": "Günəşli",
"PostCode": "AZ 5616",
"Location": {
"Latitude": 40.6505,
"Longitude": 48.6541
}
},
{
"Name": "Mədrəsə",
"PostCode": "AZ 5617",
"Location": {
"Latitude": 40.6129,
"Longitude": 48.5615
}
},
{
"Name": "Məlhəm",
"PostCode": "AZ 5629",
"Location": {
"Latitude": 40.6899,
"Longitude": 48.6316
}
},
{
"Name": "Məlikçobanli",
"PostCode": "AZ 5628",
"Location": {
"Latitude": 40.5406,
"Longitude": 48.6857
}
},
{
"Name": "Mirikənd",
"PostCode": "AZ 5621",
"Location": {
"Latitude": 40.6457,
"Longitude": 48.5445
}
},
{
"Name": "Muğanli",
"PostCode": "AZ 5627",
"Location": {
"Latitude": 40.6666,
"Longitude": 48.5298
}
},
{
"Name": "Nağaraxana",
"PostCode": "AZ 5618",
"Location": {
"Latitude": 40.7422,
"Longitude": 48.6341
}
},
{
"Name": "Pirqulu",
"PostCode": "AZ 5626",
"Location": {
"Latitude": 40.5886,
"Longitude": 48.629
}
},
{
"Name": "Qizmeydan",
"PostCode": "AZ 5611",
"Location": {
"Latitude": 40.7745,
"Longitude": 48.7416
}
},
{
"Name": "Quşçu",
"PostCode": "AZ 5620",
"Location": {
"Latitude": 40.4364,
"Longitude": 48.7355
}
},
{
"Name": "Sabir",
"PostCode": "AZ 5619",
"Location": {
"Latitude": 40.586,
"Longitude": 48.7067
}
},
{
"Name": "Şamaxi",
"PostCode": "AZ 5600",
"Location": {
"Latitude": 40.6314,
"Longitude": 48.6414
}
}
]
}
]
}
]
},
{
"Name": "Şəmkir",
"Code": "51",
"Provinces": [
{
"Communities": [
{
"Places": [
{
"Name": "4 Sayli",
"PostCode": "AZ 5704",
"Location": {
"Latitude": 40.8297,
"Longitude": 46.0178
}
},
{
"Name": "5 Sayli",
"PostCode": "AZ 5705",
"Location": {
"Latitude": 40.8297,
"Longitude": 46.0178
}
},
{
"Name": "6 Sayli",
"PostCode": "AZ 5706",
"Location": {
"Latitude": 40.8297,
"Longitude": 46.0178
}
},
{
"Name": "Aşaği Seyfəli",
"PostCode": "AZ 5711",
"Location": {
"Latitude": 40.7609,
"Longitude": 46.1275
}
},
{
"Name": "Bayramli",
"PostCode": "AZ 5736",
"Location": {
"Latitude": 40.9351,
"Longitude": 45.9273
}
},
{
"Name": "Çaparli",
"PostCode": "AZ 5733",
"Location": {
"Latitude": 40.8568,
"Longitude": 46.0915
}
},
{
"Name": "Çənlibel",
"PostCode": "AZ 5712",
"Location": {
"Latitude": 40.7469,
"Longitude": 45.8802
}
},
{
"Name": "Çinarli",
"PostCode": "AZ 5713",
"Location": {
"Latitude": 40.7754,
"Longitude": 46.1125
}
},
{
"Name": "Dəllər",
"PostCode": "AZ 5715",
"Location": {
"Latitude": 40.8628,
"Longitude": 46.0349
}
},
{
"Name": "Dəllər Cəyir",
"PostCode": "AZ 5714",
"Location": {
"Latitude": 40.8825,
"Longitude": 46.0367
}
},
{
"Name": "Dəllər Cirdaxan",
"PostCode": "AZ 5737",
"Location": {
"Latitude": 40.8981,
"Longitude": 46.0795
}
},
{
"Name": "Dəllər Daşbulaq",
"PostCode": "AZ 5745",
"Location": {
"Latitude": 40.9029,
"Longitude": 46.0444
}
},
{
"Name": "Düyərli",
"PostCode": "AZ 5716",
"Location": {
"Latitude": 40.9166,
"Longitude": 45.8481
}
},
{
"Name": "Əliyaqublu",
"PostCode": "AZ 5717",
"Location": {
"Latitude": 40.8354,
"Longitude": 46.0834
}
},
{
"Name": "Ipək Yolu",
"PostCode": "AZ 5732",
"Location": {
"Latitude": 40.8648,
"Longitude": 46.0708
}
},
{
"Name": "Irmaşli",
"PostCode": "AZ 5718",
"Location": {
"Latitude": 40.8431,
"Longitude": 45.8911
}
},
{
"Name": "Könüllü",
"PostCode": "AZ 5719",
"Location": {
"Latitude": 40.7849,
"Longitude": 46.2426
}
},
{
"Name": "Kür",
"PostCode": "AZ 5720",
"Location": {
"Latitude": 40.9058,
"Longitude": 46.1852
}
},
{
"Name": "Mahmudlu",
"PostCode": "AZ 5734",
"Location": {
"Latitude": 40.8529,
"Longitude": 46.1602
}
},
{
"Name": "Muxtariyyət",
"PostCode": "AZ 5722",
"Location": {
"Latitude": 40.8187,
"Longitude": 46.1051
}
},
{
"Name": "Plankənd",
"PostCode": "AZ 5723",
"Location": {
"Latitude": 40.8815,
"Longitude": 46.1391
}
},
{
"Name": "Qapanli",
"PostCode": "AZ 5740",
"Location": {
"Latitude": 40.8689,
"Longitude": 46.2153
}
},
{
"Name": "Qaracəmirli",
"PostCode": "AZ 5721",
"Location": {
"Latitude": 40.8501,
"Longitude": 46.2166
}
},
{
"Name": "Qasimallar",
"PostCode": "AZ 5742",
"Location": {
"Latitude": 40.8611,
"Longitude": 46.055
}
},
{
"Name": "Qilincbəyli",
"PostCode": "AZ 5743",
"Location": {
"Latitude": 40.8173,
"Longitude": 46.2212
}
},
{
"Name": "Sabirkənd",
"PostCode": "AZ 5724",
"Location": {
"Latitude": 40.8981,
"Longitude": 45.923
}
},
{
"Name": "Şəmkir",
"PostCode": "AZ 5700",
"Location": {
"Latitude": 40.8297,
"Longitude": 46.0178
}
},
{
"Name": "Şəmkir Vağzal",
"PostCode": "AZ 5725",
"Location": {
"Latitude": 40.8692,
"Longitude": 46.0447
}
},
{
"Name": "Şiştəpə",
"PostCode": "AZ 5726",
"Location": {
"Latitude": 40.846,
"Longitude": 45.9283
}
},
{
"Name": "Tatarli",
"PostCode": "AZ 5741",
"Location": {
"Latitude": 40.8552,
"Longitude": 45.7391
}
},
{
"Name": "Xuluf (Aşaği Keçili)",
"PostCode": "AZ 5735",
"Location": {
"Latitude": 40.8648,
"Longitude": 46.0708
}
},
{
"Name": "Yeni Həyat",
"PostCode": "AZ 5739",
"Location": {
"Latitude": 40.7812,
"Longitude": 46.0957
}
},
{
"Name": "Zəyəm - 3g Muveqqeti",
"PostCode": "AZ 5730",
"Location": {
"Latitude": 40.8648,
"Longitude": 46.0708
}
},
{
"Name": "Zəyəm Cirdaxan",
"PostCode": "AZ 5729",
"Location": {
"Latitude": 40.8845,
"Longitude": 45.8153
}
}
]
}
]
}
]
},
{
"Name": "Samux",
"Code": "52",
"Provinces": [
{
"Communities": [
{
"Places": [
{
"Name": "1 Sayli",
"PostCode": "AZ 5101",
"Location": {
"Latitude": 40.7649,
"Longitude": 46.4087
}
},
{
"Name": "2 Sayli Rş",
"PostCode": "AZ 5102",
"Location": {
"Latitude": 40.7649,
"Longitude": 46.4087
}
},
{
"Name": "Çoban Abdalli",
"PostCode": "AZ 5111",
"Location": {
"Latitude": 40.7522,
"Longitude": 46.4355
}
},
{
"Name": "Əhmədbəyli",
"PostCode": "AZ 5112",
"Location": {
"Latitude": 40.7435,
"Longitude": 46.4711
}
},
{
"Name": "Əliuşaği",
"PostCode": "AZ 5125",
"Location": {
"Latitude": 40.6946,
"Longitude": 46.4747
}
},
{
"Name": "Institut",
"PostCode": "AZ 5114",
"Location": {
"Latitude": 40.7214,
"Longitude": 46.4144
}
},
{
"Name": "Lək",
"PostCode": "AZ 5119",
"Location": {
"Latitude": 40.7936,
"Longitude": 46.4764
}
},
{
"Name": "Poylu",
"PostCode": "AZ 5120",
"Location": {
"Latitude": 41.1393,
"Longitude": 46.272
}
},
{
"Name": "Qarayeri",
"PostCode": "AZ 5116",
"Location": {
"Latitude": 40.7872,
"Longitude": 46.3171
}
},
{
"Name": "Qirmizi Samux",
"PostCode": "AZ 5117",
"Location": {
"Latitude": 40.9397,
"Longitude": 46.3789
}
},
{
"Name": "Qovlarsari",
"PostCode": "AZ 5118",
"Location": {
"Latitude": 40.7864,
"Longitude": 46.3461
}
},
{
"Name": "Samux",
"PostCode": "AZ 5100",
"Location": {
"Latitude": 40.7649,
"Longitude": 46.4087
}
},
{
"Name": "Sariqamiş",
"PostCode": "AZ 5128",
"Location": {
"Latitude": 40.8261,
"Longitude": 46.3354
}
},
{
"Name": "Seyidlər",
"PostCode": "AZ 5121",
"Location": {
"Latitude": 40.8494,
"Longitude": 46.2966
}
},
{
"Name": "Sərkar-2",
"PostCode": "AZ 5129",
"Location": {
"Latitude": 40.8294,
"Longitude": 46.3758
}
},
{
"Name": "Yenikənd",
"PostCode": "AZ 5131",
"Location": {
"Latitude": 40.9247,
"Longitude": 46.3086
}
},
{
"Name": "Yuxari Ağasibəyli",
"PostCode": "AZ 5134",
"Location": {
"Latitude": 40.7555,
"Longitude": 46.5038
}
},
{
"Name": "Zazali",
"PostCode": "AZ 5122",
"Location": {
"Latitude": 40.6957,
"Longitude": 46.5117
}
},
{
"Name": "Ziyadli",
"PostCode": "AZ 5123",
"Location": {
"Latitude": 40.7711,
"Longitude": 46.3644
}
}
]
}
]
}
]
},
{
"Name": "Siyəzən",
"Code": "53",
"Provinces": [
{
"Communities": [
{
"Places": [
{
"Name": "1 Sayli Rş",
"PostCode": "AZ 5301",
"Location": {
"Latitude": 41.0781,
"Longitude": 49.1156
}
},
{
"Name": "Həmyə",
"PostCode": "AZ 5313",
"Location": {
"Latitude": 41.069,
"Longitude": 49.0907
}
},
{
"Name": "Məsrif",
"PostCode": "AZ 5316",
"Location": {
"Latitude": 41.0977,
"Longitude": 48.9578
}
},
{
"Name": "Sədan",
"PostCode": "AZ 5314",
"Location": {
"Latitude": 41.0652,
"Longitude": 49.0391
}
},
{
"Name": "Siyəzən",
"PostCode": "AZ 5300",
"Location": {
"Latitude": 41.0781,
"Longitude": 49.1156
}
},
{
"Name": "Yenikənd",
"PostCode": "AZ 5312",
"Location": {
"Latitude": 41.1642,
"Longitude": 49.0839
}
},
{
"Name": "Zarat",
"PostCode": "AZ 5315",
"Location": {
"Latitude": 40.9491,
"Longitude": 49.2821
}
}
]
}
]
}
]
},
{
"Name": "Sumqayit",
"Code": "54",
"Provinces": [
{
"Communities": [
{
"Places": [
{
"Name": "1 Sayli",
"PostCode": "AZ 5001",
"Location": {
"Latitude": 40.5897,
"Longitude": 49.6686
}
},
{
"Name": "11 Sayli",
"PostCode": "AZ 5011",
"Location": {
"Latitude": 40.5911,
"Longitude": 49.6619
}
},
{
"Name": "3 Sayli",
"PostCode": "AZ 5003",
"Location": {
"Latitude": 40.5897,
"Longitude": 49.6686
}
},
{
"Name": "4 Sayli",
"PostCode": "AZ 5004",
"Location": {
"Latitude": 40.5897,
"Longitude": 49.6686
}
},
{
"Name": "5 Sayli",
"PostCode": "AZ 5005",
"Location": {
"Latitude": 40.5897,
"Longitude": 49.6686
}
},
{
"Name": "6 Sayli",
"PostCode": "AZ 5006",
"Location": {
"Latitude": 40.5897,
"Longitude": 49.6686
}
},
{
"Name": "7 Sayli",
"PostCode": "AZ 5007",
"Location": {
"Latitude": 40.5897,
"Longitude": 49.6686
}
},
{
"Name": "8 Sayli",
"PostCode": "AZ 5008",
"Location": {
"Latitude": 40.5897,
"Longitude": 49.6686
}
},
{
"Name": "9 Sayli",
"PostCode": "AZ 5009",
"Location": {
"Latitude": 40.5897,
"Longitude": 49.6686
}
},
{
"Name": "Corat",
"PostCode": "AZ 5021",
"Location": {
"Latitude": 40.5718,
"Longitude": 49.7051
}
},
{
"Name": "Haci Zeynalabdin",
"PostCode": "AZ 5022",
"Location": {
"Latitude": 40.6233,
"Longitude": 49.5586
}
},
{
"Name": "Sumqayit",
"PostCode": "AZ 5000",
"Location": {
"Latitude": 40.5897,
"Longitude": 49.6686
}
}
]
}
]
}
]
},
{
"Name": "Şuşa",
"Code": "56",
"PostCode": "AZ 5800",
"Provinces": [
{
"PostCode": "AZ 5800",
"Communities": [
{
"Places": [
{
"Name": "Şuşa",
"PostCode": "AZ 5800",
"Location": {
"Latitude": 39.7607,
"Longitude": 46.766
}
}
],
"PostCode": "AZ 5800"
}
]
}
]
},
{
"Name": "Tər-Tər",
"Code": "57",
"Provinces": [
{
"Communities": [
{
"Places": [
{
"Name": "2 Sayli",
"PostCode": "AZ 5902",
"Location": {
"Latitude": 40.4031,
"Longitude": 46.9727
}
},
{
"Name": "Azadqaraqoyunlu",
"PostCode": "AZ 5911",
"Location": {
"Latitude": 40.4228,
"Longitude": 46.9344
}
},
{
"Name": "Bəyimsarov",
"PostCode": "AZ 5912",
"Location": {
"Latitude": 40.4768,
"Longitude": 46.9483
}
},
{
"Name": "Dəmirçilər",
"PostCode": "AZ 5915",
"Location": {
"Latitude": 40.4222,
"Longitude": 46.8984
}
},
{
"Name": "Ələsgərli",
"PostCode": "AZ 5928",
"Location": {
"Latitude": 40.3416,
"Longitude": 46.9785
}
},
{
"Name": "Haciqərvənd",
"PostCode": "AZ 5918",
"Location": {
"Latitude": 40.3694,
"Longitude": 46.9564
}
},
{
"Name": "Qaradağli",
"PostCode": "AZ 5922",
"Location": {
"Latitude": 40.4346,
"Longitude": 46.9474
}
},
{
"Name": "Qarağaci",
"PostCode": "AZ 5923",
"Location": {
"Latitude": 40.4637,
"Longitude": 47.1475
}
},
{
"Name": "Qaynaq",
"PostCode": "AZ 5924",
"Location": {
"Latitude": 40.264,
"Longitude": 47.0136
}
},
{
"Name": "Sarov",
"PostCode": "AZ 5926",
"Location": {
"Latitude": 40.4768,
"Longitude": 46.9483
}
},
{
"Name": "Seydimli",
"PostCode": "AZ 5927",
"Location": {
"Latitude": 40.3706,
"Longitude": 46.9324
}
},
{
"Name": "Səhlabad",
"PostCode": "AZ 5929",
"Location": {
"Latitude": 40.3919,
"Longitude": 46.9946
}
},
{
"Name": "Tər-Tər",
"PostCode": "AZ 5900",
"Location": {
"Latitude": 40.4031,
"Longitude": 46.9727
}
}
]
}
]
}
]
},
{
"Name": "Tovuz",
"Code": "58",
"Provinces": [
{
"Communities": [
{
"Places": [
{
"Name": "1 Sayli",
"PostCode": "AZ 6001",
"Location": {
"Latitude": 40.9925,
"Longitude": 45.6284
}
},
{
"Name": "2 Sayli",
"PostCode": "AZ 6002",
"Location": {
"Latitude": 40.9925,
"Longitude": 45.6284
}
},
{
"Name": "Abulbəyli",
"PostCode": "AZ 6011",
"Location": {
"Latitude": 40.9961,
"Longitude": 45.607
}
},
{
"Name": "Alakol",
"PostCode": "AZ 6012",
"Location": {
"Latitude": 40.9068,
"Longitude": 45.7703
}
},
{
"Name": "Aşaği Öysüzlü",
"PostCode": "AZ 6016",
"Location": {
"Latitude": 40.9727,
"Longitude": 45.5909
}
},
{
"Name": "Aşaği Quşçu",
"PostCode": "AZ 6015",
"Location": {
"Latitude": 40.9571,
"Longitude": 45.6804
}
},
{
"Name": "Azafli",
"PostCode": "AZ 6017",
"Location": {
"Latitude": 40.9655,
"Longitude": 45.6572
}
},
{
"Name": "Bozalqanli",
"PostCode": "AZ 6018",
"Location": {
"Latitude": 40.9948,
"Longitude": 45.6376
}
},
{
"Name": "Dondar Quşcu",
"PostCode": "AZ 6022",
"Location": {
"Latitude": 40.9539,
"Longitude": 45.6194
}
},
{
"Name": "Dönük Qirixli",
"PostCode": "AZ 6023",
"Location": {
"Latitude": 40.9632,
"Longitude": 45.6033
}
},
{
"Name": "Düz Cirdaxan",
"PostCode": "AZ 6024",
"Location": {
"Latitude": 41.0184,
"Longitude": 45.6091
}
},
{
"Name": "Düz Qirixli",
"PostCode": "AZ 6025",
"Location": {
"Latitude": 40.9632,
"Longitude": 45.6033
}
},
{
"Name": "Əlibəyli",
"PostCode": "AZ 6026",
"Location": {
"Latitude": 40.94,
"Longitude": 45.489
}
},
{
"Name": "Əlimərdanli",
"PostCode": "AZ 6027",
"Location": {
"Latitude": 41.0398,
"Longitude": 45.673
}
},
{
"Name": "Əsrik Cirdaxan",
"PostCode": "AZ 6028",
"Location": {
"Latitude": 40.864,
"Longitude": 45.6261
}
},
{
"Name": "Əyyublu",
"PostCode": "AZ 6014",
"Location": {
"Latitude": 40.9655,
"Longitude": 45.6572
}
},
{
"Name": "Ibrahimhacili",
"PostCode": "AZ 6041",
"Location": {
"Latitude": 40.8966,
"Longitude": 45.7471
}
},
{
"Name": "Mulkulu",
"PostCode": "AZ 6044",
"Location": {
"Latitude": 40.9458,
"Longitude": 45.5029
}
},
{
"Name": "Qaraxanli",
"PostCode": "AZ 6030",
"Location": {
"Latitude": 41.0436,
"Longitude": 45.6553
}
},
{
"Name": "Qovlar",
"PostCode": "AZ 6035",
"Location": {
"Latitude": 40.946,
"Longitude": 45.7317
}
},
{
"Name": "Tovuz",
"PostCode": "AZ 6000",
"Location": {
"Latitude": 40.9925,
"Longitude": 45.6284
}
},
{
"Name": "Xatinli",
"PostCode": "AZ 6033",
"Location": {
"Latitude": 41.0439,
"Longitude": 45.6478
}
},
{
"Name": "Yanixli",
"PostCode": "AZ 6039",
"Location": {
"Latitude": 41.0112,
"Longitude": 45.6783
}
},
{
"Name": "Yuxari Öysüzlü",
"PostCode": "AZ 6040",
"Location": {
"Latitude": 40.9455,
"Longitude": 45.546
}
}
]
}
]
}
]
},
{
"Name": "Ucar",
"Code": "59",
"Provinces": [
{
"Communities": [
{
"Places": [
{
"Name": "2 Sayli",
"PostCode": "AZ 6102",
"Location": {
"Latitude": 40.519,
"Longitude": 47.6542
}
},
{
"Name": "Alpout",
"PostCode": "AZ 6112",
"Location": {
"Latitude": 40.4579,
"Longitude": 47.6046
}
},
{
"Name": "Bərgüşad",
"PostCode": "AZ 6113",
"Location": {
"Latitude": 40.3956,
"Longitude": 47.8464
}
},
{
"Name": "Boyat",
"PostCode": "AZ 6115",
"Location": {
"Latitude": 40.393,
"Longitude": 47.7495
}
},
{
"Name": "Küçəkənd",
"PostCode": "AZ 6114",
"Location": {
"Latitude": 40.4756,
"Longitude": 47.8
}
},
{
"Name": "Lək",
"PostCode": "AZ 6121",
"Location": {
"Latitude": 40.3759,
"Longitude": 47.6629
}
},
{
"Name": "Məlikballi",
"PostCode": "AZ 6126",
"Location": {
"Latitude": 40.5472,
"Longitude": 47.5436
}
},
{
"Name": "Müsüslü",
"PostCode": "AZ 6125",
"Location": {
"Latitude": 40.4539,
"Longitude": 47.9073
}
},
{
"Name": "Qarabörk",
"PostCode": "AZ 6116",
"Location": {
"Latitude": 40.485,
"Longitude": 47.6627
}
},
{
"Name": "Qaracalli",
"PostCode": "AZ 6117",
"Location": {
"Latitude": 40.4416,
"Longitude": 47.8514
}
},
{
"Name": "Qaradağli",
"PostCode": "AZ 6118",
"Location": {
"Latitude": 40.4905,
"Longitude": 47.5723
}
},
{
"Name": "Qaziqumlaq",
"PostCode": "AZ 6111",
"Location": {
"Latitude": 40.5364,
"Longitude": 47.5244
}
},
{
"Name": "Qəzyan",
"PostCode": "AZ 6119",
"Location": {
"Latitude": 40.4595,
"Longitude": 47.7014
}
},
{
"Name": "Qulabənd",
"PostCode": "AZ 6120",
"Location": {
"Latitude": 40.4283,
"Longitude": 47.6914
}
},
{
"Name": "Ramal",
"PostCode": "AZ 6122",
"Location": {
"Latitude": 40.4987,
"Longitude": 47.4925
}
},
{
"Name": "Şahliq",
"PostCode": "AZ 6128",
"Location": {
"Latitude": 40.4692,
"Longitude": 47.4907
}
},
{
"Name": "Təzə Şilyan",
"PostCode": "AZ 6123",
"Location": {
"Latitude": 40.4078,
"Longitude": 47.9383
}
},
{
"Name": "Ucar",
"PostCode": "AZ 6100",
"Location": {
"Latitude": 40.519,
"Longitude": 47.6542
}
},
{
"Name": "Xələc",
"PostCode": "AZ 6127",
"Location": {
"Latitude": 40.3426,
"Longitude": 47.683
}
},
{
"Name": "Yuxari Şilyan",
"PostCode": "AZ 6124",
"Location": {
"Latitude": 40.3312,
"Longitude": 47.8125
}
}
]
}
]
}
]
},
{
"Name": "Xaçmaz",
"Code": "60",
"Provinces": [
{
"Communities": [
{
"Places": [
{
"Name": "2 Sayli",
"PostCode": "AZ 2702",
"Location": {
"Latitude": 41.4643,
"Longitude": 48.8057
}
},
{
"Name": "3 Sayli",
"PostCode": "AZ 2703",
"Location": {
"Latitude": 41.4643,
"Longitude": 48.8057
}
},
{
"Name": "4 Sayli",
"PostCode": "AZ 2704",
"Location": {
"Latitude": 41.4643,
"Longitude": 48.8057
}
},
{
"Name": "Alekseevka",
"PostCode": "AZ 2711",
"Location": {
"Latitude": 41.4944,
"Longitude": 48.6669
}
},
{
"Name": "Çarxi",
"PostCode": "AZ 2712",
"Location": {
"Latitude": 41.392,
"Longitude": 48.8696
}
},
{
"Name": "Dədəli",
"PostCode": "AZ 2713",
"Location": {
"Latitude": 41.575,
"Longitude": 48.7663
}
},
{
"Name": "Haciəlibəy",
"PostCode": "AZ 2714",
"Location": {
"Latitude": 41.4072,
"Longitude": 48.6992
}
},
{
"Name": "Həsənqala",
"PostCode": "AZ 2715",
"Location": {
"Latitude": 41.5805,
"Longitude": 48.6829
}
},
{
"Name": "Hülövlü",
"PostCode": "AZ 2716",
"Location": {
"Latitude": 41.404,
"Longitude": 48.8101
}
},
{
"Name": "Kənd Xudat",
"PostCode": "AZ 2718",
"Location": {
"Latitude": 41.4841,
"Longitude": 48.7438
}
},
{
"Name": "Ləcət",
"PostCode": "AZ 2722",
"Location": {
"Latitude": 41.6962,
"Longitude": 48.6256
}
},
{
"Name": "Müşkür",
"PostCode": "AZ 2727",
"Location": {
"Latitude": 41.4922,
"Longitude": 48.7807
}
},
{
"Name": "Muxtadir",
"PostCode": "AZ 2723",
"Location": {
"Latitude": 41.5898,
"Longitude": 48.7356
}
},
{
"Name": "Nabran",
"PostCode": "AZ 2724",
"Location": {
"Latitude": 41.7609,
"Longitude": 48.6926
}
},
{
"Name": "Nərəcan",
"PostCode": "AZ 2725",
"Location": {
"Latitude": 41.5355,
"Longitude": 48.746
}
},
{
"Name": "Niyazoba",
"PostCode": "AZ 2726",
"Location": {
"Latitude": 41.5174,
"Longitude": 48.915
}
},
{
"Name": "Pirquluoba",
"PostCode": "AZ 2728",
"Location": {
"Latitude": 41.5551,
"Longitude": 48.6597
}
},
{
"Name": "Qaraçaycek",
"PostCode": "AZ 2719",
"Location": {
"Latitude": 41.3887,
"Longitude": 48.7733
}
},
{
"Name": "Qimil Qişlaq",
"PostCode": "AZ 2720",
"Location": {
"Latitude": 41.5898,
"Longitude": 48.7356
}
},
{
"Name": "Qusarçay",
"PostCode": "AZ 2721",
"Location": {
"Latitude": 41.5716,
"Longitude": 48.7297
}
},
{
"Name": "Uzun Oba",
"PostCode": "AZ 2729",
"Location": {
"Latitude": 41.5898,
"Longitude": 48.7356
}
},
{
"Name": "Xaçmaz",
"PostCode": "AZ 2700",
"Location": {
"Latitude": 41.4643,
"Longitude": 48.8057
}
},
{
"Name": "Xanoba   Gomruk",
"PostCode": "AZ 2734",
"Location": {
"Latitude": 41.5754,
"Longitude": 48.6449
}
},
{
"Name": "Xudat",
"PostCode": "AZ 2717",
"Location": {
"Latitude": 41.6305,
"Longitude": 48.6816
}
},
{
"Name": "Yalama",
"PostCode": "AZ 2730",
"Location": {
"Latitude": 41.7594,
"Longitude": 48.5798
}
},
{
"Name": "Yeni Həyat",
"PostCode": "AZ 2731",
"Location": {
"Latitude": 41.5439,
"Longitude": 48.6116
}
},
{
"Name": "Yergüc",
"PostCode": "AZ 2732",
"Location": {
"Latitude": 41.4229,
"Longitude": 48.7434
}
}
]
}
]
}
]
},
{
"Name": "Xankəndi",
"Code": "61",
"PostCode": "AZ 2600",
"Provinces": [
{
"PostCode": "AZ 2600",
"Communities": [
{
"Places": [
{
"Name": "Xankəndi",
"PostCode": "AZ 2600",
"Location": {
"Latitude": 39.8177,
"Longitude": 46.7528
}
}
],
"PostCode": "AZ 2600"
}
]
}
]
},
{
"Name": "Xizi",
"Code": "63",
"Provinces": [
{
"Communities": [
{
"Places": [
{
"Name": "Giləzi",
"PostCode": "AZ 8011",
"Location": {
"Latitude": 40.8739,
"Longitude": 49.3438
}
},
{
"Name": "Xizi",
"PostCode": "AZ 8000",
"Location": {
"Latitude": 40.9085,
"Longitude": 49.0748
}
}
]
}
]
}
]
},
{
"Name": "Xocali",
"Code": "64",
"PostCode": "AZ 2900",
"Provinces": [
{
"PostCode": "AZ 2900",
"Communities": [
{
"Places": [
{
"Name": "Xocali",
"PostCode": "AZ 2900",
"Location": {
"Latitude": 39.913,
"Longitude": 46.7903
}
}
],
"PostCode": "AZ 2900"
}
]
}
]
},
{
"Name": "Xocavənd",
"Code": "65",
"PostCode": "AZ 2800",
"Provinces": [
{
"PostCode": "AZ 2800",
"Communities": [
{
"Places": [
{
"Name": "Xocavənd",
"PostCode": "AZ 2800",
"Location": {
"Latitude": 39.795,
"Longitude": 47.1117
}
}
],
"PostCode": "AZ 2800"
}
]
}
]
},
{
"Name": "Yardimli",
"Code": "66",
"Provinces": [
{
"Communities": [
{
"Places": [
{
"Name": "Arus",
"PostCode": "AZ 6512",
"Location": {
"Latitude": 38.9504,
"Longitude": 48.3245
}
},
{
"Name": "Avaş",
"PostCode": "AZ 6510",
"Location": {
"Latitude": 38.9037,
"Longitude": 48.0944
}
},
{
"Name": "Çayüzü",
"PostCode": "AZ 6515",
"Location": {
"Latitude": 38.9238,
"Longitude": 48.2325
}
},
{
"Name": "Köryədi",
"PostCode": "AZ 6518",
"Location": {
"Latitude": 38.9174,
"Longitude": 48.2787
}
},
{
"Name": "Şəfəqli",
"PostCode": "AZ 6523",
"Location": {
"Latitude": 38.9003,
"Longitude": 48.1591
}
},
{
"Name": "Vərgədüz",
"PostCode": "AZ 6526",
"Location": {
"Latitude": 38.8989,
"Longitude": 48.3175
}
},
{
"Name": "Yardimli",
"PostCode": "AZ 6500",
"Location": {
"Latitude": 38.9077,
"Longitude": 48.2405
}
}
]
}
]
}
]
},
{
"Name": "Yevlax",
"Code": "68",
"Provinces": [
{
"Communities": [
{
"Places": [
{
"Name": "1 Sayli",
"PostCode": "AZ 6601",
"Location": {
"Latitude": 40.6183,
"Longitude": 47.1501
}
},
{
"Name": "2 Sayli",
"PostCode": "AZ 6602",
"Location": {
"Latitude": 40.6183,
"Longitude": 47.1501
}
},
{
"Name": "3 Sayli",
"PostCode": "AZ 6603",
"Location": {
"Latitude": 40.6183,
"Longitude": 47.1501
}
},
{
"Name": "4 Sayli",
"PostCode": "AZ 6604",
"Location": {
"Latitude": 40.6183,
"Longitude": 47.1501
}
},
{
"Name": "5 Sayli",
"PostCode": "AZ 6605",
"Location": {
"Latitude": 40.6183,
"Longitude": 47.1501
}
},
{
"Name": "Aran 1",
"PostCode": "AZ 6611",
"Location": {
"Latitude": 40.7182,
"Longitude": 47.1452
}
},
{
"Name": "Aran 2",
"PostCode": "AZ 6612",
"Location": {
"Latitude": 40.7182,
"Longitude": 47.1452
}
},
{
"Name": "Aşaği Bucaq",
"PostCode": "AZ 6613",
"Location": {
"Latitude": 40.7215,
"Longitude": 47.2095
}
},
{
"Name": "Gülövşə",
"PostCode": "AZ 6634",
"Location": {
"Latitude": 40.7436,
"Longitude": 47.1838
}
},
{
"Name": "Haciselli",
"PostCode": "AZ 6617",
"Location": {
"Latitude": 40.7178,
"Longitude": 47.1217
}
},
{
"Name": "Hürüuşaği",
"PostCode": "AZ 6616",
"Location": {
"Latitude": 40.7204,
"Longitude": 47.0206
}
},
{
"Name": "Kövər",
"PostCode": "AZ 6621",
"Location": {
"Latitude": 40.5046,
"Longitude": 47.1132
}
},
{
"Name": "Malbinəsi",
"PostCode": "AZ 6625",
"Location": {
"Latitude": 40.5048,
"Longitude": 47.0824
}
},
{
"Name": "Meyvəli",
"PostCode": "AZ 6626",
"Location": {
"Latitude": 40.7562,
"Longitude": 47.2726
}
},
{
"Name": "Nemətabad",
"PostCode": "AZ 6627",
"Location": {
"Latitude": 40.61,
"Longitude": 47.0403
}
},
{
"Name": "Nərimanabad",
"PostCode": "AZ 6614",
"Location": {
"Latitude": 40.7182,
"Longitude": 47.1452
}
},
{
"Name": "Nurallar",
"PostCode": "AZ 6629",
"Location": {
"Latitude": 40.4771,
"Longitude": 47.0541
}
},
{
"Name": "Qaramanli",
"PostCode": "AZ 6622",
"Location": {
"Latitude": 40.4814,
"Longitude": 46.9934
}
},
{
"Name": "Qaraməmmədli",
"PostCode": "AZ 6623",
"Location": {
"Latitude": 40.4771,
"Longitude": 47.0541
}
},
{
"Name": "Qoyunbinəsi",
"PostCode": "AZ 6624",
"Location": {
"Latitude": 40.513,
"Longitude": 47.0586
}
},
{
"Name": "Salahli",
"PostCode": "AZ 6631",
"Location": {
"Latitude": 40.689,
"Longitude": 47.0229
}
},
{
"Name": "Səmədabad",
"PostCode": "AZ 6632",
"Location": {
"Latitude": 40.6826,
"Longitude": 47.133
}
},
{
"Name": "Tanriqullar",
"PostCode": "AZ 6633",
"Location": {
"Latitude": 40.6826,
"Longitude": 47.133
}
},
{
"Name": "Xaldan",
"PostCode": "AZ 6619",
"Location": {
"Latitude": 40.7131,
"Longitude": 47.2291
}
},
{
"Name": "Xanabad",
"PostCode": "AZ 6620",
"Location": {
"Latitude": 39.97,
"Longitude": 46.8186
}
},
{
"Name": "Yevlax",
"PostCode": "AZ 6600",
"Location": {
"Latitude": 40.6183,
"Longitude": 47.1501
}
},
{
"Name": "Yuxari Qarxun",
"PostCode": "AZ 6636",
"Location": {
"Latitude": 40.6152,
"Longitude": 47.1924
}
}
]
}
]
}
]
},
{
"Name": "Zəngilan",
"Code": "69",
"PostCode": "AZ 6400",
"Provinces": [
{
"PostCode": "AZ 6400",
"Communities": [
{
"Places": [
{
"Name": "Zəngilan",
"PostCode": "AZ 6400",
"Location": {
"Latitude": 39.0837,
"Longitude": 46.6599
}
}
],
"PostCode": "AZ 6400"
}
]
}
]
},
{
"Name": "Zaqatala",
"Code": "70",
"Provinces": [
{
"Communities": [
{
"Places": [
{
"Name": "1sayli",
"PostCode": "AZ 6201",
"Location": {
"Latitude": 41.6316,
"Longitude": 46.6448
}
},
{
"Name": "2 Sayli",
"PostCode": "AZ 6202",
"Location": {
"Latitude": 41.6316,
"Longitude": 46.6448
}
},
{
"Name": "3 Sayli",
"PostCode": "AZ 6203",
"Location": {
"Latitude": 41.6316,
"Longitude": 46.6448
}
},
{
"Name": "4 Sayli",
"PostCode": "AZ 6204",
"Location": {
"Latitude": 41.6316,
"Longitude": 46.6448
}
},
{
"Name": "5 Sayli",
"PostCode": "AZ 6205",
"Location": {
"Latitude": 41.6316,
"Longitude": 46.6448
}
},
{
"Name": "6 Sayli",
"PostCode": "AZ 6206",
"Location": {
"Latitude": 41.6316,
"Longitude": 46.6448
}
},
{
"Name": "Aşaği Tala",
"PostCode": "AZ 6212",
"Location": {
"Latitude": 41.6026,
"Longitude": 46.6521
}
},
{
"Name": "Bəhmədli",
"PostCode": "AZ 6213",
"Location": {
"Latitude": 41.5671,
"Longitude": 46.6177
}
},
{
"Name": "Car",
"PostCode": "AZ 6214",
"Location": {
"Latitude": 41.6629,
"Longitude": 46.6776
}
},
{
"Name": "Çobankol",
"PostCode": "AZ 6215",
"Location": {
"Latitude": 41.5364,
"Longitude": 46.7022
}
},
{
"Name": "Dağli",
"PostCode": "AZ 6220",
"Location": {
"Latitude": 41.5478,
"Longitude": 46.6132
}
},
{
"Name": "Danaçi",
"PostCode": "AZ 6216",
"Location": {
"Latitude": 41.5506,
"Longitude": 46.4217
}
},
{
"Name": "Əliabad",
"PostCode": "AZ 6218",
"Location": {
"Latitude": 41.4829,
"Longitude": 46.6348
}
},
{
"Name": "Əliabad-1",
"PostCode": "AZ 6219",
"Location": {
"Latitude": 41.5671,
"Longitude": 46.6177
}
},
{
"Name": "Göyəm",
"PostCode": "AZ 6222",
"Location": {
"Latitude": 41.62,
"Longitude": 46.6053
}
},
{
"Name": "Gözbarax",
"PostCode": "AZ 6223",
"Location": {
"Latitude": 41.5218,
"Longitude": 46.7416
}
},
{
"Name": "Lahic",
"PostCode": "AZ 6240",
"Location": {
"Latitude": 41.4315,
"Longitude": 46.6514
}
},
{
"Name": "Makov",
"PostCode": "AZ 6229",
"Location": {
"Latitude": 41.5927,
"Longitude": 46.4997
}
},
{
"Name": "Mazix",
"PostCode": "AZ 6230",
"Location": {
"Latitude": 41.6583,
"Longitude": 46.5816
}
},
{
"Name": "Mosul",
"PostCode": "AZ 6231",
"Location": {
"Latitude": 41.4448,
"Longitude": 46.5722
}
},
{
"Name": "Muğanli",
"PostCode": "AZ 6232",
"Location": {
"Latitude": 41.4752,
"Longitude": 46.4887
}
},
{
"Name": "Muxax",
"PostCode": "AZ 6233",
"Location": {
"Latitude": 41.5707,
"Longitude": 46.7067
}
},
{
"Name": "Qandax",
"PostCode": "AZ 6225",
"Location": {
"Latitude": 41.4755,
"Longitude": 46.5413
}
},
{
"Name": "Qimir",
"PostCode": "AZ 6227",
"Location": {
"Latitude": 41.5293,
"Longitude": 46.6778
}
},
{
"Name": "Üçünsü Tala",
"PostCode": "AZ 6217",
"Location": {
"Latitude": 41.5671,
"Longitude": 46.6177
}
},
{
"Name": "Yengiyan",
"PostCode": "AZ 6237",
"Location": {
"Latitude": 41.4646,
"Longitude": 46.5734
}
},
{
"Name": "Yeni Suvağil",
"PostCode": "AZ 6236",
"Location": {
"Latitude": 41.4817,
"Longitude": 46.7059
}
},
{
"Name": "Yuxari Çardaxlar",
"PostCode": "AZ 6238",
"Location": {
"Latitude": 41.5889,
"Longitude": 46.7552
}
},
{
"Name": "Yuxari Tala",
"PostCode": "AZ 6239",
"Location": {
"Latitude": 41.622,
"Longitude": 46.6635
}
},
{
"Name": "Zaqatala",
"PostCode": "AZ 6200",
"Location": {
"Latitude": 41.6316,
"Longitude": 46.6448
}
}
]
}
]
}
]
},
{
"Name": "Zərdab",
"Code": "71",
"Provinces": [
{
"Communities": [
{
"Places": [
{
"Name": "1 Sayli",
"PostCode": "AZ 6301",
"Location": {
"Latitude": 40.2182,
"Longitude": 47.7103
}
},
{
"Name": "Biçaqçi",
"PostCode": "AZ 6312",
"Location": {
"Latitude": 40.3026,
"Longitude": 47.4724
}
},
{
"Name": "Çalli",
"PostCode": "AZ 6313",
"Location": {
"Latitude": 40.3168,
"Longitude": 47.6876
}
},
{
"Name": "Əlvənd",
"PostCode": "AZ 6322",
"Location": {
"Latitude": 40.1078,
"Longitude": 47.8747
}
},
{
"Name": "Gəlmə",
"PostCode": "AZ 6315",
"Location": {
"Latitude": 40.218,
"Longitude": 47.6885
}
},
{
"Name": "Məlikli",
"PostCode": "AZ 6319",
"Location": {
"Latitude": 40.2088,
"Longitude": 47.5301
}
},
{
"Name": "Məmmədqasimli",
"PostCode": "AZ 6321",
"Location": {
"Latitude": 40.2022,
"Longitude": 47.5915
}
},
{
"Name": "Pərvanli",
"PostCode": "AZ 6323",
"Location": {
"Latitude": 40.1889,
"Longitude": 47.5765
}
},
{
"Name": "Qaravəlli",
"PostCode": "AZ 6317",
"Location": {
"Latitude": 40.1696,
"Longitude": 47.7802
}
},
{
"Name": "Qoruqbaği",
"PostCode": "AZ 6316",
"Location": {
"Latitude": 40.1904,
"Longitude": 47.548
}
},
{
"Name": "Səfdəxal",
"PostCode": "AZ 6324",
"Location": {
"Latitude": 40.1772,
"Longitude": 47.6744
}
},
{
"Name": "Təzəkənd",
"PostCode": "AZ 6328",
"Location": {
"Latitude": 40.2045,
"Longitude": 47.7214
}
},
{
"Name": "Yarməmmədbaği",
"PostCode": "AZ 6325",
"Location": {
"Latitude": 40.1826,
"Longitude": 47.6079
}
},
{
"Name": "Zərdab",
"PostCode": "AZ 6300",
"Location": {
"Latitude": 40.2182,
"Longitude": 47.7103
}
}
]
}
]
}
]
}
]