[
{
"Name": "Acre",
"Code": "01",
"Provinces": [
{
"Name": "Acrelândia",
"Code": "1200013",
"PostCode": "69945-000",
"Communities": [
{
"Places": [
{
"Name": "Acrelândia",
"PostCode": "69945-000",
"Location": {
"Latitude": -9.9805,
"Longitude": -66.8439
}
}
],
"PostCode": "69945-000"
}
]
},
{
"Name": "Assis Brasil",
"Code": "1200054",
"PostCode": "69935-000",
"Communities": [
{
"Places": [
{
"Name": "Assis Brasil",
"PostCode": "69935-000",
"Location": {
"Latitude": -10.8833,
"Longitude": -70.0131
}
}
],
"PostCode": "69935-000"
}
]
},
{
"Name": "Brasiléia",
"Code": "1200104",
"PostCode": "69932-000",
"Communities": [
{
"Places": [
{
"Name": "Brasiléia",
"PostCode": "69932-000",
"Location": {
"Latitude": -10.7677,
"Longitude": -69.0114
}
}
],
"PostCode": "69932-000"
}
]
},
{
"Name": "Bujari",
"Code": "1200138",
"PostCode": "69923-000",
"Communities": [
{
"Places": [
{
"Name": "Bujari",
"PostCode": "69923-000",
"Location": {
"Latitude": -9.5786,
"Longitude": -68.172
}
}
],
"PostCode": "69923-000"
}
]
},
{
"Name": "Capixaba",
"Code": "1200179",
"PostCode": "69922-000",
"Communities": [
{
"Places": [
{
"Name": "Capixaba",
"PostCode": "69922-000",
"Location": {
"Latitude": -10.4878,
"Longitude": -67.8483
}
}
],
"PostCode": "69922-000"
}
]
},
{
"Name": "Cruzeiro do Sul",
"Code": "1200203",
"PostCode": "69980-000",
"Communities": [
{
"Places": [
{
"Name": "Cruzeiro do Sul",
"PostCode": "69980-000",
"Location": {
"Latitude": -8.0159,
"Longitude": -72.9298
}
}
],
"PostCode": "69980-000"
}
]
},
{
"Name": "Epitaciolândia",
"Code": "1200252",
"PostCode": "69934-000",
"Communities": [
{
"Places": [
{
"Name": "Epitaciolândia",
"PostCode": "69934-000",
"Location": {
"Latitude": -10.9354,
"Longitude": -68.4441
}
}
],
"PostCode": "69934-000"
}
]
},
{
"Name": "Feijó",
"Code": "1200302",
"PostCode": "69960-000",
"Communities": [
{
"Places": [
{
"Name": "Feijó",
"PostCode": "69960-000",
"Location": {
"Latitude": -8.905,
"Longitude": -70.9149
}
}
],
"PostCode": "69960-000"
}
]
},
{
"Name": "Jordão",
"Code": "1200328",
"PostCode": "69975-000",
"Communities": [
{
"Places": [
{
"Name": "Jordão",
"PostCode": "69975-000",
"Location": {
"Latitude": -9.0917,
"Longitude": -71.8407
}
}
],
"PostCode": "69975-000"
}
]
},
{
"Name": "Mâncio Lima",
"Code": "1200336",
"PostCode": "69990-000",
"Communities": [
{
"Places": [
{
"Name": "Mâncio Lima",
"PostCode": "69990-000",
"Location": {
"Latitude": -7.5396,
"Longitude": -73.4583
}
}
],
"PostCode": "69990-000"
}
]
},
{
"Name": "Manoel Urbano",
"Code": "1200344",
"PostCode": "69950-000",
"Communities": [
{
"Places": [
{
"Name": "Manoel Urbano",
"PostCode": "69950-000",
"Location": {
"Latitude": -9.4895,
"Longitude": -70.0124
}
}
],
"PostCode": "69950-000"
}
]
},
{
"Name": "Marechal Thaumaturgo",
"Code": "1200351",
"PostCode": "69983-000",
"Communities": [
{
"Places": [
{
"Name": "Marechal Thaumaturgo",
"PostCode": "69983-000",
"Location": {
"Latitude": -9.1899,
"Longitude": -72.5685
}
}
],
"PostCode": "69983-000"
}
]
},
{
"Name": "Plácido de Castro",
"Code": "1200385",
"PostCode": "69928-000",
"Communities": [
{
"Places": [
{
"Name": "Plácido de Castro",
"PostCode": "69928-000",
"Location": {
"Latitude": -10.2943,
"Longitude": -67.2682
}
}
],
"PostCode": "69928-000"
}
]
},
{
"Name": "Porto Walter",
"Code": "1200393",
"PostCode": "69982-000",
"Communities": [
{
"Places": [
{
"Name": "Porto Walter",
"PostCode": "69982-000",
"Location": {
"Latitude": -8.5247,
"Longitude": -72.8207
}
}
],
"PostCode": "69982-000"
}
]
},
{
"Name": "Rio Branco",
"Code": "1200401",
"PostCode": "69900-000",
"Communities": [
{
"Places": [
{
"Name": "Rio Branco",
"PostCode": "69900-000",
"Location": {
"Latitude": -10.0699,
"Longitude": -68.1553
}
}
],
"PostCode": "69900-000"
}
]
},
{
"Name": "Rodrigues Alves",
"Code": "1200427",
"PostCode": "69985-000",
"Communities": [
{
"Places": [
{
"Name": "Rodrigues Alves",
"PostCode": "69985-000",
"Location": {
"Latitude": -7.8529,
"Longitude": -73.2361
}
}
],
"PostCode": "69985-000"
}
]
},
{
"Name": "Santa Rosa do Purus",
"Code": "1200435",
"PostCode": "69955-000",
"Communities": [
{
"Places": [
{
"Name": "Santa Rosa do Purus",
"PostCode": "69955-000",
"Location": {
"Latitude": -9.4773,
"Longitude": -70.3903
}
}
],
"PostCode": "69955-000"
}
]
},
{
"Name": "Senador Guiomard",
"Code": "1200450",
"PostCode": "69925-000",
"Communities": [
{
"Places": [
{
"Name": "Senador Guiomard",
"PostCode": "69925-000",
"Location": {
"Latitude": -9.9408,
"Longitude": -67.3931
}
}
],
"PostCode": "69925-000"
}
]
},
{
"Name": "Sena Madureira",
"Code": "1200500",
"PostCode": "69940-000",
"Communities": [
{
"Places": [
{
"Name": "Sena Madureira",
"PostCode": "69940-000",
"Location": {
"Latitude": -10.0357,
"Longitude": -69.5497
}
}
],
"PostCode": "69940-000"
}
]
},
{
"Name": "Tarauacá",
"Code": "1200609",
"PostCode": "69970-000",
"Communities": [
{
"Places": [
{
"Name": "Tarauacá",
"PostCode": "69970-000",
"Location": {
"Latitude": -8.6552,
"Longitude": -71.4234
}
}
],
"PostCode": "69970-000"
}
]
},
{
"Name": "Xapuri",
"Code": "1200708",
"PostCode": "69930-000",
"Communities": [
{
"Places": [
{
"Name": "Xapuri",
"PostCode": "69930-000",
"Location": {
"Latitude": -10.5966,
"Longitude": -68.6489
}
}
],
"PostCode": "69930-000"
}
]
},
{
"Name": "Porto Acre",
"Code": "1200807",
"PostCode": "69921-000",
"Communities": [
{
"Places": [
{
"Name": "Porto Acre",
"PostCode": "69921-000",
"Location": {
"Latitude": -9.6504,
"Longitude": -67.7773
}
}
],
"PostCode": "69921-000"
}
]
}
]
},
{
"Name": "Alagoas",
"Code": "02",
"Provinces": [
{
"Name": "Água Branca",
"Code": "2700102",
"PostCode": "57490-000",
"Communities": [
{
"Places": [
{
"Name": "Água Branca",
"PostCode": "57490-000",
"Location": {
"Latitude": -9.2699,
"Longitude": -37.9192
}
}
],
"PostCode": "57490-000"
}
]
},
{
"Name": "Anadia",
"Code": "2700201",
"PostCode": "57660-000",
"Communities": [
{
"Places": [
{
"Name": "Anadia",
"PostCode": "57660-000",
"Location": {
"Latitude": -9.6749,
"Longitude": -36.3379
}
}
],
"PostCode": "57660-000"
}
]
},
{
"Name": "Arapiraca",
"Code": "2700300",
"PostCode": "57300-000",
"Communities": [
{
"Places": [
{
"Name": "Arapiraca",
"PostCode": "57300-000",
"Location": {
"Latitude": -9.7438,
"Longitude": -36.5931
}
}
],
"PostCode": "57300-000"
}
]
},
{
"Name": "Atalaia",
"Code": "2700409",
"PostCode": "57690-000",
"Communities": [
{
"Places": [
{
"Name": "Atalaia",
"PostCode": "57690-000",
"Location": {
"Latitude": -9.5298,
"Longitude": -36.0746
}
}
],
"PostCode": "57690-000"
}
]
},
{
"Name": "Barra de Santo Antônio",
"Code": "2700508",
"PostCode": "57925-000",
"Communities": [
{
"Places": [
{
"Name": "Barra de Santo Antônio",
"PostCode": "57925-000",
"Location": {
"Latitude": -9.3975,
"Longitude": -35.5654
}
}
],
"PostCode": "57925-000"
}
]
},
{
"Name": "Barra de São Miguel",
"Code": "2700607",
"PostCode": "57180-000",
"Communities": [
{
"Places": [
{
"Name": "Barra de São Miguel",
"PostCode": "57180-000",
"Location": {
"Latitude": -9.8123,
"Longitude": -35.9609
}
}
],
"PostCode": "57180-000"
}
]
},
{
"Name": "Batalha",
"Code": "2700706",
"PostCode": "57420-000",
"Communities": [
{
"Places": [
{
"Name": "Batalha",
"PostCode": "57420-000",
"Location": {
"Latitude": -9.7326,
"Longitude": -37.0888
}
}
],
"PostCode": "57420-000"
}
]
},
{
"Name": "Belém",
"Code": "2700805",
"PostCode": "57630-000",
"Communities": [
{
"Places": [
{
"Name": "Belém",
"PostCode": "57630-000",
"Location": {
"Latitude": -9.5442,
"Longitude": -36.502
}
}
],
"PostCode": "57630-000"
}
]
},
{
"Name": "Belo Monte",
"Code": "2700904",
"PostCode": "57435-000",
"Communities": [
{
"Places": [
{
"Name": "Belo Monte",
"PostCode": "57435-000",
"Location": {
"Latitude": -9.8052,
"Longitude": -37.1916
}
}
],
"PostCode": "57435-000"
}
]
},
{
"Name": "Boca da Mata",
"Code": "2701001",
"PostCode": "57680-000",
"Communities": [
{
"Places": [
{
"Name": "Boca da Mata",
"PostCode": "57680-000",
"Location": {
"Latitude": -9.6465,
"Longitude": -36.1413
}
}
],
"PostCode": "57680-000"
}
]
},
{
"Name": "Branquinha",
"Code": "2701100",
"PostCode": "57830-000",
"Communities": [
{
"Places": [
{
"Name": "Branquinha",
"PostCode": "57830-000",
"Location": {
"Latitude": -9.2117,
"Longitude": -36.0896
}
}
],
"PostCode": "57830-000"
}
]
},
{
"Name": "Cacimbinhas",
"Code": "2701209",
"PostCode": "57570-000",
"Communities": [
{
"Places": [
{
"Name": "Cacimbinhas",
"PostCode": "57570-000",
"Location": {
"Latitude": -9.449,
"Longitude": -36.9047
}
}
],
"PostCode": "57570-000"
}
]
},
{
"Name": "Cajueiro",
"Code": "2701308",
"PostCode": "57770-000",
"Communities": [
{
"Places": [
{
"Name": "Cajueiro",
"PostCode": "57770-000",
"Location": {
"Latitude": -9.3763,
"Longitude": -36.1577
}
}
],
"PostCode": "57770-000"
}
]
},
{
"Name": "Campestre",
"Code": "2701357",
"PostCode": "57968-000",
"Communities": [
{
"Places": [
{
"Name": "Campestre",
"PostCode": "57968-000",
"Location": {
"Latitude": -8.8939,
"Longitude": -35.5324
}
}
],
"PostCode": "57968-000"
}
]
},
{
"Name": "Campo Alegre",
"Code": "2701407",
"PostCode": "57250-000",
"Communities": [
{
"Places": [
{
"Name": "Campo Alegre",
"PostCode": "57250-000",
"Location": {
"Latitude": -9.7933,
"Longitude": -36.2857
}
}
],
"PostCode": "57250-000"
}
]
},
{
"Name": "Campo Grande",
"Code": "2701506",
"PostCode": "57350-000",
"Communities": [
{
"Places": [
{
"Name": "Campo Grande",
"PostCode": "57350-000",
"Location": {
"Latitude": -9.95,
"Longitude": -36.7559
}
}
],
"PostCode": "57350-000"
}
]
},
{
"Name": "Canapi",
"Code": "2701605",
"PostCode": "57530-000",
"Communities": [
{
"Places": [
{
"Name": "Canapi",
"PostCode": "57530-000",
"Location": {
"Latitude": -9.1733,
"Longitude": -37.5199
}
}
],
"PostCode": "57530-000"
}
]
},
{
"Name": "Capela",
"Code": "2701704",
"PostCode": "57780-000",
"Communities": [
{
"Places": [
{
"Name": "Capela",
"PostCode": "57780-000",
"Location": {
"Latitude": -9.3934,
"Longitude": -36.1239
}
}
],
"PostCode": "57780-000"
}
]
},
{
"Name": "Carneiros",
"Code": "2701803",
"PostCode": "57535-000",
"Communities": [
{
"Places": [
{
"Name": "Carneiros",
"PostCode": "57535-000",
"Location": {
"Latitude": -9.4647,
"Longitude": -37.3556
}
}
],
"PostCode": "57535-000"
}
]
},
{
"Name": "Chã Preta",
"Code": "2701902",
"PostCode": "57760-000",
"Communities": [
{
"Places": [
{
"Name": "Chã Preta",
"PostCode": "57760-000",
"Location": {
"Latitude": -9.2292,
"Longitude": -36.3305
}
}
],
"PostCode": "57760-000"
}
]
},
{
"Name": "Coité do Nóia",
"Code": "2702009",
"PostCode": "57325-000",
"Communities": [
{
"Places": [
{
"Name": "Coité do Nóia",
"PostCode": "57325-000",
"Location": {
"Latitude": -9.6262,
"Longitude": -36.6004
}
}
],
"PostCode": "57325-000"
}
]
},
{
"Name": "Colônia Leopoldina",
"Code": "2702108",
"PostCode": "57975-000",
"Communities": [
{
"Places": [
{
"Name": "Colônia Leopoldina",
"PostCode": "57975-000",
"Location": {
"Latitude": -8.8921,
"Longitude": -35.7423
}
}
],
"PostCode": "57975-000"
}
]
},
{
"Name": "Coqueiro Seco",
"Code": "2702207",
"PostCode": "57140-000",
"Communities": [
{
"Places": [
{
"Name": "Coqueiro Seco",
"PostCode": "57140-000",
"Location": {
"Latitude": -9.6466,
"Longitude": -35.8094
}
}
],
"PostCode": "57140-000"
}
]
},
{
"Name": "Coruripe",
"Code": "2702306",
"PostCode": "57230-000",
"Communities": [
{
"Places": [
{
"Name": "Coruripe",
"PostCode": "57230-000",
"Location": {
"Latitude": -10.0745,
"Longitude": -36.1996
}
}
],
"PostCode": "57230-000"
}
]
},
{
"Name": "Craíbas",
"Code": "2702355",
"PostCode": "57320-000",
"Communities": [
{
"Places": [
{
"Name": "Craíbas",
"PostCode": "57320-000",
"Location": {
"Latitude": -9.6011,
"Longitude": -36.8027
}
}
],
"PostCode": "57320-000"
}
]
},
{
"Name": "Delmiro Gouveia",
"Code": "2702405",
"PostCode": "57480-000",
"Communities": [
{
"Places": [
{
"Name": "Delmiro Gouveia",
"PostCode": "57480-000",
"Location": {
"Latitude": -9.4445,
"Longitude": -38.0248
}
}
],
"PostCode": "57480-000"
}
]
},
{
"Name": "Dois Riachos",
"Code": "2702504",
"PostCode": "57560-000",
"Communities": [
{
"Places": [
{
"Name": "Dois Riachos",
"PostCode": "57560-000",
"Location": {
"Latitude": -9.3582,
"Longitude": -37.0657
}
}
],
"PostCode": "57560-000"
}
]
},
{
"Name": "Estrela de Alagoas",
"Code": "2702553",
"PostCode": "57625-000",
"Communities": [
{
"Places": [
{
"Name": "Estrela de Alagoas",
"PostCode": "57625-000",
"Location": {
"Latitude": -9.3986,
"Longitude": -36.7622
}
}
],
"PostCode": "57625-000"
}
]
},
{
"Name": "Feira Grande",
"Code": "2702603",
"PostCode": "57340-000",
"Communities": [
{
"Places": [
{
"Name": "Feira Grande",
"PostCode": "57340-000",
"Location": {
"Latitude": -9.9247,
"Longitude": -36.6695
}
}
],
"PostCode": "57340-000"
}
]
},
{
"Name": "Feliz Deserto",
"Code": "2702702",
"PostCode": "57220-000",
"Communities": [
{
"Places": [
{
"Name": "Feliz Deserto",
"PostCode": "57220-000",
"Location": {
"Latitude": -10.2908,
"Longitude": -36.3537
}
}
],
"PostCode": "57220-000"
}
]
},
{
"Name": "Flexeiras",
"Code": "2702801",
"PostCode": "57995-000",
"Communities": [
{
"Places": [
{
"Name": "Flexeiras",
"PostCode": "57995-000",
"Location": {
"Latitude": -9.2006,
"Longitude": -35.78
}
}
],
"PostCode": "57995-000"
}
]
},
{
"Name": "Girau do Ponciano",
"Code": "2702900",
"PostCode": "57360-000",
"Communities": [
{
"Places": [
{
"Name": "Girau do Ponciano",
"PostCode": "57360-000",
"Location": {
"Latitude": -9.7838,
"Longitude": -36.842
}
}
],
"PostCode": "57360-000"
}
]
},
{
"Name": "Ibateguara",
"Code": "2703007",
"PostCode": "57890-000",
"Communities": [
{
"Places": [
{
"Name": "Ibateguara",
"PostCode": "57890-000",
"Location": {
"Latitude": -8.8969,
"Longitude": -35.9096
}
}
],
"PostCode": "57890-000"
}
]
},
{
"Name": "Igaci",
"Code": "2703106",
"PostCode": "57620-000",
"Communities": [
{
"Places": [
{
"Name": "Igaci",
"PostCode": "57620-000",
"Location": {
"Latitude": -9.58,
"Longitude": -36.6742
}
}
],
"PostCode": "57620-000"
}
]
},
{
"Name": "Igreja Nova",
"Code": "2703205",
"PostCode": "57280-000",
"Communities": [
{
"Places": [
{
"Name": "Igreja Nova",
"PostCode": "57280-000",
"Location": {
"Latitude": -10.1666,
"Longitude": -36.6172
}
}
],
"PostCode": "57280-000"
}
]
},
{
"Name": "Inhapi",
"Code": "2703304",
"PostCode": "57545-000",
"Communities": [
{
"Places": [
{
"Name": "Inhapi",
"PostCode": "57545-000",
"Location": {
"Latitude": -9.2773,
"Longitude": -37.6362
}
}
],
"PostCode": "57545-000"
}
]
},
{
"Name": "Jacaré dos Homens",
"Code": "2703403",
"PostCode": "57430-000",
"Communities": [
{
"Places": [
{
"Name": "Jacaré dos Homens",
"PostCode": "57430-000",
"Location": {
"Latitude": -9.6728,
"Longitude": -37.2228
}
}
],
"PostCode": "57430-000"
}
]
},
{
"Name": "Jacuípe",
"Code": "2703502",
"PostCode": "57960-000",
"Communities": [
{
"Places": [
{
"Name": "Jacuípe",
"PostCode": "57960-000",
"Location": {
"Latitude": -8.8772,
"Longitude": -35.4588
}
}
],
"PostCode": "57960-000"
}
]
},
{
"Name": "Japaratinga",
"Code": "2703601",
"PostCode": "57950-000",
"Communities": [
{
"Places": [
{
"Name": "Japaratinga",
"PostCode": "57950-000",
"Location": {
"Latitude": -9.099,
"Longitude": -35.2963
}
}
],
"PostCode": "57950-000"
}
]
},
{
"Name": "Jaramataia",
"Code": "2703700",
"PostCode": "57425-000",
"Communities": [
{
"Places": [
{
"Name": "Jaramataia",
"PostCode": "57425-000",
"Location": {
"Latitude": -9.6505,
"Longitude": -36.9604
}
}
],
"PostCode": "57425-000"
}
]
},
{
"Name": "Joaquim Gomes",
"Code": "2703809",
"PostCode": "57980-000",
"Communities": [
{
"Places": [
{
"Name": "Joaquim Gomes",
"PostCode": "57980-000",
"Location": {
"Latitude": -9.1035,
"Longitude": -35.7374
}
}
],
"PostCode": "57980-000"
}
]
},
{
"Name": "Jundiá",
"Code": "2703908",
"PostCode": "57965-000",
"Communities": [
{
"Places": [
{
"Name": "Jundiá",
"PostCode": "57965-000",
"Location": {
"Latitude": -8.9406,
"Longitude": -35.4996
}
}
],
"PostCode": "57965-000"
}
]
},
{
"Name": "Junqueiro",
"Code": "2704005",
"PostCode": "57270-000",
"Communities": [
{
"Places": [
{
"Name": "Junqueiro",
"PostCode": "57270-000",
"Location": {
"Latitude": -9.8852,
"Longitude": -36.4564
}
}
],
"PostCode": "57270-000"
}
]
},
{
"Name": "Lagoa da Canoa",
"Code": "2704104",
"PostCode": "57330-000",
"Communities": [
{
"Places": [
{
"Name": "Lagoa da Canoa",
"PostCode": "57330-000",
"Location": {
"Latitude": -9.8072,
"Longitude": -36.7481
}
}
],
"PostCode": "57330-000"
}
]
},
{
"Name": "Limoeiro de Anadia",
"Code": "2704203",
"PostCode": "57260-000",
"Communities": [
{
"Places": [
{
"Name": "Limoeiro de Anadia",
"PostCode": "57260-000",
"Location": {
"Latitude": -9.7268,
"Longitude": -36.4541
}
}
],
"PostCode": "57260-000"
}
]
},
{
"Name": "Maceió",
"Code": "2704302",
"PostCode": "57000-000",
"Communities": [
{
"Places": [
{
"Name": "Maceió",
"PostCode": "57000-000",
"Location": {
"Latitude": -9.5713,
"Longitude": -35.6899
}
}
],
"PostCode": "57000-000"
}
]
},
{
"Name": "Major Isidoro",
"Code": "2704401",
"PostCode": "57580-000",
"Communities": [
{
"Places": [
{
"Name": "Major Isidoro",
"PostCode": "57580-000",
"Location": {
"Latitude": -9.5168,
"Longitude": -36.9649
}
}
],
"PostCode": "57580-000"
}
]
},
{
"Name": "Maragogi",
"Code": "2704500",
"PostCode": "57955-000",
"Communities": [
{
"Places": [
{
"Name": "Maragogi",
"PostCode": "57955-000",
"Location": {
"Latitude": -8.9586,
"Longitude": -35.276
}
}
],
"PostCode": "57955-000"
}
]
},
{
"Name": "Maravilha",
"Code": "2704609",
"PostCode": "57520-000",
"Communities": [
{
"Places": [
{
"Name": "Maravilha",
"PostCode": "57520-000",
"Location": {
"Latitude": -9.2231,
"Longitude": -37.3794
}
}
],
"PostCode": "57520-000"
}
]
},
{
"Name": "Marechal Deodoro",
"Code": "2704708",
"PostCode": "57160-000",
"Communities": [
{
"Places": [
{
"Name": "Marechal Deodoro",
"PostCode": "57160-000",
"Location": {
"Latitude": -9.709,
"Longitude": -35.9031
}
}
],
"PostCode": "57160-000"
}
]
},
{
"Name": "Maribondo",
"Code": "2704807",
"PostCode": "57670-000",
"Communities": [
{
"Places": [
{
"Name": "Maribondo",
"PostCode": "57670-000",
"Location": {
"Latitude": -9.5509,
"Longitude": -36.3403
}
}
],
"PostCode": "57670-000"
}
]
},
{
"Name": "Mar Vermelho",
"Code": "2704906",
"PostCode": "57730-000",
"Communities": [
{
"Places": [
{
"Name": "Mar Vermelho",
"PostCode": "57730-000",
"Location": {
"Latitude": -9.4925,
"Longitude": -36.3504
}
}
],
"PostCode": "57730-000"
}
]
},
{
"Name": "Mata Grande",
"Code": "2705002",
"PostCode": "57540-000",
"Communities": [
{
"Places": [
{
"Name": "Mata Grande",
"PostCode": "57540-000",
"Location": {
"Latitude": -8.9854,
"Longitude": -37.7615
}
}
],
"PostCode": "57540-000"
}
]
},
{
"Name": "Matriz de Camaragibe",
"Code": "2705101",
"PostCode": "57910-000",
"Communities": [
{
"Places": [
{
"Name": "Matriz de Camaragibe",
"PostCode": "57910-000",
"Location": {
"Latitude": -9.1383,
"Longitude": -35.5761
}
}
],
"PostCode": "57910-000"
}
]
},
{
"Name": "Messias",
"Code": "2705200",
"PostCode": "57990-000",
"Communities": [
{
"Places": [
{
"Name": "Messias",
"PostCode": "57990-000",
"Location": {
"Latitude": -9.3211,
"Longitude": -35.8222
}
}
],
"PostCode": "57990-000"
}
]
},
{
"Name": "Minador do Negrão",
"Code": "2705309",
"PostCode": "57615-000",
"Communities": [
{
"Places": [
{
"Name": "Minador do Negrão",
"PostCode": "57615-000",
"Location": {
"Latitude": -9.3186,
"Longitude": -36.8863
}
}
],
"PostCode": "57615-000"
}
]
},
{
"Name": "Monteirópolis",
"Code": "2705408",
"PostCode": "57440-000",
"Communities": [
{
"Places": [
{
"Name": "Monteirópolis",
"PostCode": "57440-000",
"Location": {
"Latitude": -9.6202,
"Longitude": -37.2935
}
}
],
"PostCode": "57440-000"
}
]
},
{
"Name": "Murici",
"Code": "2705507",
"PostCode": "57820-000",
"Communities": [
{
"Places": [
{
"Name": "Murici",
"PostCode": "57820-000",
"Location": {
"Latitude": -9.2983,
"Longitude": -35.9
}
}
],
"PostCode": "57820-000"
}
]
},
{
"Name": "Novo Lino",
"Code": "2705606",
"PostCode": "57970-000",
"Communities": [
{
"Places": [
{
"Name": "Novo Lino",
"PostCode": "57970-000",
"Location": {
"Latitude": -8.8809,
"Longitude": -35.6195
}
}
],
"PostCode": "57970-000"
}
]
},
{
"Name": "Olho d'Água das Flores",
"Code": "2705705",
"PostCode": "57442-000",
"Communities": [
{
"Places": [
{
"Name": "Olho d'Água das Flores",
"PostCode": "57442-000",
"Location": {
"Latitude": -9.5403,
"Longitude": -37.2521
}
}
],
"PostCode": "57442-000"
}
]
},
{
"Name": "Olho d'Água do Casado",
"Code": "2705804",
"PostCode": "57470-000",
"Communities": [
{
"Places": [
{
"Name": "Olho d'Água do Casado",
"PostCode": "57470-000",
"Location": {
"Latitude": -9.4565,
"Longitude": -37.835
}
}
],
"PostCode": "57470-000"
}
]
},
{
"Name": "Olho d'Água Grande",
"Code": "2705903",
"PostCode": "57390-000",
"Communities": [
{
"Places": [
{
"Name": "Olho d'Água Grande",
"PostCode": "57390-000",
"Location": {
"Latitude": -10.0562,
"Longitude": -36.7952
}
}
],
"PostCode": "57390-000"
}
]
},
{
"Name": "Olivença",
"Code": "2706000",
"PostCode": "57550-000",
"Communities": [
{
"Places": [
{
"Name": "Olivença",
"PostCode": "57550-000",
"Location": {
"Latitude": -9.4695,
"Longitude": -37.1668
}
}
],
"PostCode": "57550-000"
}
]
},
{
"Name": "Ouro Branco",
"Code": "2706109",
"PostCode": "57525-000",
"Communities": [
{
"Places": [
{
"Name": "Ouro Branco",
"PostCode": "57525-000",
"Location": {
"Latitude": -9.129,
"Longitude": -37.3737
}
}
],
"PostCode": "57525-000"
}
]
},
{
"Name": "Palestina",
"Code": "2706208",
"PostCode": "57410-000",
"Communities": [
{
"Places": [
{
"Name": "Palestina",
"PostCode": "57410-000",
"Location": {
"Latitude": -9.675,
"Longitude": -37.331
}
}
],
"PostCode": "57410-000"
}
]
},
{
"Name": "Palmeira dos Índios",
"Code": "2706307",
"PostCode": "57600-000",
"Communities": [
{
"Places": [
{
"Name": "Palmeira dos Índios",
"PostCode": "57600-000",
"Location": {
"Latitude": -9.409,
"Longitude": -36.6065
}
}
],
"PostCode": "57600-000"
}
]
},
{
"Name": "Pão de Açúcar",
"Code": "2706406",
"PostCode": "57400-000",
"Communities": [
{
"Places": [
{
"Name": "Pão de Açúcar",
"PostCode": "57400-000",
"Location": {
"Latitude": -9.6835,
"Longitude": -37.4543
}
}
],
"PostCode": "57400-000"
}
]
},
{
"Name": "Pariconha",
"Code": "2706422",
"PostCode": "57475-000",
"Communities": [
{
"Places": [
{
"Name": "Pariconha",
"PostCode": "57475-000",
"Location": {
"Latitude": -9.2204,
"Longitude": -38.0167
}
}
],
"PostCode": "57475-000"
}
]
},
{
"Name": "Paripueira",
"Code": "2706448",
"PostCode": "57935-000",
"Communities": [
{
"Places": [
{
"Name": "Paripueira",
"PostCode": "57935-000",
"Location": {
"Latitude": -9.4294,
"Longitude": -35.5898
}
}
],
"PostCode": "57935-000"
}
]
},
{
"Name": "Passo de Camaragibe",
"Code": "2706505",
"PostCode": "57930-000",
"Communities": [
{
"Places": [
{
"Name": "Passo de Camaragibe",
"PostCode": "57930-000",
"Location": {
"Latitude": -9.2987,
"Longitude": -35.4279
}
}
],
"PostCode": "57930-000"
}
]
},
{
"Name": "Paulo Jacinto",
"Code": "2706604",
"PostCode": "57740-000",
"Communities": [
{
"Places": [
{
"Name": "Paulo Jacinto",
"PostCode": "57740-000",
"Location": {
"Latitude": -9.3684,
"Longitude": -36.3929
}
}
],
"PostCode": "57740-000"
}
]
},
{
"Name": "Penedo",
"Code": "2706703",
"PostCode": "57200-000",
"Communities": [
{
"Places": [
{
"Name": "Penedo",
"PostCode": "57200-000",
"Location": {
"Latitude": -10.2445,
"Longitude": -36.4699
}
}
],
"PostCode": "57200-000"
}
]
},
{
"Name": "Piaçabuçu",
"Code": "2706802",
"PostCode": "57210-000",
"Communities": [
{
"Places": [
{
"Name": "Piaçabuçu",
"PostCode": "57210-000",
"Location": {
"Latitude": -10.3739,
"Longitude": -36.419
}
}
],
"PostCode": "57210-000"
}
]
},
{
"Name": "Pilar",
"Code": "2706901",
"PostCode": "57150-000",
"Communities": [
{
"Places": [
{
"Name": "Pilar",
"PostCode": "57150-000",
"Location": {
"Latitude": -9.6175,
"Longitude": -36.0632
}
}
],
"PostCode": "57150-000"
}
]
},
{
"Name": "Pindoba",
"Code": "2707008",
"PostCode": "57720-000",
"Communities": [
{
"Places": [
{
"Name": "Pindoba",
"PostCode": "57720-000",
"Location": {
"Latitude": -9.4749,
"Longitude": -36.3034
}
}
],
"PostCode": "57720-000"
}
]
},
{
"Name": "Piranhas",
"Code": "2707107",
"PostCode": "57460-000",
"Communities": [
{
"Places": [
{
"Name": "Piranhas",
"PostCode": "57460-000",
"Location": {
"Latitude": -9.5481,
"Longitude": -37.7453
}
}
],
"PostCode": "57460-000"
}
]
},
{
"Name": "Poço das Trincheiras",
"Code": "2707206",
"PostCode": "57510-000",
"Communities": [
{
"Places": [
{
"Name": "Poço das Trincheiras",
"PostCode": "57510-000",
"Location": {
"Latitude": -9.2926,
"Longitude": -37.3199
}
}
],
"PostCode": "57510-000"
}
]
},
{
"Name": "Porto Calvo",
"Code": "2707305",
"PostCode": "57900-000",
"Communities": [
{
"Places": [
{
"Name": "Porto Calvo",
"PostCode": "57900-000",
"Location": {
"Latitude": -9.0706,
"Longitude": -35.3734
}
}
],
"PostCode": "57900-000"
}
]
},
{
"Name": "Porto de Pedras",
"Code": "2707404",
"PostCode": "57945-000",
"Communities": [
{
"Places": [
{
"Name": "Porto de Pedras",
"PostCode": "57945-000",
"Location": {
"Latitude": -9.1156,
"Longitude": -35.3916
}
}
],
"PostCode": "57945-000"
}
]
},
{
"Name": "Porto Real do Colégio",
"Code": "2707503",
"PostCode": "57290-000",
"Communities": [
{
"Places": [
{
"Name": "Porto Real do Colégio",
"PostCode": "57290-000",
"Location": {
"Latitude": -10.1054,
"Longitude": -36.7269
}
}
],
"PostCode": "57290-000"
}
]
},
{
"Name": "Quebrangulo",
"Code": "2707602",
"PostCode": "57750-000",
"Communities": [
{
"Places": [
{
"Name": "Quebrangulo",
"PostCode": "57750-000",
"Location": {
"Latitude": -9.2923,
"Longitude": -36.4979
}
}
],
"PostCode": "57750-000"
}
]
},
{
"Name": "Rio Largo",
"Code": "2707701",
"PostCode": "57100-000",
"Communities": [
{
"Places": [
{
"Name": "Rio Largo",
"PostCode": "57100-000",
"Location": {
"Latitude": -9.5139,
"Longitude": -35.9106
}
}
],
"PostCode": "57100-000"
}
]
},
{
"Name": "Roteiro",
"Code": "2707800",
"PostCode": "57246-000",
"Communities": [
{
"Places": [
{
"Name": "Roteiro",
"PostCode": "57246-000",
"Location": {
"Latitude": -9.8591,
"Longitude": -35.9831
}
}
],
"PostCode": "57246-000"
}
]
},
{
"Name": "Santa Luzia do Norte",
"Code": "2707909",
"PostCode": "57130-000",
"Communities": [
{
"Places": [
{
"Name": "Santa Luzia do Norte",
"PostCode": "57130-000",
"Location": {
"Latitude": -9.6108,
"Longitude": -35.8292
}
}
],
"PostCode": "57130-000"
}
]
},
{
"Name": "Santana do Ipanema",
"Code": "2708006",
"PostCode": "57500-000",
"Communities": [
{
"Places": [
{
"Name": "Santana do Ipanema",
"PostCode": "57500-000",
"Location": {
"Latitude": -9.3443,
"Longitude": -37.194
}
}
],
"PostCode": "57500-000"
}
]
},
{
"Name": "Santana do Mundaú",
"Code": "2708105",
"PostCode": "57840-000",
"Communities": [
{
"Places": [
{
"Name": "Santana do Mundaú",
"PostCode": "57840-000",
"Location": {
"Latitude": -9.1243,
"Longitude": -36.2267
}
}
],
"PostCode": "57840-000"
}
]
},
{
"Name": "São Brás",
"Code": "2708204",
"PostCode": "57380-000",
"Communities": [
{
"Places": [
{
"Name": "São Brás",
"PostCode": "57380-000",
"Location": {
"Latitude": -10.1241,
"Longitude": -36.8504
}
}
],
"PostCode": "57380-000"
}
]
},
{
"Name": "São José da Laje",
"Code": "2708303",
"PostCode": "57860-000",
"Communities": [
{
"Places": [
{
"Name": "São José da Laje",
"PostCode": "57860-000",
"Location": {
"Latitude": -8.975,
"Longitude": -36.0339
}
}
],
"PostCode": "57860-000"
}
]
},
{
"Name": "São José da Tapera",
"Code": "2708402",
"PostCode": "57445-000",
"Communities": [
{
"Places": [
{
"Name": "São José da Tapera",
"PostCode": "57445-000",
"Location": {
"Latitude": -9.5134,
"Longitude": -37.6088
}
}
],
"PostCode": "57445-000"
}
]
},
{
"Name": "São Luís do Quitunde",
"Code": "2708501",
"PostCode": "57920-000",
"Communities": [
{
"Places": [
{
"Name": "São Luís do Quitunde",
"PostCode": "57920-000",
"Location": {
"Latitude": -9.2628,
"Longitude": -35.5719
}
}
],
"PostCode": "57920-000"
}
]
},
{
"Name": "São Miguel dos Campos",
"Code": "2708600",
"PostCode": "57240-000",
"Communities": [
{
"Places": [
{
"Name": "São Miguel dos Campos",
"PostCode": "57240-000",
"Location": {
"Latitude": -9.8288,
"Longitude": -36.1138
}
}
],
"PostCode": "57240-000"
}
]
},
{
"Name": "São Miguel dos Milagres",
"Code": "2708709",
"PostCode": "57940-000",
"Communities": [
{
"Places": [
{
"Name": "São Miguel dos Milagres",
"PostCode": "57940-000",
"Location": {
"Latitude": -9.2542,
"Longitude": -35.3842
}
}
],
"PostCode": "57940-000"
}
]
},
{
"Name": "São Sebastião",
"Code": "2708808",
"PostCode": "57275-000",
"Communities": [
{
"Places": [
{
"Name": "São Sebastião",
"PostCode": "57275-000",
"Location": {
"Latitude": -9.967,
"Longitude": -36.5528
}
}
],
"PostCode": "57275-000"
}
]
},
{
"Name": "Satuba",
"Code": "2708907",
"PostCode": "57120-000",
"Communities": [
{
"Places": [
{
"Name": "Satuba",
"PostCode": "57120-000",
"Location": {
"Latitude": -9.5853,
"Longitude": -35.8456
}
}
],
"PostCode": "57120-000"
}
]
},
{
"Name": "Senador Rui Palmeira",
"Code": "2708956",
"PostCode": "57515-000",
"Communities": [
{
"Places": [
{
"Name": "Senador Rui Palmeira",
"PostCode": "57515-000",
"Location": {
"Latitude": -9.3383,
"Longitude": -37.5597
}
}
],
"PostCode": "57515-000"
}
]
},
{
"Name": "Tanque d'Arca",
"Code": "2709004",
"PostCode": "57635-000",
"Communities": [
{
"Places": [
{
"Name": "Tanque d'Arca",
"PostCode": "57635-000",
"Location": {
"Latitude": -9.5607,
"Longitude": -36.4082
}
}
],
"PostCode": "57635-000"
}
]
},
{
"Name": "Taquarana",
"Code": "2709103",
"PostCode": "57640-000",
"Communities": [
{
"Places": [
{
"Name": "Taquarana",
"PostCode": "57640-000",
"Location": {
"Latitude": -9.5977,
"Longitude": -36.4878
}
}
],
"PostCode": "57640-000"
}
]
},
{
"Name": "Teotônio Vilela",
"Code": "2709152",
"PostCode": "57265-000",
"Communities": [
{
"Places": [
{
"Name": "Teotônio Vilela",
"PostCode": "57265-000",
"Location": {
"Latitude": -9.9901,
"Longitude": -36.4327
}
}
],
"PostCode": "57265-000"
}
]
},
{
"Name": "Traipu",
"Code": "2709202",
"PostCode": "57370-000",
"Communities": [
{
"Places": [
{
"Name": "Traipu",
"PostCode": "57370-000",
"Location": {
"Latitude": -9.8924,
"Longitude": -36.9785
}
}
],
"PostCode": "57370-000"
}
]
},
{
"Name": "União dos Palmares",
"Code": "2709301",
"PostCode": "57800-000",
"Communities": [
{
"Places": [
{
"Name": "União dos Palmares",
"PostCode": "57800-000",
"Location": {
"Latitude": -9.1325,
"Longitude": -36.0818
}
}
],
"PostCode": "57800-000"
}
]
},
{
"Name": "Viçosa",
"Code": "2709400",
"PostCode": "57700-000",
"Communities": [
{
"Places": [
{
"Name": "Viçosa",
"PostCode": "57700-000",
"Location": {
"Latitude": -9.3602,
"Longitude": -36.3209
}
}
],
"PostCode": "57700-000"
}
]
}
]
},
{
"Name": "Amapa",
"Code": "03",
"Provinces": [
{
"PostCode": "68945-000",
"Communities": [
{
"Places": [
{
"Name": "Amapari",
"PostCode": "68945-000",
"Location": {
"Latitude": 0.6167,
"Longitude": -51.65
}
}
],
"PostCode": "68945-000"
}
]
},
{
"Name": "Amapá",
"Code": "1600105",
"PostCode": "68950-000",
"Communities": [
{
"Places": [
{
"Name": "Amapá",
"PostCode": "68950-000",
"Location": {
"Latitude": 1.8571,
"Longitude": -50.8437
}
}
],
"PostCode": "68950-000"
}
]
},
{
"Name": "Pedra Branca do Amapari",
"Code": "1600154",
"PostCode": "68948-000",
"Communities": [
{
"Places": [
{
"Name": "Pedra Branca do Amaparí",
"PostCode": "68948-000",
"Location": {
"Latitude": 1.1484,
"Longitude": -52.4012
}
}
],
"PostCode": "68948-000"
}
]
},
{
"Name": "Calçoene",
"Code": "1600204",
"PostCode": "68960-000",
"Communities": [
{
"Places": [
{
"Name": "Calçoene",
"PostCode": "68960-000",
"Location": {
"Latitude": 2.361,
"Longitude": -51.4529
}
}
],
"PostCode": "68960-000"
}
]
},
{
"Name": "Cutias",
"Code": "1600212",
"PostCode": "68973-000",
"Communities": [
{
"Places": [
{
"Name": "Cutias",
"PostCode": "68973-000",
"Location": {
"Latitude": 0.9971,
"Longitude": -50.5204
}
}
],
"PostCode": "68973-000"
}
]
},
{
"Name": "Ferreira Gomes",
"Code": "1600238",
"PostCode": "68915-000",
"Communities": [
{
"Places": [
{
"Name": "Ferreira Gomes",
"PostCode": "68915-000",
"Location": {
"Latitude": 0.9101,
"Longitude": -51.3544
}
}
],
"PostCode": "68915-000"
}
]
},
{
"Name": "Itaubal",
"Code": "1600253",
"PostCode": "68976-000",
"Communities": [
{
"Places": [
{
"Name": "Itaubal",
"PostCode": "68976-000",
"Location": {
"Latitude": 0.5773,
"Longitude": -50.6783
}
}
],
"PostCode": "68976-000"
}
]
},
{
"Name": "Laranjal do Jari",
"Code": "1600279",
"PostCode": "68920-000",
"Communities": [
{
"Places": [
{
"Name": "Laranjal do Jari",
"PostCode": "68920-000",
"Location": {
"Latitude": 0.9383,
"Longitude": -53.2295
}
}
],
"PostCode": "68920-000"
}
]
},
{
"Name": "Macapá",
"Code": "1600303",
"PostCode": "68900-000",
"Communities": [
{
"Places": [
{
"Name": "Macapá",
"PostCode": "68900-000",
"Location": {
"Latitude": 0.5987,
"Longitude": -50.7685
}
}
],
"PostCode": "68900-000"
}
]
},
{
"Name": "Mazagão",
"Code": "1600402",
"PostCode": "68940-000",
"Communities": [
{
"Places": [
{
"Name": "Mazagão",
"PostCode": "68940-000",
"Location": {
"Latitude": 0.0399,
"Longitude": -52.1163
}
}
],
"PostCode": "68940-000"
}
]
},
{
"Name": "Oiapoque",
"Code": "1600501",
"PostCode": "68980-000",
"Communities": [
{
"Places": [
{
"Name": "Oiapoque",
"PostCode": "68980-000",
"Location": {
"Latitude": 2.7079,
"Longitude": -52.1696
}
}
],
"PostCode": "68980-000"
}
]
},
{
"Name": "Porto Grande",
"Code": "1600535",
"PostCode": "68997-000",
"Communities": [
{
"Places": [
{
"Name": "Porto Grande",
"PostCode": "68997-000",
"Location": {
"Latitude": 0.5655,
"Longitude": -51.7118
}
}
],
"PostCode": "68997-000"
}
]
},
{
"Name": "Pracuúba",
"Code": "1600550",
"PostCode": "68918-000",
"Communities": [
{
"Places": [
{
"Name": "Pracuúba",
"PostCode": "68918-000",
"Location": {
"Latitude": 1.6708,
"Longitude": -51.2449
}
}
],
"PostCode": "68918-000"
}
]
},
{
"Name": "Santana",
"Code": "1600600",
"PostCode": "68925-000",
"Communities": [
{
"Places": [
{
"Name": "Santana",
"PostCode": "68925-000",
"Location": {
"Latitude": 0.1813,
"Longitude": -51.3884
}
}
],
"PostCode": "68925-000"
}
]
},
{
"Name": "Tartarugalzinho",
"Code": "1600709",
"PostCode": "68990-000",
"Communities": [
{
"Places": [
{
"Name": "Tartarugalzinho",
"PostCode": "68990-000",
"Location": {
"Latitude": 1.263,
"Longitude": -51.1097
}
}
],
"PostCode": "68990-000"
}
]
},
{
"Name": "Vitória do Jari",
"Code": "1600808",
"PostCode": "68924-000",
"Communities": [
{
"Places": [
{
"Name": "Vitória do Jari",
"PostCode": "68924-000",
"Location": {
"Latitude": -0.9565,
"Longitude": -52.0344
}
}
],
"PostCode": "68924-000"
}
]
}
]
},
{
"Name": "Amazonas",
"Code": "04",
"Provinces": [
{
"Name": "Alvarães",
"Code": "1300029",
"PostCode": "69475-000",
"Communities": [
{
"Places": [
{
"Name": "Alvarães",
"PostCode": "69475-000",
"Location": {
"Latitude": -3.7149,
"Longitude": -65.3041
}
}
],
"PostCode": "69475-000"
}
]
},
{
"Name": "Amaturá",
"Code": "1300060",
"PostCode": "69620-000",
"Communities": [
{
"Places": [
{
"Name": "Amaturá",
"PostCode": "69620-000",
"Location": {
"Latitude": -3.3893,
"Longitude": -68.227
}
}
],
"PostCode": "69620-000"
}
]
},
{
"Name": "Anamã",
"Code": "1300086",
"PostCode": "69445-000",
"Communities": [
{
"Places": [
{
"Name": "Anamã",
"PostCode": "69445-000",
"Location": {
"Latitude": -3.4799,
"Longitude": -61.7169
}
}
],
"PostCode": "69445-000"
}
]
},
{
"Name": "Anori",
"Code": "1300102",
"PostCode": "69440-000",
"Communities": [
{
"Places": [
{
"Name": "Anori",
"PostCode": "69440-000",
"Location": {
"Latitude": -4.2132,
"Longitude": -62.1556
}
}
],
"PostCode": "69440-000"
}
]
},
{
"Name": "Apuí",
"Code": "1300144",
"PostCode": "69265-000",
"Communities": [
{
"Places": [
{
"Name": "Apuí",
"PostCode": "69265-000",
"Location": {
"Latitude": -7.7892,
"Longitude": -59.341
}
}
],
"PostCode": "69265-000"
}
]
},
{
"Name": "Atalaia do Norte",
"Code": "1300201",
"PostCode": "69650-000",
"Communities": [
{
"Places": [
{
"Name": "Atalaia do Norte",
"PostCode": "69650-000",
"Location": {
"Latitude": -5.6645,
"Longitude": -71.8278
}
}
],
"PostCode": "69650-000"
}
]
},
{
"Name": "Autazes",
"Code": "1300300",
"PostCode": "69240-000",
"Communities": [
{
"Places": [
{
"Name": "Autazes",
"PostCode": "69240-000",
"Location": {
"Latitude": -3.873,
"Longitude": -59.6814
}
}
],
"PostCode": "69240-000"
}
]
},
{
"Name": "Barcelos",
"Code": "1300409",
"PostCode": "69700-000",
"Communities": [
{
"Places": [
{
"Name": "Barcelos",
"PostCode": "69700-000",
"Location": {
"Latitude": -0.3929,
"Longitude": -63.5371
}
}
],
"PostCode": "69700-000"
}
]
},
{
"Name": "Barreirinha",
"Code": "1300508",
"PostCode": "69160-000",
"Communities": [
{
"Places": [
{
"Name": "Barreirinha",
"PostCode": "69160-000",
"Location": {
"Latitude": -3.0656,
"Longitude": -57.1662
}
}
],
"PostCode": "69160-000"
}
]
},
{
"Name": "Benjamin Constant",
"Code": "1300607",
"PostCode": "69630-000",
"Communities": [
{
"Places": [
{
"Name": "Benjamin Constant",
"PostCode": "69630-000",
"Location": {
"Latitude": -5.6484,
"Longitude": -70.4068
}
}
],
"PostCode": "69630-000"
}
]
},
{
"Name": "Beruri",
"Code": "1300631",
"PostCode": "69430-000",
"Communities": [
{
"Places": [
{
"Name": "Beruri",
"PostCode": "69430-000",
"Location": {
"Latitude": -4.3437,
"Longitude": -61.7513
}
}
],
"PostCode": "69430-000"
}
]
},
{
"Name": "Boa Vista do Ramos",
"Code": "1300680",
"PostCode": "69195-000",
"Communities": [
{
"Places": [
{
"Name": "Boa Vista do Ramos",
"PostCode": "69195-000",
"Location": {
"Latitude": -3.1478,
"Longitude": -57.625
}
}
],
"PostCode": "69195-000"
}
]
},
{
"Name": "Boca do Acre",
"Code": "1300706",
"PostCode": "69850-000",
"Communities": [
{
"Places": [
{
"Name": "Boca do Acre",
"PostCode": "69850-000",
"Location": {
"Latitude": -8.5542,
"Longitude": -68.0359
}
}
],
"PostCode": "69850-000"
}
]
},
{
"Name": "Borba",
"Code": "1300805",
"PostCode": "69200-000",
"Communities": [
{
"Places": [
{
"Name": "Borba",
"PostCode": "69200-000",
"Location": {
"Latitude": -5.1124,
"Longitude": -59.3054
}
}
],
"PostCode": "69200-000"
}
]
},
{
"Name": "Caapiranga",
"Code": "1300839",
"PostCode": "69410-000",
"Communities": [
{
"Places": [
{
"Name": "Caapiranga",
"PostCode": "69410-000",
"Location": {
"Latitude": -3.1298,
"Longitude": -61.7441
}
}
],
"PostCode": "69410-000"
}
]
},
{
"Name": "Canutama",
"Code": "1300904",
"PostCode": "69820-000",
"Communities": [
{
"Places": [
{
"Name": "Canutama",
"PostCode": "69820-000",
"Location": {
"Latitude": -7.5897,
"Longitude": -64.1294
}
}
],
"PostCode": "69820-000"
}
]
},
{
"Name": "Carauari",
"Code": "1301001",
"PostCode": "69500-000",
"Communities": [
{
"Places": [
{
"Name": "Carauari",
"PostCode": "69500-000",
"Location": {
"Latitude": -5.1159,
"Longitude": -67.3578
}
}
],
"PostCode": "69500-000"
}
]
},
{
"Name": "Careiro",
"Code": "1301100",
"PostCode": "69250-000",
"Communities": [
{
"Places": [
{
"Name": "Careiro",
"PostCode": "69250-000",
"Location": {
"Latitude": -3.8332,
"Longitude": -60.2047
}
}
],
"PostCode": "69250-000"
}
]
},
{
"Name": "Careiro da Várzea",
"Code": "1301159",
"PostCode": "69255-000",
"Communities": [
{
"Places": [
{
"Name": "Careiro da Várzea",
"PostCode": "69255-000",
"Location": {
"Latitude": -3.3515,
"Longitude": -59.6553
}
}
],
"PostCode": "69255-000"
}
]
},
{
"Name": "Coari",
"Code": "1301209",
"PostCode": "69460-000",
"Communities": [
{
"Places": [
{
"Name": "Coari",
"PostCode": "69460-000",
"Location": {
"Latitude": -4.085,
"Longitude": -63.1414
}
}
],
"PostCode": "69460-000"
}
]
},
{
"Name": "Codajás",
"Code": "1301308",
"PostCode": "69450-000",
"Communities": [
{
"Places": [
{
"Name": "Codajás",
"PostCode": "69450-000",
"Location": {
"Latitude": -3.1626,
"Longitude": -63.1473
}
}
],
"PostCode": "69450-000"
}
]
},
{
"Name": "Eirunepé",
"Code": "1301407",
"PostCode": "69880-000",
"Communities": [
{
"Places": [
{
"Name": "Eirunepé",
"PostCode": "69880-000",
"Location": {
"Latitude": -7.1585,
"Longitude": -70.4155
}
}
],
"PostCode": "69880-000"
}
]
},
{
"Name": "Envira",
"Code": "1301506",
"PostCode": "69870-000",
"Communities": [
{
"Places": [
{
"Name": "Envira",
"PostCode": "69870-000",
"Location": {
"Latitude": -7.6421,
"Longitude": -70.1408
}
}
],
"PostCode": "69870-000"
}
]
},
{
"Name": "Fonte Boa",
"Code": "1301605",
"PostCode": "69670-000",
"Communities": [
{
"Places": [
{
"Name": "Fonte Boa",
"PostCode": "69670-000",
"Location": {
"Latitude": -2.4959,
"Longitude": -66.2662
}
}
],
"PostCode": "69670-000"
}
]
},
{
"Name": "Guajará",
"Code": "1301654",
"PostCode": "69895-000",
"Communities": [
{
"Places": [
{
"Name": "Guajará",
"PostCode": "69895-000",
"Location": {
"Latitude": -7.1365,
"Longitude": -72.7151
}
}
],
"PostCode": "69895-000"
}
]
},
{
"Name": "Humaitá",
"Code": "1301704",
"PostCode": "69800-000",
"Communities": [
{
"Places": [
{
"Name": "Humaitá",
"PostCode": "69800-000",
"Location": {
"Latitude": -7.4387,
"Longitude": -62.3248
}
}
],
"PostCode": "69800-000"
}
]
},
{
"Name": "Ipixuna",
"Code": "1301803",
"PostCode": "69890-000",
"Communities": [
{
"Places": [
{
"Name": "Ipixuna",
"PostCode": "69890-000",
"Location": {
"Latitude": -7.1191,
"Longitude": -71.3759
}
}
],
"PostCode": "69890-000"
}
]
},
{
"Name": "Iranduba",
"Code": "1301852",
"PostCode": "69405-000",
"Communities": [
{
"Places": [
{
"Name": "Iranduba",
"PostCode": "69405-000",
"Location": {
"Latitude": -3.1014,
"Longitude": -60.4464
}
}
],
"PostCode": "69405-000"
}
]
},
{
"Name": "Itacoatiara",
"Code": "1301902",
"PostCode": "69100-000",
"Communities": [
{
"Places": [
{
"Name": "Itacoatiara",
"PostCode": "69100-000",
"Location": {
"Latitude": -3.1598,
"Longitude": -58.812
}
}
],
"PostCode": "69100-000"
}
]
},
{
"Name": "Itamarati",
"Code": "1301951",
"PostCode": "69510-000",
"Communities": [
{
"Places": [
{
"Name": "Itamarati",
"PostCode": "69510-000",
"Location": {
"Latitude": -6.7647,
"Longitude": -68.0393
}
}
],
"PostCode": "69510-000"
}
]
},
{
"Name": "Itapiranga",
"Code": "1302009",
"PostCode": "69120-000",
"Communities": [
{
"Places": [
{
"Name": "Itapiranga",
"PostCode": "69120-000",
"Location": {
"Latitude": -2.516,
"Longitude": -58.5573
}
}
],
"PostCode": "69120-000"
}
]
},
{
"Name": "Japurá",
"Code": "1302108",
"PostCode": "69495-000",
"Communities": [
{
"Places": [
{
"Name": "Japurá",
"PostCode": "69495-000",
"Location": {
"Latitude": -1.5535,
"Longitude": -68.2453
}
}
],
"PostCode": "69495-000"
}
]
},
{
"Name": "Juruá",
"Code": "1302207",
"PostCode": "69520-000",
"Communities": [
{
"Places": [
{
"Name": "Juruá",
"PostCode": "69520-000",
"Location": {
"Latitude": -3.2753,
"Longitude": -66.2421
}
}
],
"PostCode": "69520-000"
}
]
},
{
"Name": "Jutaí",
"Code": "1302306",
"PostCode": "69660-000",
"Communities": [
{
"Places": [
{
"Name": "Jutaí",
"PostCode": "69660-000",
"Location": {
"Latitude": -4.6548,
"Longitude": -68.2803
}
}
],
"PostCode": "69660-000"
}
]
},
{
"Name": "Lábrea",
"Code": "1302405",
"PostCode": "69830-000",
"Communities": [
{
"Places": [
{
"Name": "Lábrea",
"PostCode": "69830-000",
"Location": {
"Latitude": -8.1844,
"Longitude": -66.075
}
}
],
"PostCode": "69830-000"
}
]
},
{
"Name": "Manacapuru",
"Code": "1302504",
"PostCode": "69400-000",
"Communities": [
{
"Places": [
{
"Name": "Manacapuru",
"PostCode": "69400-000",
"Location": {
"Latitude": -3.2475,
"Longitude": -61.0079
}
}
],
"PostCode": "69400-000"
}
]
},
{
"Name": "Manaquiri",
"Code": "1302553",
"PostCode": "69435-000",
"Communities": [
{
"Places": [
{
"Name": "Manaquiri",
"PostCode": "69435-000",
"Location": {
"Latitude": -3.7905,
"Longitude": -60.7072
}
}
],
"PostCode": "69435-000"
}
]
},
{
"Name": "Manaus",
"Code": "1302603",
"PostCode": "69000-000",
"Communities": [
{
"Places": [
{
"Name": "Manaus",
"PostCode": "69000-000",
"Location": {
"Latitude": -2.6638,
"Longitude": -60.135
}
}
],
"PostCode": "69000-000"
}
]
},
{
"Name": "Manicoré",
"Code": "1302702",
"PostCode": "69280-000",
"Communities": [
{
"Places": [
{
"Name": "Manicoré",
"PostCode": "69280-000",
"Location": {
"Latitude": -7.0664,
"Longitude": -61.557
}
}
],
"PostCode": "69280-000"
}
]
},
{
"Name": "Maraã",
"Code": "1302801",
"PostCode": "69490-000",
"Communities": [
{
"Places": [
{
"Name": "Maraã",
"PostCode": "69490-000",
"Location": {
"Latitude": -2.6379,
"Longitude": -64.8042
}
}
],
"PostCode": "69490-000"
}
]
},
{
"Name": "Maués",
"Code": "1302900",
"PostCode": "69190-000",
"Communities": [
{
"Places": [
{
"Name": "Maués",
"PostCode": "69190-000",
"Location": {
"Latitude": -5.0633,
"Longitude": -58.3028
}
}
],
"PostCode": "69190-000"
}
]
},
{
"Name": "Nhamundá",
"Code": "1303007",
"PostCode": "69140-000",
"Communities": [
{
"Places": [
{
"Name": "Nhamundá",
"PostCode": "69140-000",
"Location": {
"Latitude": -1.3665,
"Longitude": -57.8879
}
}
],
"PostCode": "69140-000"
}
]
},
{
"Name": "Nova Olinda do Norte",
"Code": "1303106",
"PostCode": "69230-000",
"Communities": [
{
"Places": [
{
"Name": "Nova Olinda do Norte",
"PostCode": "69230-000",
"Location": {
"Latitude": -3.9464,
"Longitude": -58.5974
}
}
],
"PostCode": "69230-000"
}
]
},
{
"Name": "Novo Airão",
"Code": "1303205",
"PostCode": "69730-000",
"Communities": [
{
"Places": [
{
"Name": "Novo Airão",
"PostCode": "69730-000",
"Location": {
"Latitude": -1.9839,
"Longitude": -61.7851
}
}
],
"PostCode": "69730-000"
}
]
},
{
"Name": "Novo Aripuanã",
"Code": "1303304",
"PostCode": "69260-000",
"Communities": [
{
"Places": [
{
"Name": "Novo Aripuanã",
"PostCode": "69260-000",
"Location": {
"Latitude": -7.001,
"Longitude": -60.6302
}
}
],
"PostCode": "69260-000"
}
]
},
{
"Name": "Parintins",
"Code": "1303403",
"PostCode": "69150-000",
"Communities": [
{
"Places": [
{
"Name": "Parintins",
"PostCode": "69150-000",
"Location": {
"Latitude": -2.6634,
"Longitude": -56.9341
}
}
],
"PostCode": "69150-000"
}
]
},
{
"Name": "Pauini",
"Code": "1303502",
"PostCode": "69860-000",
"Communities": [
{
"Places": [
{
"Name": "Pauini",
"PostCode": "69860-000",
"Location": {
"Latitude": -7.6893,
"Longitude": -68.1422
}
}
],
"PostCode": "69860-000"
}
]
},
{
"Name": "Presidente Figueiredo",
"Code": "1303536",
"PostCode": "69735-000",
"Communities": [
{
"Places": [
{
"Name": "Presidente Figueiredo",
"PostCode": "69735-000",
"Location": {
"Latitude": -1.2834,
"Longitude": -59.9832
}
}
],
"PostCode": "69735-000"
}
]
},
{
"Name": "Rio Preto da Eva",
"Code": "1303569",
"PostCode": "69115-000",
"Communities": [
{
"Places": [
{
"Name": "Rio Preto da Eva",
"PostCode": "69115-000",
"Location": {
"Latitude": -2.4929,
"Longitude": -59.6078
}
}
],
"PostCode": "69115-000"
}
]
},
{
"Name": "Santa Isabel do Rio Negro",
"Code": "1303601",
"PostCode": "69740-000",
"Communities": [
{
"Places": [
{
"Name": "Santa Isabel do Rio Negro",
"PostCode": "69740-000",
"Location": {
"Latitude": -0.2548,
"Longitude": -65.5512
}
}
],
"PostCode": "69740-000"
}
]
},
{
"Name": "Santo Antônio do Içá",
"Code": "1303700",
"PostCode": "69680-000",
"Communities": [
{
"Places": [
{
"Name": "Santo Antônio do Içá",
"PostCode": "69680-000",
"Location": {
"Latitude": -3.09,
"Longitude": -68.7592
}
}
],
"PostCode": "69680-000"
}
]
},
{
"Name": "São Gabriel da Cachoeira",
"Code": "1303809",
"PostCode": "69750-000",
"Communities": [
{
"Places": [
{
"Name": "São Gabriel da Cachoeira",
"PostCode": "69750-000",
"Location": {
"Latitude": 0.2404,
"Longitude": -68.0324
}
}
],
"PostCode": "69750-000"
}
]
},
{
"Name": "São Paulo de Olivença",
"Code": "1303908",
"PostCode": "69600-000",
"Communities": [
{
"Places": [
{
"Name": "São Paulo de Olivença",
"PostCode": "69600-000",
"Location": {
"Latitude": -4.6509,
"Longitude": -69.5814
}
}
],
"PostCode": "69600-000"
}
]
},
{
"Name": "São Sebastião do Uatumã",
"Code": "1303957",
"PostCode": "69135-000",
"Communities": [
{
"Places": [
{
"Name": "São Sebastião do Uatumã",
"PostCode": "69135-000",
"Location": {
"Latitude": -1.932,
"Longitude": -58.7422
}
}
],
"PostCode": "69135-000"
}
]
},
{
"Name": "Silves",
"Code": "1304005",
"PostCode": "69110-000",
"Communities": [
{
"Places": [
{
"Name": "Silves",
"PostCode": "69110-000",
"Location": {
"Latitude": -2.7685,
"Longitude": -58.6275
}
}
],
"PostCode": "69110-000"
}
]
},
{
"Name": "Tabatinga",
"Code": "1304062",
"PostCode": "69640-000",
"Communities": [
{
"Places": [
{
"Name": "Tabatinga",
"PostCode": "69640-000",
"Location": {
"Latitude": -3.963,
"Longitude": -69.6027
}
}
],
"PostCode": "69640-000"
}
]
},
{
"Name": "Tapauá",
"Code": "1304104",
"PostCode": "69480-000",
"Communities": [
{
"Places": [
{
"Name": "Tapauá",
"PostCode": "69480-000",
"Location": {
"Latitude": -6.2142,
"Longitude": -65.6998
}
}
],
"PostCode": "69480-000"
}
]
},
{
"Name": "Tefé",
"Code": "1304203",
"PostCode": "69470-000",
"Communities": [
{
"Places": [
{
"Name": "Tefé",
"PostCode": "69470-000",
"Location": {
"Latitude": -4.5223,
"Longitude": -65.6045
}
}
],
"PostCode": "69470-000"
}
]
},
{
"Name": "Tonantins",
"Code": "1304237",
"PostCode": "69685-000",
"Communities": [
{
"Places": [
{
"Name": "Tonantins",
"PostCode": "69685-000",
"Location": {
"Latitude": -2.6409,
"Longitude": -67.8461
}
}
],
"PostCode": "69685-000"
}
]
},
{
"Name": "Uarini",
"Code": "1304260",
"PostCode": "69485-000",
"Communities": [
{
"Places": [
{
"Name": "Uarini",
"PostCode": "69485-000",
"Location": {
"Latitude": -3.1474,
"Longitude": -65.4204
}
}
],
"PostCode": "69485-000"
}
]
},
{
"Name": "Urucará",
"Code": "1304302",
"PostCode": "69130-000",
"Communities": [
{
"Places": [
{
"Name": "Urucará",
"PostCode": "69130-000",
"Location": {
"Latitude": -1.1928,
"Longitude": -58.8043
}
}
],
"PostCode": "69130-000"
}
]
},
{
"Name": "Urucurituba",
"Code": "1304401",
"PostCode": "69180-000",
"Communities": [
{
"Places": [
{
"Name": "Urucurituba",
"PostCode": "69180-000",
"Location": {
"Latitude": -2.8327,
"Longitude": -57.7501
}
}
],
"PostCode": "69180-000"
}
]
}
]
},
{
"Name": "Bahia",
"Code": "05",
"Provinces": [
{
"Communities": [
{
"Places": [
{
"Name": "Barro Preto",
"PostCode": "45625-000",
"Location": {
"Latitude": -14.8097,
"Longitude": -39.4714
}
},
{
"Name": "Livramento do Brumado",
"PostCode": "46140-000",
"Location": {
"Latitude": -13.6431,
"Longitude": -41.8406
}
}
]
}
]
},
{
"Name": "Abaíra",
"Code": "2900108",
"PostCode": "46690-000",
"Communities": [
{
"Places": [
{
"Name": "Abaíra",
"PostCode": "46690-000",
"Location": {
"Latitude": -13.3213,
"Longitude": -41.6976
}
}
],
"PostCode": "46690-000"
}
]
},
{
"Name": "Abaré",
"Code": "2900207",
"PostCode": "48680-000",
"Communities": [
{
"Places": [
{
"Name": "Abaré",
"PostCode": "48680-000",
"Location": {
"Latitude": -8.8096,
"Longitude": -39.2706
}
}
],
"PostCode": "48680-000"
}
]
},
{
"Name": "Acajutiba",
"Code": "2900306",
"PostCode": "48360-000",
"Communities": [
{
"Places": [
{
"Name": "Acajutiba",
"PostCode": "48360-000",
"Location": {
"Latitude": -11.6068,
"Longitude": -38.0359
}
}
],
"PostCode": "48360-000"
}
]
},
{
"Name": "Adustina",
"Code": "2900355",
"PostCode": "48435-000",
"Communities": [
{
"Places": [
{
"Name": "Adustina",
"PostCode": "48435-000",
"Location": {
"Latitude": -10.4823,
"Longitude": -37.9845
}
}
],
"PostCode": "48435-000"
}
]
},
{
"Name": "Água Fria",
"Code": "2900405",
"PostCode": "48170-000",
"Communities": [
{
"Places": [
{
"Name": "Água Fria",
"PostCode": "48170-000",
"Location": {
"Latitude": -11.7476,
"Longitude": -38.735
}
}
],
"PostCode": "48170-000"
}
]
},
{
"Name": "Érico Cardoso",
"Code": "2900504",
"PostCode": "46180-000",
"Communities": [
{
"Places": [
{
"Name": "Érico Cardoso",
"PostCode": "46180-000",
"Location": {
"Latitude": -13.4369,
"Longitude": -42.1033
}
}
],
"PostCode": "46180-000"
}
]
},
{
"Name": "Aiquara",
"Code": "2900603",
"PostCode": "45220-000",
"Communities": [
{
"Places": [
{
"Name": "Aiquara",
"PostCode": "45220-000",
"Location": {
"Latitude": -14.1114,
"Longitude": -39.8764
}
}
],
"PostCode": "45220-000"
}
]
},
{
"Name": "Alagoinhas",
"Code": "2900702",
"PostCode": "48000-000",
"Communities": [
{
"Places": [
{
"Name": "Alagoinhas",
"PostCode": "48000-000",
"Location": {
"Latitude": -12.0058,
"Longitude": -38.3615
}
}
],
"PostCode": "48000-000"
}
]
},
{
"Name": "Alcobaça",
"Code": "2900801",
"PostCode": "45990-000",
"Communities": [
{
"Places": [
{
"Name": "Alcobaça",
"PostCode": "45990-000",
"Location": {
"Latitude": -17.4636,
"Longitude": -39.374
}
}
],
"PostCode": "45990-000"
}
]
},
{
"Name": "Almadina",
"Code": "2900900",
"PostCode": "45640-000",
"Communities": [
{
"Places": [
{
"Name": "Almadina",
"PostCode": "45640-000",
"Location": {
"Latitude": -14.6761,
"Longitude": -39.6907
}
}
],
"PostCode": "45640-000"
}
]
},
{
"Name": "Amargosa",
"Code": "2901007",
"PostCode": "45300-000",
"Communities": [
{
"Places": [
{
"Name": "Amargosa",
"PostCode": "45300-000",
"Location": {
"Latitude": -13.0497,
"Longitude": -39.6072
}
}
],
"PostCode": "45300-000"
}
]
},
{
"Name": "Amélia Rodrigues",
"Code": "2901106",
"PostCode": "44230-000",
"Communities": [
{
"Places": [
{
"Name": "Amélia Rodrigues",
"PostCode": "44230-000",
"Location": {
"Latitude": -12.3118,
"Longitude": -38.7385
}
}
],
"PostCode": "44230-000"
}
]
},
{
"Name": "América Dourada",
"Code": "2901155",
"PostCode": "44910-000",
"Communities": [
{
"Places": [
{
"Name": "América Dourada",
"PostCode": "44910-000",
"Location": {
"Latitude": -11.4694,
"Longitude": -41.4733
}
}
],
"PostCode": "44910-000"
}
]
},
{
"Name": "Anagé",
"Code": "2901205",
"PostCode": "45180-000",
"Communities": [
{
"Places": [
{
"Name": "Anagé",
"PostCode": "45180-000",
"Location": {
"Latitude": -14.6617,
"Longitude": -41.147
}
}
],
"PostCode": "45180-000"
}
]
},
{
"Name": "Andaraí",
"Code": "2901304",
"PostCode": "46830-000",
"Communities": [
{
"Places": [
{
"Name": "Andaraí",
"PostCode": "46830-000",
"Location": {
"Latitude": -12.8417,
"Longitude": -41.2768
}
}
],
"PostCode": "46830-000"
}
]
},
{
"Name": "Andorinha",
"Code": "2901353",
"PostCode": "48990-000",
"Communities": [
{
"Places": [
{
"Name": "Andorinha",
"PostCode": "48990-000",
"Location": {
"Latitude": -10.2222,
"Longitude": -39.8639
}
}
],
"PostCode": "48990-000"
}
]
},
{
"Name": "Angical",
"Code": "2901403",
"PostCode": "47960-000",
"Communities": [
{
"Places": [
{
"Name": "Angical",
"PostCode": "47960-000",
"Location": {
"Latitude": -11.9628,
"Longitude": -44.7498
}
}
],
"PostCode": "47960-000"
}
]
},
{
"Name": "Anguera",
"Code": "2901502",
"PostCode": "44670-000",
"Communities": [
{
"Places": [
{
"Name": "Anguera",
"PostCode": "44670-000",
"Location": {
"Latitude": -12.1822,
"Longitude": -39.2138
}
}
],
"PostCode": "44670-000"
}
]
},
{
"Name": "Antas",
"Code": "2901601",
"PostCode": "48420-000",
"Communities": [
{
"Places": [
{
"Name": "Antas",
"PostCode": "48420-000",
"Location": {
"Latitude": -10.4214,
"Longitude": -38.3034
}
}
],
"PostCode": "48420-000"
}
]
},
{
"Name": "Antônio Cardoso",
"Code": "2901700",
"PostCode": "44180-000",
"Communities": [
{
"Places": [
{
"Name": "Antônio Cardoso",
"PostCode": "44180-000",
"Location": {
"Latitude": -12.3864,
"Longitude": -39.1455
}
}
],
"PostCode": "44180-000"
}
]
},
{
"Name": "Antônio Gonçalves",
"Code": "2901809",
"PostCode": "44780-000",
"Communities": [
{
"Places": [
{
"Name": "Antônio Gonçalves",
"PostCode": "44780-000",
"Location": {
"Latitude": -10.6228,
"Longitude": -40.4093
}
}
],
"PostCode": "44780-000"
}
]
},
{
"Name": "Aporá",
"Code": "2901908",
"PostCode": "48350-000",
"Communities": [
{
"Places": [
{
"Name": "Aporá",
"PostCode": "48350-000",
"Location": {
"Latitude": -11.7544,
"Longitude": -38.2278
}
}
],
"PostCode": "48350-000"
}
]
},
{
"Name": "Apuarema",
"Code": "2901957",
"PostCode": "45355-000",
"Communities": [
{
"Places": [
{
"Name": "Apuarema",
"PostCode": "45355-000",
"Location": {
"Latitude": -13.83,
"Longitude": -39.7344
}
}
],
"PostCode": "45355-000"
}
]
},
{
"Name": "Aracatu",
"Code": "2902005",
"PostCode": "46130-000",
"Communities": [
{
"Places": [
{
"Name": "Aracatu",
"PostCode": "46130-000",
"Location": {
"Latitude": -14.3901,
"Longitude": -41.3633
}
}
],
"PostCode": "46130-000"
}
]
},
{
"Name": "Araçás",
"Code": "2902054",
"PostCode": "48108-000",
"Communities": [
{
"Places": [
{
"Name": "Araças",
"PostCode": "48108-000",
"Location": {
"Latitude": -12.1468,
"Longitude": -38.1723
}
}
],
"PostCode": "48108-000"
}
]
},
{
"Name": "Araci",
"Code": "2902104",
"PostCode": "48760-000",
"Communities": [
{
"Places": [
{
"Name": "Araci",
"PostCode": "48760-000",
"Location": {
"Latitude": -11.1356,
"Longitude": -39.07
}
}
],
"PostCode": "48760-000"
}
]
},
{
"Name": "Aramari",
"Code": "2902203",
"PostCode": "48130-000",
"Communities": [
{
"Places": [
{
"Name": "Aramari",
"PostCode": "48130-000",
"Location": {
"Latitude": -12.0462,
"Longitude": -38.5576
}
}
],
"PostCode": "48130-000"
}
]
},
{
"Name": "Arataca",
"Code": "2902252",
"PostCode": "45695-000",
"Communities": [
{
"Places": [
{
"Name": "Arataca",
"PostCode": "45695-000",
"Location": {
"Latitude": -15.2461,
"Longitude": -39.4248
}
}
],
"PostCode": "45695-000"
}
]
},
{
"Name": "Aratuípe",
"Code": "2902302",
"PostCode": "44490-000",
"Communities": [
{
"Places": [
{
"Name": "Aratuípe",
"PostCode": "44490-000",
"Location": {
"Latitude": -13.0936,
"Longitude": -39.0826
}
}
],
"PostCode": "44490-000"
}
]
},
{
"Name": "Aurelino Leal",
"Code": "2902401",
"PostCode": "45675-000",
"Communities": [
{
"Places": [
{
"Name": "Aurelino Leal",
"PostCode": "45675-000",
"Location": {
"Latitude": -14.3317,
"Longitude": -39.5099
}
}
],
"PostCode": "45675-000"
}
]
},
{
"Name": "Baianópolis",
"Code": "2902500",
"PostCode": "47830-000",
"Communities": [
{
"Places": [
{
"Name": "Baianópolis",
"PostCode": "47830-000",
"Location": {
"Latitude": -12.4833,
"Longitude": -44.5311
}
}
],
"PostCode": "47830-000"
}
]
},
{
"Name": "Baixa Grande",
"Code": "2902609",
"PostCode": "44620-000",
"Communities": [
{
"Places": [
{
"Name": "Baixa Grande",
"PostCode": "44620-000",
"Location": {
"Latitude": -11.9774,
"Longitude": -40.1799
}
}
],
"PostCode": "44620-000"
}
]
},
{
"Name": "Banzaê",
"Code": "2902658",
"PostCode": "48405-000",
"Communities": [
{
"Places": [
{
"Name": "Banzaê",
"PostCode": "48405-000",
"Location": {
"Latitude": -10.6158,
"Longitude": -38.6269
}
}
],
"PostCode": "48405-000"
}
]
},
{
"Name": "Barra",
"Code": "2902708",
"PostCode": "47100-000",
"Communities": [
{
"Places": [
{
"Name": "Barra",
"PostCode": "47100-000",
"Location": {
"Latitude": -11.3183,
"Longitude": -43.4688
}
}
],
"PostCode": "47100-000"
}
]
},
{
"Name": "Barra da Estiva",
"Code": "2902807",
"PostCode": "46650-000",
"Communities": [
{
"Places": [
{
"Name": "Barra da Estiva",
"PostCode": "46650-000",
"Location": {
"Latitude": -13.7178,
"Longitude": -41.0838
}
}
],
"PostCode": "46650-000"
}
]
},
{
"Name": "Barra do Choça",
"Code": "2902906",
"PostCode": "45120-000",
"Communities": [
{
"Places": [
{
"Name": "Barra do Choça",
"PostCode": "45120-000",
"Location": {
"Latitude": -15.0102,
"Longitude": -40.6673
}
}
],
"PostCode": "45120-000"
}
]
},
{
"Name": "Barra do Mendes",
"Code": "2903003",
"PostCode": "44990-000",
"Communities": [
{
"Places": [
{
"Name": "Barra do Mendes",
"PostCode": "44990-000",
"Location": {
"Latitude": -12.1609,
"Longitude": -42.0354
}
}
],
"PostCode": "44990-000"
}
]
},
{
"Name": "Barra do Rocha",
"Code": "2903102",
"PostCode": "45560-000",
"Communities": [
{
"Places": [
{
"Name": "Barra do Rocha",
"PostCode": "45560-000",
"Location": {
"Latitude": -14.0603,
"Longitude": -39.6138
}
}
],
"PostCode": "45560-000"
}
]
},
{
"Name": "Barreiras",
"Code": "2903201",
"PostCode": "47800-000",
"Communities": [
{
"Places": [
{
"Name": "Barreiras",
"PostCode": "47800-000",
"Location": {
"Latitude": -11.9333,
"Longitude": -45.4924
}
}
],
"PostCode": "47800-000"
}
]
},
{
"Name": "Barro Alto",
"Code": "2903235",
"PostCode": "44895-000",
"Communities": [
{
"Places": [
{
"Name": "Barro Alto",
"PostCode": "44895-000",
"Location": {
"Latitude": -11.7739,
"Longitude": -41.9132
}
}
],
"PostCode": "44895-000"
}
]
},
{
"Name": "Belmonte",
"Code": "2903409",
"PostCode": "45800-000",
"Communities": [
{
"Places": [
{
"Name": "Belmonte",
"PostCode": "45800-000",
"Location": {
"Latitude": -15.8916,
"Longitude": -39.3227
}
}
],
"PostCode": "45800-000"
}
]
},
{
"Name": "Belo Campo",
"Code": "2903508",
"PostCode": "45160-000",
"Communities": [
{
"Places": [
{
"Name": "Belo Campo",
"PostCode": "45160-000",
"Location": {
"Latitude": -14.8742,
"Longitude": -41.2267
}
}
],
"PostCode": "45160-000"
}
]
},
{
"Name": "Biritinga",
"Code": "2903607",
"PostCode": "48780-000",
"Communities": [
{
"Places": [
{
"Name": "Biritinga",
"PostCode": "48780-000",
"Location": {
"Latitude": -11.6708,
"Longitude": -38.7893
}
}
],
"PostCode": "48780-000"
}
]
},
{
"Name": "Boa Nova",
"Code": "2903706",
"PostCode": "45250-000",
"Communities": [
{
"Places": [
{
"Name": "Boa Nova",
"PostCode": "45250-000",
"Location": {
"Latitude": -14.3641,
"Longitude": -40.2238
}
}
],
"PostCode": "45250-000"
}
]
},
{
"Name": "Boa Vista do Tupim",
"Code": "2903805",
"PostCode": "46850-000",
"Communities": [
{
"Places": [
{
"Name": "Boa Vista do Tupim",
"PostCode": "46850-000",
"Location": {
"Latitude": -12.8731,
"Longitude": -40.6282
}
}
],
"PostCode": "46850-000"
}
]
},
{
"Name": "Bom Jesus da Lapa",
"Code": "2903904",
"PostCode": "47600-000",
"Communities": [
{
"Places": [
{
"Name": "Bom Jesus da Lapa",
"PostCode": "47600-000",
"Location": {
"Latitude": -13.2085,
"Longitude": -43.2962
}
}
],
"PostCode": "47600-000"
}
]
},
{
"Name": "Bom Jesus da Serra",
"Code": "2903953",
"PostCode": "45263-000",
"Communities": [
{
"Places": [
{
"Name": "Bom Jesus da Serra",
"PostCode": "45263-000",
"Location": {
"Latitude": -14.3838,
"Longitude": -40.5398
}
}
],
"PostCode": "45263-000"
}
]
},
{
"Name": "Boninal",
"Code": "2904001",
"PostCode": "46740-000",
"Communities": [
{
"Places": [
{
"Name": "Boninal",
"PostCode": "46740-000",
"Location": {
"Latitude": -12.8036,
"Longitude": -41.6834
}
}
],
"PostCode": "46740-000"
}
]
},
{
"Name": "Bonito",
"Code": "2904050",
"PostCode": "46820-000",
"Communities": [
{
"Places": [
{
"Name": "Bonito",
"PostCode": "46820-000",
"Location": {
"Latitude": -12.0049,
"Longitude": -41.3178
}
}
],
"PostCode": "46820-000"
}
]
},
{
"Name": "Boquira",
"Code": "2904100",
"PostCode": "46530-000",
"Communities": [
{
"Places": [
{
"Name": "Boquira",
"PostCode": "46530-000",
"Location": {
"Latitude": -12.7394,
"Longitude": -42.6417
}
}
],
"PostCode": "46530-000"
}
]
},
{
"Name": "Botuporã",
"Code": "2904209",
"PostCode": "46570-000",
"Communities": [
{
"Places": [
{
"Name": "Botuporã",
"PostCode": "46570-000",
"Location": {
"Latitude": -13.2507,
"Longitude": -42.4108
}
}
],
"PostCode": "46570-000"
}
]
},
{
"Name": "Brejões",
"Code": "2904308",
"PostCode": "45325-000",
"Communities": [
{
"Places": [
{
"Name": "Brejões",
"PostCode": "45325-000",
"Location": {
"Latitude": -13.0706,
"Longitude": -39.821
}
}
],
"PostCode": "45325-000"
}
]
},
{
"Name": "Brejolândia",
"Code": "2904407",
"PostCode": "47750-000",
"Communities": [
{
"Places": [
{
"Name": "Brejolândia",
"PostCode": "47750-000",
"Location": {
"Latitude": -12.4124,
"Longitude": -43.9282
}
}
],
"PostCode": "47750-000"
}
]
},
{
"Name": "Brotas de Macaúbas",
"Code": "2904506",
"PostCode": "47560-000",
"Communities": [
{
"Places": [
{
"Name": "Brotas de Macaúbas",
"PostCode": "47560-000",
"Location": {
"Latitude": -12.1061,
"Longitude": -42.5111
}
}
],
"PostCode": "47560-000"
}
]
},
{
"Name": "Brumado",
"Code": "2904605",
"PostCode": "46100-000",
"Communities": [
{
"Places": [
{
"Name": "Brumado",
"PostCode": "46100-000",
"Location": {
"Latitude": -14.1526,
"Longitude": -41.6037
}
}
],
"PostCode": "46100-000"
}
]
},
{
"Name": "Buerarema",
"Code": "2904704",
"PostCode": "45615-000",
"Communities": [
{
"Places": [
{
"Name": "Buerarema",
"PostCode": "45615-000",
"Location": {
"Latitude": -14.9907,
"Longitude": -39.3059
}
}
],
"PostCode": "45615-000"
}
]
},
{
"Name": "Buritirama",
"Code": "2904753",
"PostCode": "47120-000",
"Communities": [
{
"Places": [
{
"Name": "Buritirama",
"PostCode": "47120-000",
"Location": {
"Latitude": -10.5708,
"Longitude": -43.6886
}
}
],
"PostCode": "47120-000"
}
]
},
{
"Name": "Caatiba",
"Code": "2904803",
"PostCode": "45130-000",
"Communities": [
{
"Places": [
{
"Name": "Caatiba",
"PostCode": "45130-000",
"Location": {
"Latitude": -15.0485,
"Longitude": -40.1459
}
}
],
"PostCode": "45130-000"
}
]
},
{
"Name": "Cabaceiras do Paraguaçu",
"Code": "2904852",
"PostCode": "44345-000",
"Communities": [
{
"Places": [
{
"Name": "Cabaceiras do Paraguaçu",
"PostCode": "44345-000",
"Location": {
"Latitude": -12.5542,
"Longitude": -39.196
}
}
],
"PostCode": "44345-000"
}
]
},
{
"Name": "Cachoeira",
"Code": "2904902",
"PostCode": "44300-000",
"Communities": [
{
"Places": [
{
"Name": "Cachoeira",
"PostCode": "44300-000",
"Location": {
"Latitude": -12.676,
"Longitude": -38.8541
}
}
],
"PostCode": "44300-000"
}
]
},
{
"Name": "Caculé",
"Code": "2905008",
"PostCode": "46300-000",
"Communities": [
{
"Places": [
{
"Name": "Caculé",
"PostCode": "46300-000",
"Location": {
"Latitude": -14.3883,
"Longitude": -42.4152
}
}
],
"PostCode": "46300-000"
}
]
},
{
"Name": "Caém",
"Code": "2905107",
"PostCode": "44730-000",
"Communities": [
{
"Places": [
{
"Name": "Caém",
"PostCode": "44730-000",
"Location": {
"Latitude": -11.194,
"Longitude": -40.2574
}
}
],
"PostCode": "44730-000"
}
]
},
{
"Name": "Caetanos",
"Code": "2905156",
"PostCode": "45265-000",
"Communities": [
{
"Places": [
{
"Name": "Caetanos",
"PostCode": "45265-000",
"Location": {
"Latitude": -14.2923,
"Longitude": -41.01
}
}
],
"PostCode": "45265-000"
}
]
},
{
"Name": "Caetité",
"Code": "2905206",
"PostCode": "46400-000",
"Communities": [
{
"Places": [
{
"Name": "Caetité",
"PostCode": "46400-000",
"Location": {
"Latitude": -13.9078,
"Longitude": -42.5223
}
}
],
"PostCode": "46400-000"
}
]
},
{
"Name": "Cafarnaum",
"Code": "2905305",
"PostCode": "44880-000",
"Communities": [
{
"Places": [
{
"Name": "Cafarnaum",
"PostCode": "44880-000",
"Location": {
"Latitude": -11.8067,
"Longitude": -41.384
}
}
],
"PostCode": "44880-000"
}
]
},
{
"Name": "Cairu",
"Code": "2905404",
"PostCode": "45420-000",
"Communities": [
{
"Places": [
{
"Name": "Cairu",
"PostCode": "45420-000",
"Location": {
"Latitude": -13.5266,
"Longitude": -38.9481
}
}
],
"PostCode": "45420-000"
}
]
},
{
"Name": "Caldeirão Grande",
"Code": "2905503",
"PostCode": "44750-000",
"Communities": [
{
"Places": [
{
"Name": "Caldeirão Grande",
"PostCode": "44750-000",
"Location": {
"Latitude": -11.0435,
"Longitude": -40.2951
}
}
],
"PostCode": "44750-000"
}
]
},
{
"Name": "Camacan",
"Code": "2905602",
"PostCode": "45880-000",
"Communities": [
{
"Places": [
{
"Name": "Camacan",
"PostCode": "45880-000",
"Location": {
"Latitude": -15.4277,
"Longitude": -39.5082
}
}
],
"PostCode": "45880-000"
}
]
},
{
"Name": "Camaçari",
"Code": "2905701",
"PostCode": "42800-000",
"Communities": [
{
"Places": [
{
"Name": "Camaçari",
"PostCode": "42800-000",
"Location": {
"Latitude": -12.619,
"Longitude": -38.2057
}
}
],
"PostCode": "42800-000"
}
]
},
{
"Name": "Camamu",
"Code": "2905800",
"PostCode": "45445-000",
"Communities": [
{
"Places": [
{
"Name": "Camamu",
"PostCode": "45445-000",
"Location": {
"Latitude": -14.0181,
"Longitude": -39.224
}
}
],
"PostCode": "45445-000"
}
]
},
{
"Name": "Campo Alegre de Lourdes",
"Code": "2905909",
"PostCode": "47220-000",
"Communities": [
{
"Places": [
{
"Name": "Campo Alegre de Lourdes",
"PostCode": "47220-000",
"Location": {
"Latitude": -9.501,
"Longitude": -42.9828
}
}
],
"PostCode": "47220-000"
}
]
},
{
"Name": "Campo Formoso",
"Code": "2906006",
"PostCode": "44790-000",
"Communities": [
{
"Places": [
{
"Name": "Campo Formoso",
"PostCode": "44790-000",
"Location": {
"Latitude": -10.3101,
"Longitude": -40.8108
}
}
],
"PostCode": "44790-000"
}
]
},
{
"Name": "Canápolis",
"Code": "2906105",
"PostCode": "47730-000",
"Communities": [
{
"Places": [
{
"Name": "Canápolis",
"PostCode": "47730-000",
"Location": {
"Latitude": -13.1252,
"Longitude": -44.251
}
}
],
"PostCode": "47730-000"
}
]
},
{
"Name": "Canarana",
"Code": "2906204",
"PostCode": "44890-000",
"Communities": [
{
"Places": [
{
"Name": "Canarana",
"PostCode": "44890-000",
"Location": {
"Latitude": -11.6678,
"Longitude": -41.7376
}
}
],
"PostCode": "44890-000"
}
]
},
{
"Name": "Canavieiras",
"Code": "2906303",
"PostCode": "45860-000",
"Communities": [
{
"Places": [
{
"Name": "Canavieiras",
"PostCode": "45860-000",
"Location": {
"Latitude": -15.6483,
"Longitude": -39.1709
}
}
],
"PostCode": "45860-000"
}
]
},
{
"Name": "Candeal",
"Code": "2906402",
"PostCode": "48710-000",
"Communities": [
{
"Places": [
{
"Name": "Candeal",
"PostCode": "48710-000",
"Location": {
"Latitude": -11.895,
"Longitude": -39.2039
}
}
],
"PostCode": "48710-000"
}
]
},
{
"Name": "Candeias",
"Code": "2906501",
"PostCode": "43800-000",
"Communities": [
{
"Places": [
{
"Name": "Candeias",
"PostCode": "43800-000",
"Location": {
"Latitude": -12.6557,
"Longitude": -38.487
}
}
],
"PostCode": "43800-000"
}
]
},
{
"Name": "Candiba",
"Code": "2906600",
"PostCode": "46380-000",
"Communities": [
{
"Places": [
{
"Name": "Candiba",
"PostCode": "46380-000",
"Location": {
"Latitude": -14.4697,
"Longitude": -42.8739
}
}
],
"PostCode": "46380-000"
}
]
},
{
"Name": "Cândido Sales",
"Code": "2906709",
"PostCode": "45157-000",
"Communities": [
{
"Places": [
{
"Name": "Cândido Sales",
"PostCode": "45157-000",
"Location": {
"Latitude": -15.4608,
"Longitude": -41.1635
}
}
],
"PostCode": "45157-000"
}
]
},
{
"Name": "Cansanção",
"Code": "2906808",
"PostCode": "48840-000",
"Communities": [
{
"Places": [
{
"Name": "Cansanção",
"PostCode": "48840-000",
"Location": {
"Latitude": -10.8118,
"Longitude": -39.4146
}
}
],
"PostCode": "48840-000"
}
]
},
{
"Name": "Canudos",
"Code": "2906824",
"PostCode": "48520-000",
"Communities": [
{
"Places": [
{
"Name": "Canudos",
"PostCode": "48520-000",
"Location": {
"Latitude": -9.8798,
"Longitude": -39.1472
}
}
],
"PostCode": "48520-000"
}
]
},
{
"Name": "Capela do Alto Alegre",
"Code": "2906857",
"PostCode": "44645-000",
"Communities": [
{
"Places": [
{
"Name": "Capela do Alto Alegre",
"PostCode": "44645-000",
"Location": {
"Latitude": -11.6184,
"Longitude": -39.8323
}
}
],
"PostCode": "44645-000"
}
]
},
{
"Name": "Capim Grosso",
"Code": "2906873",
"PostCode": "44695-000",
"Communities": [
{
"Places": [
{
"Name": "Capim Grosso",
"PostCode": "44695-000",
"Location": {
"Latitude": -11.2942,
"Longitude": -39.9557
}
}
],
"PostCode": "44695-000"
}
]
},
{
"Name": "Caraíbas",
"Code": "2906899",
"PostCode": "45177-000",
"Communities": [
{
"Places": [
{
"Name": "Caraíbas",
"PostCode": "45177-000",
"Location": {
"Latitude": -14.6063,
"Longitude": -41.2576
}
}
],
"PostCode": "45177-000"
}
]
},
{
"Name": "Caravelas",
"Code": "2906907",
"PostCode": "45900-000",
"Communities": [
{
"Places": [
{
"Name": "Caravelas",
"PostCode": "45900-000",
"Location": {
"Latitude": -17.6677,
"Longitude": -39.7562
}
}
],
"PostCode": "45900-000"
}
]
},
{
"Name": "Cardeal da Silva",
"Code": "2907004",
"PostCode": "48390-000",
"Communities": [
{
"Places": [
{
"Name": "Cardeal da Silva",
"PostCode": "48390-000",
"Location": {
"Latitude": -11.998,
"Longitude": -37.9247
}
}
],
"PostCode": "48390-000"
}
]
},
{
"Name": "Carinhanha",
"Code": "2907103",
"PostCode": "46445-000",
"Communities": [
{
"Places": [
{
"Name": "Carinhanha",
"PostCode": "46445-000",
"Location": {
"Latitude": -14.2139,
"Longitude": -43.8471
}
}
],
"PostCode": "46445-000"
}
]
},
{
"Name": "Casa Nova",
"Code": "2907202",
"PostCode": "47300-000",
"Communities": [
{
"Places": [
{
"Name": "Casa Nova",
"PostCode": "47300-000",
"Location": {
"Latitude": -9.1044,
"Longitude": -41.1574
}
}
],
"PostCode": "47300-000"
}
]
},
{
"Name": "Castro Alves",
"Code": "2907301",
"PostCode": "44500-000",
"Communities": [
{
"Places": [
{
"Name": "Castro Alves",
"PostCode": "44500-000",
"Location": {
"Latitude": -12.7494,
"Longitude": -39.3769
}
}
],
"PostCode": "44500-000"
}
]
},
{
"Name": "Catolândia",
"Code": "2907400",
"PostCode": "47815-000",
"Communities": [
{
"Places": [
{
"Name": "Catolândia",
"PostCode": "47815-000",
"Location": {
"Latitude": -12.2961,
"Longitude": -44.6753
}
}
],
"PostCode": "47815-000"
}
]
},
{
"Name": "Catu",
"Code": "2907509",
"PostCode": "48110-000",
"Communities": [
{
"Places": [
{
"Name": "Catu",
"PostCode": "48110-000",
"Location": {
"Latitude": -12.3776,
"Longitude": -38.4005
}
}
],
"PostCode": "48110-000"
}
]
},
{
"Name": "Caturama",
"Code": "2907558",
"PostCode": "46575-000",
"Communities": [
{
"Places": [
{
"Name": "Caturama",
"PostCode": "46575-000",
"Location": {
"Latitude": -13.186,
"Longitude": -42.3025
}
}
],
"PostCode": "46575-000"
}
]
},
{
"Name": "Central",
"Code": "2907608",
"PostCode": "44940-000",
"Communities": [
{
"Places": [
{
"Name": "Central",
"PostCode": "44940-000",
"Location": {
"Latitude": -11.1542,
"Longitude": -42.0815
}
}
],
"PostCode": "44940-000"
}
]
},
{
"Name": "Chorrochó",
"Code": "2907707",
"PostCode": "48660-000",
"Communities": [
{
"Places": [
{
"Name": "Chorrochó",
"PostCode": "48660-000",
"Location": {
"Latitude": -9.3055,
"Longitude": -39.1565
}
}
],
"PostCode": "48660-000"
}
]
},
{
"Name": "Cícero Dantas",
"Code": "2907806",
"PostCode": "48410-000",
"Communities": [
{
"Places": [
{
"Name": "Cícero Dantas",
"PostCode": "48410-000",
"Location": {
"Latitude": -10.5388,
"Longitude": -38.4214
}
}
],
"PostCode": "48410-000"
}
]
},
{
"Name": "Cipó",
"Code": "2907905",
"PostCode": "48450-000",
"Communities": [
{
"Places": [
{
"Name": "Cipó",
"PostCode": "48450-000",
"Location": {
"Latitude": -11.1104,
"Longitude": -38.5095
}
}
],
"PostCode": "48450-000"
}
]
},
{
"Name": "Coaraci",
"Code": "2908002",
"PostCode": "45638-000",
"Communities": [
{
"Places": [
{
"Name": "Coaraci",
"PostCode": "45638-000",
"Location": {
"Latitude": -14.6449,
"Longitude": -39.5938
}
}
],
"PostCode": "45638-000"
}
]
},
{
"Name": "Cocos",
"Code": "2908101",
"PostCode": "47680-000",
"Communities": [
{
"Places": [
{
"Name": "Cocos",
"PostCode": "47680-000",
"Location": {
"Latitude": -14.5944,
"Longitude": -45.2796
}
}
],
"PostCode": "47680-000"
}
]
},
{
"Name": "Conceição da Feira",
"Code": "2908200",
"PostCode": "44320-000",
"Communities": [
{
"Places": [
{
"Name": "Conceição da Feira",
"PostCode": "44320-000",
"Location": {
"Latitude": -12.5069,
"Longitude": -38.9947
}
}
],
"PostCode": "44320-000"
}
]
},
{
"Name": "Conceição do Almeida",
"Code": "2908309",
"PostCode": "44540-000",
"Communities": [
{
"Places": [
{
"Name": "Conceição do Almeida",
"PostCode": "44540-000",
"Location": {
"Latitude": -12.855,
"Longitude": -39.2409
}
}
],
"PostCode": "44540-000"
}
]
},
{
"Name": "Conceição do Coité",
"Code": "2908408",
"PostCode": "48730-000",
"Communities": [
{
"Places": [
{
"Name": "Conceição do Coité",
"PostCode": "48730-000",
"Location": {
"Latitude": -11.6321,
"Longitude": -39.1911
}
}
],
"PostCode": "48730-000"
}
]
},
{
"Name": "Conceição do Jacuípe",
"Code": "2908507",
"PostCode": "44245-000",
"Communities": [
{
"Places": [
{
"Name": "Conceição do Jacuípe",
"PostCode": "44245-000",
"Location": {
"Latitude": -12.4217,
"Longitude": -38.6986
}
}
],
"PostCode": "44245-000"
}
]
},
{
"Name": "Conde",
"Code": "2908606",
"PostCode": "48300-000",
"Communities": [
{
"Places": [
{
"Name": "Conde",
"PostCode": "48300-000",
"Location": {
"Latitude": -11.8033,
"Longitude": -37.6482
}
}
],
"PostCode": "48300-000"
}
]
},
{
"Name": "Condeúba",
"Code": "2908705",
"PostCode": "46200-000",
"Communities": [
{
"Places": [
{
"Name": "Condeúba",
"PostCode": "46200-000",
"Location": {
"Latitude": -14.9327,
"Longitude": -42.0069
}
}
],
"PostCode": "46200-000"
}
]
},
{
"Name": "Contendas do Sincorá",
"Code": "2908804",
"PostCode": "46620-000",
"Communities": [
{
"Places": [
{
"Name": "Contendas do Sincorá",
"PostCode": "46620-000",
"Location": {
"Latitude": -13.796,
"Longitude": -41.05
}
}
],
"PostCode": "46620-000"
}
]
},
{
"Name": "Coração de Maria",
"Code": "2908903",
"PostCode": "44250-000",
"Communities": [
{
"Places": [
{
"Name": "Coração de Maria",
"PostCode": "44250-000",
"Location": {
"Latitude": -12.2427,
"Longitude": -38.7824
}
}
],
"PostCode": "44250-000"
}
]
},
{
"Name": "Cordeiros",
"Code": "2909000",
"PostCode": "46280-000",
"Communities": [
{
"Places": [
{
"Name": "Cordeiros",
"PostCode": "46280-000",
"Location": {
"Latitude": -14.9985,
"Longitude": -41.8975
}
}
],
"PostCode": "46280-000"
}
]
},
{
"Name": "Coribe",
"Code": "2909109",
"PostCode": "47690-000",
"Communities": [
{
"Places": [
{
"Name": "Coribe",
"PostCode": "47690-000",
"Location": {
"Latitude": -13.7234,
"Longitude": -44.4354
}
}
],
"PostCode": "47690-000"
}
]
},
{
"Name": "Coronel João Sá",
"Code": "2909208",
"PostCode": "48590-000",
"Communities": [
{
"Places": [
{
"Name": "Coronel João Sá",
"PostCode": "48590-000",
"Location": {
"Latitude": -10.3888,
"Longitude": -37.9428
}
}
],
"PostCode": "48590-000"
}
]
},
{
"Name": "Correntina",
"Code": "2909307",
"PostCode": "47650-000",
"Communities": [
{
"Places": [
{
"Name": "Correntina",
"PostCode": "47650-000",
"Location": {
"Latitude": -13.2899,
"Longitude": -45.1319
}
}
],
"PostCode": "47650-000"
}
]
},
{
"Name": "Cotegipe",
"Code": "2909406",
"PostCode": "47900-000",
"Communities": [
{
"Places": [
{
"Name": "Cotegipe",
"PostCode": "47900-000",
"Location": {
"Latitude": -11.5884,
"Longitude": -44.17
}
}
],
"PostCode": "47900-000"
}
]
},
{
"Name": "Cravolândia",
"Code": "2909505",
"PostCode": "45330-000",
"Communities": [
{
"Places": [
{
"Name": "Cravolândia",
"PostCode": "45330-000",
"Location": {
"Latitude": -13.4702,
"Longitude": -39.7549
}
}
],
"PostCode": "45330-000"
}
]
},
{
"Name": "Crisópolis",
"Code": "2909604",
"PostCode": "48480-000",
"Communities": [
{
"Places": [
{
"Name": "Crisópolis",
"PostCode": "48480-000",
"Location": {
"Latitude": -11.4553,
"Longitude": -38.1393
}
}
],
"PostCode": "48480-000"
}
]
},
{
"Name": "Cristópolis",
"Code": "2909703",
"PostCode": "47950-000",
"Communities": [
{
"Places": [
{
"Name": "Cristópolis",
"PostCode": "47950-000",
"Location": {
"Latitude": -12.2179,
"Longitude": -44.2499
}
}
],
"PostCode": "47950-000"
}
]
},
{
"Name": "Cruz das Almas",
"Code": "2909802",
"PostCode": "44380-000",
"Communities": [
{
"Places": [
{
"Name": "Cruz das Almas",
"PostCode": "44380-000",
"Location": {
"Latitude": -12.6703,
"Longitude": -39.1144
}
}
],
"PostCode": "44380-000"
}
]
},
{
"Name": "Curaçá",
"Code": "2909901",
"PostCode": "48930-000",
"Communities": [
{
"Places": [
{
"Name": "Curaçá",
"PostCode": "48930-000",
"Location": {
"Latitude": -9.1346,
"Longitude": -39.6685
}
}
],
"PostCode": "48930-000"
}
]
},
{
"Name": "Dário Meira",
"Code": "2910008",
"PostCode": "45590-000",
"Communities": [
{
"Places": [
{
"Name": "Dário Meira",
"PostCode": "45590-000",
"Location": {
"Latitude": -14.4234,
"Longitude": -39.9593
}
}
],
"PostCode": "45590-000"
}
]
},
{
"Name": "Dias d'Ávila",
"Code": "2910057",
"PostCode": "42850-000",
"Communities": [
{
"Places": [
{
"Name": "Dias d'Ávila",
"PostCode": "42850-000",
"Location": {
"Latitude": -12.5968,
"Longitude": -38.2807
}
}
],
"PostCode": "42850-000"
}
]
},
{
"Name": "Dom Basílio",
"Code": "2910107",
"PostCode": "46165-000",
"Communities": [
{
"Places": [
{
"Name": "Dom Basílio",
"PostCode": "46165-000",
"Location": {
"Latitude": -13.7972,
"Longitude": -41.7088
}
}
],
"PostCode": "46165-000"
}
]
},
{
"Name": "Dom Macedo Costa",
"Code": "2910206",
"PostCode": "44560-000",
"Communities": [
{
"Places": [
{
"Name": "Dom Macedo Costa",
"PostCode": "44560-000",
"Location": {
"Latitude": -12.9338,
"Longitude": -39.1462
}
}
],
"PostCode": "44560-000"
}
]
},
{
"Name": "Elísio Medrado",
"Code": "2910305",
"PostCode": "45305-000",
"Communities": [
{
"Places": [
{
"Name": "Elísio Medrado",
"PostCode": "45305-000",
"Location": {
"Latitude": -12.9543,
"Longitude": -39.5058
}
}
],
"PostCode": "45305-000"
}
]
},
{
"Name": "Encruzilhada",
"Code": "2910404",
"PostCode": "45150-000",
"Communities": [
{
"Places": [
{
"Name": "Encruzilhada",
"PostCode": "45150-000",
"Location": {
"Latitude": -15.5684,
"Longitude": -40.9079
}
}
],
"PostCode": "45150-000"
}
]
},
{
"Name": "Entre Rios",
"Code": "2910503",
"PostCode": "48180-000",
"Communities": [
{
"Places": [
{
"Name": "Entre Rios",
"PostCode": "48180-000",
"Location": {
"Latitude": -12.0697,
"Longitude": -38.0299
}
}
],
"PostCode": "48180-000"
}
]
},
{
"Name": "Esplanada",
"Code": "2910602",
"PostCode": "48370-000",
"Communities": [
{
"Places": [
{
"Name": "Esplanada",
"PostCode": "48370-000",
"Location": {
"Latitude": -11.9547,
"Longitude": -37.8936
}
}
],
"PostCode": "48370-000"
}
]
},
{
"Name": "Euclides da Cunha",
"Code": "2910701",
"PostCode": "48500-000",
"Communities": [
{
"Places": [
{
"Name": "Euclides da Cunha",
"PostCode": "48500-000",
"Location": {
"Latitude": -10.4051,
"Longitude": -39.0337
}
}
],
"PostCode": "48500-000"
}
]
},
{
"Name": "Eunápolis",
"Code": "2910727",
"PostCode": "45820-000",
"Communities": [
{
"Places": [
{
"Name": "Eunápolis",
"PostCode": "45820-000",
"Location": {
"Latitude": -16.3122,
"Longitude": -39.6702
}
}
],
"PostCode": "45820-000"
}
]
},
{
"Name": "Fátima",
"Code": "2910750",
"PostCode": "48415-000",
"Communities": [
{
"Places": [
{
"Name": "Fátima",
"PostCode": "48415-000",
"Location": {
"Latitude": -10.546,
"Longitude": -38.2237
}
}
],
"PostCode": "48415-000"
}
]
},
{
"Name": "Feira da Mata",
"Code": "2910776",
"PostCode": "46446-000",
"Communities": [
{
"Places": [
{
"Name": "Feira da Mata",
"PostCode": "46446-000",
"Location": {
"Latitude": -14.132,
"Longitude": -44.2528
}
}
],
"PostCode": "46446-000"
}
]
},
{
"Name": "Feira de Santana",
"Code": "2910800",
"PostCode": "44000-000",
"Communities": [
{
"Places": [
{
"Name": "Feira de Santana",
"PostCode": "44000-000",
"Location": {
"Latitude": -12.2337,
"Longitude": -39.0656
}
}
],
"PostCode": "44000-000"
}
]
},
{
"Name": "Filadélfia",
"Code": "2910859",
"PostCode": "44775-000",
"Communities": [
{
"Places": [
{
"Name": "Filadélfia",
"PostCode": "44775-000",
"Location": {
"Latitude": -10.7663,
"Longitude": -40.2056
}
}
],
"PostCode": "44775-000"
}
]
},
{
"Name": "Firmino Alves",
"Code": "2910909",
"PostCode": "45720-000",
"Communities": [
{
"Places": [
{
"Name": "Firmino Alves",
"PostCode": "45720-000",
"Location": {
"Latitude": -14.9136,
"Longitude": -39.9119
}
}
],
"PostCode": "45720-000"
}
]
},
{
"Name": "Floresta Azul",
"Code": "2911006",
"PostCode": "45740-000",
"Communities": [
{
"Places": [
{
"Name": "Floresta Azul",
"PostCode": "45740-000",
"Location": {
"Latitude": -14.8445,
"Longitude": -39.755
}
}
],
"PostCode": "45740-000"
}
]
},
{
"Name": "Formosa do Rio Preto",
"Code": "2911105",
"PostCode": "47990-000",
"Communities": [
{
"Places": [
{
"Name": "Formosa do Rio Preto",
"PostCode": "47990-000",
"Location": {
"Latitude": -10.8886,
"Longitude": -45.9121
}
}
],
"PostCode": "47990-000"
}
]
},
{
"Name": "Gandu",
"Code": "2911204",
"PostCode": "45450-000",
"Communities": [
{
"Places": [
{
"Name": "Gandu",
"PostCode": "45450-000",
"Location": {
"Latitude": -13.8156,
"Longitude": -39.4474
}
}
],
"PostCode": "45450-000"
}
]
},
{
"Name": "Gavião",
"Code": "2911253",
"PostCode": "44650-000",
"Communities": [
{
"Places": [
{
"Name": "Gavião",
"PostCode": "44650-000",
"Location": {
"Latitude": -11.4889,
"Longitude": -39.7741
}
}
],
"PostCode": "44650-000"
}
]
},
{
"Name": "Gentio do Ouro",
"Code": "2911303",
"PostCode": "47450-000",
"Communities": [
{
"Places": [
{
"Name": "Gentio do Ouro",
"PostCode": "47450-000",
"Location": {
"Latitude": -11.3628,
"Longitude": -42.5483
}
}
],
"PostCode": "47450-000"
}
]
},
{
"Name": "Glória",
"Code": "2911402",
"PostCode": "48610-000",
"Communities": [
{
"Places": [
{
"Name": "Glória",
"PostCode": "48610-000",
"Location": {
"Latitude": -9.111,
"Longitude": -38.4065
}
}
],
"PostCode": "48610-000"
}
]
},
{
"Name": "Gongogi",
"Code": "2911501",
"PostCode": "45540-000",
"Communities": [
{
"Places": [
{
"Name": "Gongogi",
"PostCode": "45540-000",
"Location": {
"Latitude": -14.3,
"Longitude": -39.6014
}
}
],
"PostCode": "45540-000"
}
]
},
{
"Name": "Governador Mangabeira",
"Code": "2911600",
"PostCode": "44350-000",
"Communities": [
{
"Places": [
{
"Name": "Governador Mangabeira",
"PostCode": "44350-000",
"Location": {
"Latitude": -12.5772,
"Longitude": -39.0311
}
}
],
"PostCode": "44350-000"
}
]
},
{
"Name": "Guajeru",
"Code": "2911659",
"PostCode": "46205-000",
"Communities": [
{
"Places": [
{
"Name": "Guajeru",
"PostCode": "46205-000",
"Location": {
"Latitude": -14.5788,
"Longitude": -42.0399
}
}
],
"PostCode": "46205-000"
}
]
},
{
"Name": "Guanambi",
"Code": "2911709",
"PostCode": "46430-000",
"Communities": [
{
"Places": [
{
"Name": "Guanambi",
"PostCode": "46430-000",
"Location": {
"Latitude": -14.133,
"Longitude": -42.824
}
}
],
"PostCode": "46430-000"
}
]
},
{
"Name": "Guaratinga",
"Code": "2911808",
"PostCode": "45840-000",
"Communities": [
{
"Places": [
{
"Name": "Guaratinga",
"PostCode": "45840-000",
"Location": {
"Latitude": -16.5699,
"Longitude": -39.9782
}
}
],
"PostCode": "45840-000"
}
]
},
{
"Name": "Heliópolis",
"Code": "2911857",
"PostCode": "48445-000",
"Communities": [
{
"Places": [
{
"Name": "Heliópolis",
"PostCode": "48445-000",
"Location": {
"Latitude": -10.7286,
"Longitude": -38.2549
}
}
],
"PostCode": "48445-000"
}
]
},
{
"Name": "Iaçu",
"Code": "2911907",
"PostCode": "46860-000",
"Communities": [
{
"Places": [
{
"Name": "Iaçu",
"PostCode": "46860-000",
"Location": {
"Latitude": -12.7698,
"Longitude": -40.1834
}
}
],
"PostCode": "46860-000"
}
]
},
{
"Name": "Ibiassucê",
"Code": "2912004",
"PostCode": "46390-000",
"Communities": [
{
"Places": [
{
"Name": "Ibiassucê",
"PostCode": "46390-000",
"Location": {
"Latitude": -14.2029,
"Longitude": -42.3021
}
}
],
"PostCode": "46390-000"
}
]
},
{
"Name": "Ibicaraí",
"Code": "2912103",
"PostCode": "45745-000",
"Communities": [
{
"Places": [
{
"Name": "Ibicaraí",
"PostCode": "45745-000",
"Location": {
"Latitude": -14.8744,
"Longitude": -39.5598
}
}
],
"PostCode": "45745-000"
}
]
},
{
"Name": "Ibicoara",
"Code": "2912202",
"PostCode": "46760-000",
"Communities": [
{
"Places": [
{
"Name": "Ibicoara",
"PostCode": "46760-000",
"Location": {
"Latitude": -13.3766,
"Longitude": -41.3408
}
}
],
"PostCode": "46760-000"
}
]
},
{
"Name": "Ibicuí",
"Code": "2912301",
"PostCode": "45290-000",
"Communities": [
{
"Places": [
{
"Name": "Ibicuí",
"PostCode": "45290-000",
"Location": {
"Latitude": -14.6097,
"Longitude": -39.8557
}
}
],
"PostCode": "45290-000"
}
]
},
{
"Name": "Ibipeba",
"Code": "2912400",
"PostCode": "44970-000",
"Communities": [
{
"Places": [
{
"Name": "Ibipeba",
"PostCode": "44970-000",
"Location": {
"Latitude": -11.4978,
"Longitude": -42.1908
}
}
],
"PostCode": "44970-000"
}
]
},
{
"Name": "Ibipitanga",
"Code": "2912509",
"PostCode": "46540-000",
"Communities": [
{
"Places": [
{
"Name": "Ibipitanga",
"PostCode": "46540-000",
"Location": {
"Latitude": -12.8865,
"Longitude": -42.3711
}
}
],
"PostCode": "46540-000"
}
]
},
{
"Name": "Ibiquera",
"Code": "2912608",
"PostCode": "46840-000",
"Communities": [
{
"Places": [
{
"Name": "Ibiquera",
"PostCode": "46840-000",
"Location": {
"Latitude": -12.5726,
"Longitude": -40.8416
}
}
],
"PostCode": "46840-000"
}
]
},
{
"Name": "Ibirapitanga",
"Code": "2912707",
"PostCode": "45500-000",
"Communities": [
{
"Places": [
{
"Name": "Ibirapitanga",
"PostCode": "45500-000",
"Location": {
"Latitude": -14.0589,
"Longitude": -39.4082
}
}
],
"PostCode": "45500-000"
}
]
},
{
"Name": "Ibirapuã",
"Code": "2912806",
"PostCode": "45940-000",
"Communities": [
{
"Places": [
{
"Name": "Ibirapuã",
"PostCode": "45940-000",
"Location": {
"Latitude": -17.7557,
"Longitude": -39.9737
}
}
],
"PostCode": "45940-000"
}
]
},
{
"Name": "Ibirataia",
"Code": "2912905",
"PostCode": "45580-000",
"Communities": [
{
"Places": [
{
"Name": "Ibirataia",
"PostCode": "45580-000",
"Location": {
"Latitude": -13.9729,
"Longitude": -39.6371
}
}
],
"PostCode": "45580-000"
}
]
},
{
"Name": "Ibitiara",
"Code": "2913002",
"PostCode": "46700-000",
"Communities": [
{
"Places": [
{
"Name": "Ibitiara",
"PostCode": "46700-000",
"Location": {
"Latitude": -12.5658,
"Longitude": -42.3899
}
}
],
"PostCode": "46700-000"
}
]
},
{
"Name": "Ibititá",
"Code": "2913101",
"PostCode": "44960-000",
"Communities": [
{
"Places": [
{
"Name": "Ibititá",
"PostCode": "44960-000",
"Location": {
"Latitude": -11.6935,
"Longitude": -41.8415
}
}
],
"PostCode": "44960-000"
}
]
},
{
"Name": "Ibotirama",
"Code": "2913200",
"PostCode": "47520-000",
"Communities": [
{
"Places": [
{
"Name": "Ibotirama",
"PostCode": "47520-000",
"Location": {
"Latitude": -11.8862,
"Longitude": -43.2529
}
}
],
"PostCode": "47520-000"
}
]
},
{
"Name": "Ichu",
"Code": "2913309",
"PostCode": "48725-000",
"Communities": [
{
"Places": [
{
"Name": "Ichu",
"PostCode": "48725-000",
"Location": {
"Latitude": -11.7034,
"Longitude": -39.1872
}
}
],
"PostCode": "48725-000"
}
]
},
{
"Name": "Igaporã",
"Code": "2913408",
"PostCode": "46490-000",
"Communities": [
{
"Places": [
{
"Name": "Igaporã",
"PostCode": "46490-000",
"Location": {
"Latitude": -13.8906,
"Longitude": -42.7605
}
}
],
"PostCode": "46490-000"
}
]
},
{
"Name": "Igrapiúna",
"Code": "2913457",
"PostCode": "45443-000",
"Communities": [
{
"Places": [
{
"Name": "Igrapiúna",
"PostCode": "45443-000",
"Location": {
"Latitude": -13.8561,
"Longitude": -39.1936
}
}
],
"PostCode": "45443-000"
}
]
},
{
"Name": "Iguaí",
"Code": "2913507",
"PostCode": "45280-000",
"Communities": [
{
"Places": [
{
"Name": "Iguaí",
"PostCode": "45280-000",
"Location": {
"Latitude": -14.6182,
"Longitude": -40.0616
}
}
],
"PostCode": "45280-000"
}
]
},
{
"Name": "Ilhéus",
"Code": "2913606",
"PostCode": "45650-000",
"Communities": [
{
"Places": [
{
"Name": "Ilhéus",
"PostCode": "45650-000",
"Location": {
"Latitude": -14.7594,
"Longitude": -39.2179
}
}
],
"PostCode": "45650-000"
}
]
},
{
"Name": "Inhambupe",
"Code": "2913705",
"PostCode": "48490-000",
"Communities": [
{
"Places": [
{
"Name": "Inhambupe",
"PostCode": "48490-000",
"Location": {
"Latitude": -11.7966,
"Longitude": -38.3704
}
}
],
"PostCode": "48490-000"
}
]
},
{
"Name": "Ipecaetá",
"Code": "2913804",
"PostCode": "44680-000",
"Communities": [
{
"Places": [
{
"Name": "Ipecaetá",
"PostCode": "44680-000",
"Location": {
"Latitude": -12.3378,
"Longitude": -39.3283
}
}
],
"PostCode": "44680-000"
}
]
},
{
"Name": "Ipiaú",
"Code": "2913903",
"PostCode": "45570-000",
"Communities": [
{
"Places": [
{
"Name": "Ipiaú",
"PostCode": "45570-000",
"Location": {
"Latitude": -14.0571,
"Longitude": -39.7255
}
}
],
"PostCode": "45570-000"
}
]
},
{
"Name": "Ipirá",
"Code": "2914000",
"PostCode": "44600-000",
"Communities": [
{
"Places": [
{
"Name": "Ipirá",
"PostCode": "44600-000",
"Location": {
"Latitude": -12.2741,
"Longitude": -39.9164
}
}
],
"PostCode": "44600-000"
}
]
},
{
"Name": "Ipupiara",
"Code": "2914109",
"PostCode": "47590-000",
"Communities": [
{
"Places": [
{
"Name": "Ipupiara",
"PostCode": "47590-000",
"Location": {
"Latitude": -11.7695,
"Longitude": -42.433
}
}
],
"PostCode": "47590-000"
}
]
},
{
"Name": "Irajuba",
"Code": "2914208",
"PostCode": "45370-000",
"Communities": [
{
"Places": [
{
"Name": "Irajuba",
"PostCode": "45370-000",
"Location": {
"Latitude": -13.18,
"Longitude": -39.9953
}
}
],
"PostCode": "45370-000"
}
]
},
{
"Name": "Iramaia",
"Code": "2914307",
"PostCode": "46770-000",
"Communities": [
{
"Places": [
{
"Name": "Iramaia",
"PostCode": "46770-000",
"Location": {
"Latitude": -13.5463,
"Longitude": -40.8283
}
}
],
"PostCode": "46770-000"
}
]
},
{
"Name": "Iraquara",
"Code": "2914406",
"PostCode": "46980-000",
"Communities": [
{
"Places": [
{
"Name": "Iraquara",
"PostCode": "46980-000",
"Location": {
"Latitude": -12.2862,
"Longitude": -41.5915
}
}
],
"PostCode": "46980-000"
}
]
},
{
"Name": "Irará",
"Code": "2914505",
"PostCode": "44255-000",
"Communities": [
{
"Places": [
{
"Name": "Irará",
"PostCode": "44255-000",
"Location": {
"Latitude": -12.049,
"Longitude": -38.7362
}
}
],
"PostCode": "44255-000"
}
]
},
{
"Name": "Irecê",
"Code": "2914604",
"PostCode": "44900-000",
"Communities": [
{
"Places": [
{
"Name": "Irecê",
"PostCode": "44900-000",
"Location": {
"Latitude": -11.3032,
"Longitude": -41.8344
}
}
],
"PostCode": "44900-000"
}
]
},
{
"Name": "Itabela",
"Code": "2914653",
"PostCode": "45848-000",
"Communities": [
{
"Places": [
{
"Name": "Itabela",
"PostCode": "45848-000",
"Location": {
"Latitude": -16.7164,
"Longitude": -39.5733
}
}
],
"PostCode": "45848-000"
}
]
},
{
"Name": "Itaberaba",
"Code": "2914703",
"PostCode": "46880-000",
"Communities": [
{
"Places": [
{
"Name": "Itaberaba",
"PostCode": "46880-000",
"Location": {
"Latitude": -12.451,
"Longitude": -40.2031
}
}
],
"PostCode": "46880-000"
}
]
},
{
"Name": "Itabuna",
"Code": "2914802",
"PostCode": "45600-000",
"Communities": [
{
"Places": [
{
"Name": "Itabuna",
"PostCode": "45600-000",
"Location": {
"Latitude": -14.8815,
"Longitude": -39.3671
}
}
],
"PostCode": "45600-000"
}
]
},
{
"Name": "Itacaré",
"Code": "2914901",
"PostCode": "45530-000",
"Communities": [
{
"Places": [
{
"Name": "Itacaré",
"PostCode": "45530-000",
"Location": {
"Latitude": -14.3695,
"Longitude": -39.1251
}
}
],
"PostCode": "45530-000"
}
]
},
{
"Name": "Itaeté",
"Code": "2915007",
"PostCode": "46790-000",
"Communities": [
{
"Places": [
{
"Name": "Itaeté",
"PostCode": "46790-000",
"Location": {
"Latitude": -12.9807,
"Longitude": -40.9551
}
}
],
"PostCode": "46790-000"
}
]
},
{
"Name": "Itagi",
"Code": "2915106",
"PostCode": "45230-000",
"Communities": [
{
"Places": [
{
"Name": "Itagi",
"PostCode": "45230-000",
"Location": {
"Latitude": -14.197,
"Longitude": -40.033
}
}
],
"PostCode": "45230-000"
}
]
},
{
"Name": "Itagibá",
"Code": "2915205",
"PostCode": "45585-000",
"Communities": [
{
"Places": [
{
"Name": "Itagibá",
"PostCode": "45585-000",
"Location": {
"Latitude": -14.2464,
"Longitude": -39.8497
}
}
],
"PostCode": "45585-000"
}
]
},
{
"Name": "Itagimirim",
"Code": "2915304",
"PostCode": "45850-000",
"Communities": [
{
"Places": [
{
"Name": "Itagimirim",
"PostCode": "45850-000",
"Location": {
"Latitude": -16.1347,
"Longitude": -39.8165
}
}
],
"PostCode": "45850-000"
}
]
},
{
"Name": "Itaguaçu da Bahia",
"Code": "2915353",
"PostCode": "47440-000",
"Communities": [
{
"Places": [
{
"Name": "Itaguaçu da Bahia",
"PostCode": "47440-000",
"Location": {
"Latitude": -10.6426,
"Longitude": -42.2108
}
}
],
"PostCode": "47440-000"
}
]
},
{
"Name": "Itaju do Colônia",
"Code": "2915403",
"PostCode": "45730-000",
"Communities": [
{
"Places": [
{
"Name": "Itaju do Colônia",
"PostCode": "45730-000",
"Location": {
"Latitude": -15.1551,
"Longitude": -39.716
}
}
],
"PostCode": "45730-000"
}
]
},
{
"Name": "Itajuípe",
"Code": "2915502",
"PostCode": "45630-000",
"Communities": [
{
"Places": [
{
"Name": "Itajuípe",
"PostCode": "45630-000",
"Location": {
"Latitude": -14.6919,
"Longitude": -39.4292
}
}
],
"PostCode": "45630-000"
}
]
},
{
"Name": "Itamaraju",
"Code": "2915601",
"PostCode": "45836-000",
"Communities": [
{
"Places": [
{
"Name": "Itamaraju",
"PostCode": "45836-000",
"Location": {
"Latitude": -16.9452,
"Longitude": -39.8127
}
}
],
"PostCode": "45836-000"
}
]
},
{
"Name": "Itamari",
"Code": "2915700",
"PostCode": "45455-000",
"Communities": [
{
"Places": [
{
"Name": "Itamari",
"PostCode": "45455-000",
"Location": {
"Latitude": -13.7859,
"Longitude": -39.6842
}
}
],
"PostCode": "45455-000"
}
]
},
{
"Name": "Itambé",
"Code": "2915809",
"PostCode": "45140-000",
"Communities": [
{
"Places": [
{
"Name": "Itambé",
"PostCode": "45140-000",
"Location": {
"Latitude": -15.2248,
"Longitude": -40.4951
}
}
],
"PostCode": "45140-000"
}
]
},
{
"Name": "Itanagra",
"Code": "2915908",
"PostCode": "48290-000",
"Communities": [
{
"Places": [
{
"Name": "Itanagra",
"PostCode": "48290-000",
"Location": {
"Latitude": -12.3098,
"Longitude": -38.1133
}
}
],
"PostCode": "48290-000"
}
]
},
{
"Name": "Itanhém",
"Code": "2916005",
"PostCode": "45970-000",
"Communities": [
{
"Places": [
{
"Name": "Itanhém",
"PostCode": "45970-000",
"Location": {
"Latitude": -17.0811,
"Longitude": -40.361
}
}
],
"PostCode": "45970-000"
}
]
},
{
"Name": "Itaparica",
"Code": "2916104",
"PostCode": "44460-000",
"Communities": [
{
"Places": [
{
"Name": "Itaparica",
"PostCode": "44460-000",
"Location": {
"Latitude": -12.906,
"Longitude": -38.6638
}
}
],
"PostCode": "44460-000"
}
]
},
{
"Name": "Itapé",
"Code": "2916203",
"PostCode": "45750-000",
"Communities": [
{
"Places": [
{
"Name": "Itapé",
"PostCode": "45750-000",
"Location": {
"Latitude": -14.9185,
"Longitude": -39.4864
}
}
],
"PostCode": "45750-000"
}
]
},
{
"Name": "Itapebi",
"Code": "2916302",
"PostCode": "45855-000",
"Communities": [
{
"Places": [
{
"Name": "Itapebi",
"PostCode": "45855-000",
"Location": {
"Latitude": -15.8875,
"Longitude": -39.6879
}
}
],
"PostCode": "45855-000"
}
]
},
{
"Name": "Itapetinga",
"Code": "2916401",
"PostCode": "45700-000",
"Communities": [
{
"Places": [
{
"Name": "Itapetinga",
"PostCode": "45700-000",
"Location": {
"Latitude": -15.3341,
"Longitude": -40.0863
}
}
],
"PostCode": "45700-000"
}
]
},
{
"Name": "Itapicuru",
"Code": "2916500",
"PostCode": "48475-000",
"Communities": [
{
"Places": [
{
"Name": "Itapicuru",
"PostCode": "48475-000",
"Location": {
"Latitude": -11.181,
"Longitude": -38.1499
}
}
],
"PostCode": "48475-000"
}
]
},
{
"Name": "Itapitanga",
"Code": "2916609",
"PostCode": "45645-000",
"Communities": [
{
"Places": [
{
"Name": "Itapitanga",
"PostCode": "45645-000",
"Location": {
"Latitude": -14.4637,
"Longitude": -39.6256
}
}
],
"PostCode": "45645-000"
}
]
},
{
"Name": "Itaquara",
"Code": "2916708",
"PostCode": "45340-000",
"Communities": [
{
"Places": [
{
"Name": "Itaquara",
"PostCode": "45340-000",
"Location": {
"Latitude": -13.4472,
"Longitude": -39.9103
}
}
],
"PostCode": "45340-000"
}
]
},
{
"Name": "Itarantim",
"Code": "2916807",
"PostCode": "45780-000",
"Communities": [
{
"Places": [
{
"Name": "Itarantim",
"PostCode": "45780-000",
"Location": {
"Latitude": -15.708,
"Longitude": -40.0305
}
}
],
"PostCode": "45780-000"
}
]
},
{
"Name": "Itatim",
"Code": "2916856",
"PostCode": "46875-000",
"Communities": [
{
"Places": [
{
"Name": "Itatim",
"PostCode": "46875-000",
"Location": {
"Latitude": -12.6283,
"Longitude": -39.6823
}
}
],
"PostCode": "46875-000"
}
]
},
{
"Name": "Itiruçu",
"Code": "2916906",
"PostCode": "45350-000",
"Communities": [
{
"Places": [
{
"Name": "Itiruçu",
"PostCode": "45350-000",
"Location": {
"Latitude": -13.5209,
"Longitude": -40.1641
}
}
],
"PostCode": "45350-000"
}
]
},
{
"Name": "Itiúba",
"Code": "2917003",
"PostCode": "48850-000",
"Communities": [
{
"Places": [
{
"Name": "Itiúba",
"PostCode": "48850-000",
"Location": {
"Latitude": -10.7936,
"Longitude": -39.8038
}
}
],
"PostCode": "48850-000"
}
]
},
{
"Name": "Itororó",
"Code": "2917102",
"PostCode": "45710-000",
"Communities": [
{
"Places": [
{
"Name": "Itororó",
"PostCode": "45710-000",
"Location": {
"Latitude": -15.0672,
"Longitude": -40.0194
}
}
],
"PostCode": "45710-000"
}
]
},
{
"Name": "Ituaçu",
"Code": "2917201",
"PostCode": "46640-000",
"Communities": [
{
"Places": [
{
"Name": "Ituaçu",
"PostCode": "46640-000",
"Location": {
"Latitude": -13.9036,
"Longitude": -41.3969
}
}
],
"PostCode": "46640-000"
}
]
},
{
"Name": "Ituberá",
"Code": "2917300",
"PostCode": "45435-000",
"Communities": [
{
"Places": [
{
"Name": "Ituberá",
"PostCode": "45435-000",
"Location": {
"Latitude": -13.7874,
"Longitude": -39.1469
}
}
],
"PostCode": "45435-000"
}
]
},
{
"Name": "Iuiu",
"Code": "2917334",
"PostCode": "46438-000",
"Communities": [
{
"Places": [
{
"Name": "Iuiú",
"PostCode": "46438-000",
"Location": {
"Latitude": -14.6501,
"Longitude": -43.6487
}
}
],
"PostCode": "46438-000"
}
]
},
{
"Name": "Jaborandi",
"Code": "2917359",
"PostCode": "47655-000",
"Communities": [
{
"Places": [
{
"Name": "Jaborandi",
"PostCode": "47655-000",
"Location": {
"Latitude": -14.0385,
"Longitude": -45.1841
}
}
],
"PostCode": "47655-000"
}
]
},
{
"Name": "Jacaraci",
"Code": "2917409",
"PostCode": "46310-000",
"Communities": [
{
"Places": [
{
"Name": "Jacaraci",
"PostCode": "46310-000",
"Location": {
"Latitude": -14.8352,
"Longitude": -42.4011
}
}
],
"PostCode": "46310-000"
}
]
},
{
"Name": "Jacobina",
"Code": "2917508",
"PostCode": "44700-000",
"Communities": [
{
"Places": [
{
"Name": "Jacobina",
"PostCode": "44700-000",
"Location": {
"Latitude": -11.1479,
"Longitude": -40.4311
}
}
],
"PostCode": "44700-000"
}
]
},