{
 "Structure": "State/Province/Community/Place",
 "States": [
  {
   "Name": "Alberta",
   "Code": "AB",
   "Provinces": [
    {
     "Communities": [
      {
       "Places": [
        {
         "Name": "Eastern Alberta (St. Paul)",
         "PostCode": "T0A",
         "LatLong": "54.766,-111.7174"
        },
        {
         "Name": "Wainwright Region (Tofield)",
         "PostCode": "T0B",
         "LatLong": "53.0727,-111.5816"
        },
        {
         "Name": "Central Alberta (Stettler)",
         "PostCode": "T0C",
         "LatLong": "52.1431,-111.6941"
        },
        {
         "Name": "Western Alberta (Jasper)",
         "PostCode": "T0E",
         "LatLong": "53.6758,-115.0948"
        },
        {
         "Name": "North Central Alberta (Slave Lake)",
         "PostCode": "T0G",
         "LatLong": "55.6993,-114.4529"
        },
        {
         "Name": "Northwestern Alberta (High Level)",
         "PostCode": "T0H",
         "LatLong": "57.5403,-116.9153"
        },
        {
         "Name": "Southeastern Alberta (Drumheller)",
         "PostCode": "T0J",
         "LatLong": "50.9944,-111.4632"
        },
        {
         "Name": "International Border Region (Cardston)",
         "PostCode": "T0K",
         "LatLong": "49.4721,-112.2408"
        },
        {
         "Name": "Kananaskis Country (Claresholm)",
         "PostCode": "T0L",
         "LatLong": "50.6314,-114.4089"
        },
        {
         "Name": "Central Foothills (Sundre)",
         "PostCode": "T0M",
         "LatLong": "51.9552,-114.8691"
        },
        {
         "Name": "Northeastern Alberta (Fort Chipewyan)",
         "PostCode": "T0P",
         "LatLong": "58.2626,-110.7467"
        },
        {
         "Name": "Remote Northeast (Fitzgerald)",
         "PostCode": "T0V",
         "LatLong": "59.9049,-111.6717"
        },
        {
         "Name": "Taber",
         "PostCode": "T1G",
         "LatLong": "49.787,-112.146"
        },
        {
         "Name": "Banff",
         "PostCode": "T1L",
         "LatLong": "51.1762,-115.5698"
        },
        {
         "Name": "Coaldale",
         "PostCode": "T1M",
         "LatLong": "49.7167,-112.6185"
        },
        {
         "Name": "Strathmore",
         "PostCode": "T1P",
         "LatLong": "51.0501,-113.3852"
        },
        {
         "Name": "Brooks",
         "PostCode": "T1R",
         "LatLong": "50.5834,-111.8851"
        },
        {
         "Name": "Okotoks",
         "PostCode": "T1S",
         "LatLong": "50.7362,-113.9695"
        },
        {
         "Name": "High River",
         "PostCode": "T1V",
         "LatLong": "50.5834,-113.8687"
        },
        {
         "Name": "Canmore",
         "PostCode": "T1W",
         "LatLong": "51.0876,-115.3461"
        },
        {
         "Name": "Chestermere",
         "PostCode": "T1X",
         "LatLong": "51.0334,-113.8187"
        },
        {
         "Name": "Rocky View",
         "PostCode": "T1Z",
         "LatLong": "51.1834,-113.9353"
        },
        {
         "Name": "Redwood Meadows",
         "PostCode": "T3Z",
         "LatLong": "51.0691,-114.4727"
        },
        {
         "Name": "Cochrane",
         "PostCode": "T4C",
         "LatLong": "51.1834,-114.4687"
        },
        {
         "Name": "Innisfail",
         "PostCode": "T4G",
         "LatLong": "52.0269,-113.9507"
        },
        {
         "Name": "Olds",
         "PostCode": "T4H",
         "LatLong": "51.7834,-114.102"
        },
        {
         "Name": "Ponoka",
         "PostCode": "T4J",
         "LatLong": "52.6768,-113.5815"
        },
        {
         "Name": "Lacombe",
         "PostCode": "T4L",
         "LatLong": "52.4668,-113.7353"
        },
        {
         "Name": "Blackfalds",
         "PostCode": "T4M",
         "LatLong": "52.3834,-113.7853"
        },
        {
         "Name": "Sylvan Lake",
         "PostCode": "T4S",
         "LatLong": "52.3168,-114.0853"
        },
        {
         "Name": "Rocky Mountain House",
         "PostCode": "T4T",
         "LatLong": "52.3668,-114.9188"
        },
        {
         "Name": "Camrose",
         "PostCode": "T4V",
         "LatLong": "53.0168,-112.8353"
        },
        {
         "Name": "Beaumont",
         "PostCode": "T4X",
         "LatLong": "53.3501,-113.4187"
        },
        {
         "Name": "Drayton Valley",
         "PostCode": "T7A",
         "LatLong": "53.2168,-114.9854"
        },
        {
         "Name": "Edson",
         "PostCode": "T7E",
         "LatLong": "53.5834,-116.4356"
        },
        {
         "Name": "Barrhead",
         "PostCode": "T7N",
         "LatLong": "54.1334,-114.4021"
        },
        {
         "Name": "Westlock",
         "PostCode": "T7P",
         "LatLong": "54.1502,-113.8688"
        },
        {
         "Name": "Whitecourt",
         "PostCode": "T7S",
         "LatLong": "54.1501,-115.6855"
        },
        {
         "Name": "Hinton",
         "PostCode": "T7V",
         "LatLong": "53.4001,-117.5857"
        },
        {
         "Name": "Stony Plain",
         "PostCode": "T7Z",
         "LatLong": "53.5334,-114.0021"
        },
        {
         "Name": "Fort Saskatchewan",
         "PostCode": "T8L",
         "LatLong": "53.7168,-113.2187"
        },
        {
         "Name": "St. Albert",
         "PostCode": "T8N",
         "LatLong": "53.6334,-113.6353"
        },
        {
         "Name": "Morinville",
         "PostCode": "T8R",
         "LatLong": "53.8001,-113.652"
        },
        {
         "Name": "Peace River",
         "PostCode": "T8S",
         "LatLong": "56.2501,-117.286"
        },
        {
         "Name": "St. Albert",
         "PostCode": "T8T",
         "LatLong": "53.6867,-113.7102"
        },
        {
         "Name": "Wetaskiwin",
         "PostCode": "T9A",
         "LatLong": "52.9668,-113.3687"
        },
        {
         "Name": "Vegreville",
         "PostCode": "T9C",
         "LatLong": "53.5001,-112.0518"
        },
        {
         "Name": "Leduc",
         "PostCode": "T9E",
         "LatLong": "53.2668,-113.552"
        },
        {
         "Name": "Devon",
         "PostCode": "T9G",
         "LatLong": "53.3668,-113.7353"
        },
        {
         "Name": "Cold Lake",
         "PostCode": "T9M",
         "LatLong": "54.4502,-110.2017"
        },
        {
         "Name": "Bonnyville",
         "PostCode": "T9N",
         "LatLong": "54.2668,-110.7351"
        },
        {
         "Name": "Athabasca",
         "PostCode": "T9S",
         "LatLong": "54.7169,-113.2854"
        },
        {
         "Name": "Lloydminster",
         "PostCode": "T9V",
         "LatLong": "53.2717,-110.0853"
        },
        {
         "Name": "Wainwright",
         "PostCode": "T9W",
         "LatLong": "52.839,-110.8572"
        },
        {
         "Name": "Vermilion",
         "PostCode": "T9X",
         "LatLong": "53.3669,-110.8517"
        }
       ]
      }
     ]
    },
    {
     "Name": "Medicine Hat",
     "Communities": [
      {
       "Places": [
        {
         "Name": "Medicine Hat Central",
         "PostCode": "T1A",
         "LatLong": "50.0816,-110.5788"
        },
        {
         "Name": "Medicine Hat South",
         "PostCode": "T1B",
         "LatLong": "49.835,-110.5203"
        },
        {
         "Name": "Medicine Hat North",
         "PostCode": "T1C",
         "LatLong": "50.0774,-110.6911"
        }
       ]
      }
     ]
    },
    {
     "Name": "Lethbridge",
     "Communities": [
      {
       "Places": [
        {
         "Name": "Lethbridge North",
         "PostCode": "T1H",
         "LatLong": "49.7,-112.8186"
        },
        {
         "Name": "Lethbridge West and Central",
         "PostCode": "T1J",
         "LatLong": "49.6581,-112.7484"
        },
        {
         "Name": "Lethbridge Southeast",
         "PostCode": "T1K",
         "LatLong": "49.6511,-112.8351"
        }
       ]
      }
     ]
    },
    {
     "Name": "Calgary",
     "Communities": [
      {
       "Places": [
        {
         "Name": "Calgary (Rundle / Whitehorn / Monterey Park)",
         "PostCode": "T1Y",
         "LatLong": "51.0823,-113.9578"
        },
        {
         "Name": "Calgary (Penbrooke Meadows / Marlborough)",
         "PostCode": "T2A",
         "LatLong": "51.0494,-113.9564"
        },
        {
         "Name": "Calgary (Forest Lawn / Dover / Erin Woods)",
         "PostCode": "T2B",
         "LatLong": "51.0209,-113.981"
        },
        {
         "Name": "Calgary (Lynnwood Ridge / Ogden / Foothills Industrial / Great Plains)",
         "PostCode": "T2C",
         "LatLong": "50.987,-113.9634"
        },
        {
         "Name": "Calgary (Bridgeland / Greenview / Zoo / YYC)",
         "PostCode": "T2E",
         "LatLong": "51.0876,-114.0214"
        },
        {
         "Name": "Calgary (Inglewood / Burnsland / Chinatown / East Victoria Park / Saddledome)",
         "PostCode": "T2G",
         "LatLong": "51.0272,-114.0349"
        },
        {
         "Name": "Calgary (Highfield / Burns Industrial)",
         "PostCode": "T2H",
         "LatLong": "50.9894,-114.052"
        },
        {
         "Name": "Calgary (Queensland Downs / Lake Bonavista / Willow Park / Acadia)",
         "PostCode": "T2J",
         "LatLong": "50.8476,-114.1958"
        },
        {
         "Name": "Calgary (Thornecliffe / Tuxedo)",
         "PostCode": "T2K",
         "LatLong": "51.1111,-114.0477"
        },
        {
         "Name": "Calgary (Brentwood / Collingwood / Nose Hill)",
         "PostCode": "T2L",
         "LatLong": "51.1047,-114.1148"
        },
        {
         "Name": "Calgary (Mount Pleasant / Capitol Hill / Banff Trail)",
         "PostCode": "T2M",
         "LatLong": "51.133,-113.856"
        },
        {
         "Name": "Calgary (Kensington / Westmont / Parkdale / University)",
         "PostCode": "T2N",
         "LatLong": "51.0621,-114.1159"
        },
        {
         "Name": "Calgary (City Centre / Calgary Tower)",
         "PostCode": "T2P",
         "LatLong": "51.0708,-113.6931"
        },
        {
         "Name": "Calgary (Connaught / West Victoria Park)",
         "PostCode": "T2R",
         "LatLong": "51.0412,-114.0762"
        },
        {
         "Name": "Calgary (Elbow Park / Britannia / Parkhill / Mission)",
         "PostCode": "T2S",
         "LatLong": "51.0233,-114.071"
        },
        {
         "Name": "Calgary South (Altadore / Bankview / Richmond)",
         "PostCode": "T2T",
         "LatLong": "51.0242,-114.1004"
        },
        {
         "Name": "Calgary (Oak Ridge / Haysboro / Kingsland / Windsor Park)",
         "PostCode": "T2V",
         "LatLong": "50.9819,-114.1004"
        },
        {
         "Name": "Calgary (Braeside / Woodbine)",
         "PostCode": "T2W",
         "LatLong": "50.9514,-114.3591"
        },
        {
         "Name": "Calgary (Midnapore / Sundance)",
         "PostCode": "T2X",
         "LatLong": "50.8837,-114.0326"
        },
        {
         "Name": "Calgary (Millrise / Somerset / Bridlewood / Evergreen)",
         "PostCode": "T2Y",
         "LatLong": "50.9093,-114.1028"
        },
        {
         "Name": "Calgary (Douglas Glen / McKenzie Lake / Copperfield / East Shepard)",
         "PostCode": "T2Z",
         "LatLong": "50.9278,-113.9682"
        },
        {
         "Name": "Calgary (Dalhousie / Edgemont / Hamptons / Hidden Valley)",
         "PostCode": "T3A",
         "LatLong": "51.1264,-114.1419"
        },
        {
         "Name": "Calgary (Montgomery / Bowness / Silver Springs / Greenwood)",
         "PostCode": "T3B",
         "LatLong": "51.0915,-114.2073"
        },
        {
         "Name": "Calgary (Rosscarrock / Wildwood / Shaganappi / Sunalta)",
         "PostCode": "T3C",
         "LatLong": "51.0497,-114.1394"
        },
        {
         "Name": "Calgary (Lakeview / Glendale / Killarney / Glamorgan)",
         "PostCode": "T3E",
         "LatLong": "50.9899,-114.1574"
        },
        {
         "Name": "Calgary (Hawkwood / Arbour Lake / Royal Oak / Rocky Ridge)",
         "PostCode": "T3G",
         "LatLong": "51.1387,-114.2015"
        },
        {
         "Name": "Calgary (Discovery Ridge / Signal Hill / Aspen Woods / Patterson / Cougar Ridge)",
         "PostCode": "T3H",
         "LatLong": "51.0419,-114.2"
        },
        {
         "Name": "Calgary (Martindale / Taradale / Falconridge / Saddle Ridge)",
         "PostCode": "T3J",
         "LatLong": "51.1188,-113.9471"
        },
        {
         "Name": "Calgary (Sandstone / Harvest Hills / Coventry Hills / Panorama Hills / Beddington)",
         "PostCode": "T3K",
         "LatLong": "51.1563,-114.0572"
        },
        {
         "Name": "Calgary (Tuscany / Scenic Acres)",
         "PostCode": "T3L",
         "LatLong": "51.1467,-114.3133"
        },
        {
         "Name": "Calgary (Cranston)",
         "PostCode": "T3M",
         "LatLong": "50.8796,-113.9555"
        },
        {
         "Name": "Calgary Northeast",
         "PostCode": "T3N",
         "LatLong": "51.1626,-113.9537"
        },
        {
         "Name": "Calgary (Symons Valley)",
         "PostCode": "T3P",
         "LatLong": "51.2074,-114.1348"
        },
        {
         "Name": "Calgary Northwest",
         "PostCode": "T3R",
         "LatLong": "51.2021,-114.2453"
        },
        {
         "Name": "Calgary",
         "PostCode": "T3S",
         "LatLong": "50.9153,-113.8932"
        }
       ]
      }
     ]
    },
    {
     "Name": "Airdrie",
     "Communities": [
      {
       "Places": [
        {
         "Name": "Airdrie East",
         "PostCode": "T4A",
         "LatLong": "51.2799,-113.988"
        },
        {
         "Name": "Airdrie West",
         "PostCode": "T4B",
         "LatLong": "51.3082,-114.0398"
        }
       ]
      }
     ]
    },
    {
     "Name": "Red Deer",
     "Communities": [
      {
       "Places": [
        {
         "Name": "Red Deer County",
         "PostCode": "T4E",
         "LatLong": "52.2765,-113.7063"
        },
        {
         "Name": "Red Deer Central",
         "PostCode": "T4N",
         "LatLong": "52.2316,-113.8358"
        },
        {
         "Name": "Red Deer North",
         "PostCode": "T4P",
         "LatLong": "52.2954,-113.8073"
        },
        {
         "Name": "Red Deer South",
         "PostCode": "T4R",
         "LatLong": "52.2424,-113.7784"
        }
       ]
      }
     ]
    },
    {
     "Name": "Edmonton",
     "Communities": [
      {
       "Places": [
        {
         "Name": "Edmonton (West Clareview / East Londonderry)",
         "PostCode": "T5A",
         "LatLong": "53.5931,-113.4077"
        },
        {
         "Name": "Edmonton (East North Central / West Beverly)",
         "PostCode": "T5B",
         "LatLong": "53.7353,-113.3369"
        },
        {
         "Name": "Edmonton (Central Londonderry)",
         "PostCode": "T5C",
         "LatLong": "53.5996,-113.4549"
        },
        {
         "Name": "Edmonton (West Londonderry / East Calder)",
         "PostCode": "T5E",
         "LatLong": "53.7454,-113.4465"
        },
        {
         "Name": "Edmonton (North Central / Queen Mary Park / YXD)",
         "PostCode": "T5G",
         "LatLong": "53.5705,-113.5051"
        },
        {
         "Name": "Edmonton (North and East Downtown Fringe)",
         "PostCode": "T5H",
         "LatLong": "53.5514,-113.4916"
        },
        {
         "Name": "Edmonton (North Downtown)",
         "PostCode": "T5J",
         "LatLong": "53.5428,-113.4974"
        },
        {
         "Name": "Edmonton (South Downtown / South Downtown Fringe)",
         "PostCode": "T5K",
         "LatLong": "53.5366,-113.5103"
        },
        {
         "Name": "Edmonton (North Westmount / West Calder / East Mistatim)",
         "PostCode": "T5L",
         "LatLong": "53.585,-113.5526"
        },
        {
         "Name": "Edmonton (South Westmount / Groat Estate / East Northwest Industrial)",
         "PostCode": "T5M",
         "LatLong": "53.563,-113.5662"
        },
        {
         "Name": "Edmonton (Glenora / SW Downtown Fringe)",
         "PostCode": "T5N",
         "LatLong": "53.5436,-113.5574"
        },
        {
         "Name": "Edmonton (North Jasper Place)",
         "PostCode": "T5P",
         "LatLong": "53.5463,-113.5957"
        },
        {
         "Name": "Edmonton (Central Jasper Place / Buena Vista)",
         "PostCode": "T5R",
         "LatLong": "53.5181,-113.5797"
        },
        {
         "Name": "Edmonton (West Northwest Industrial / Winterburn)",
         "PostCode": "T5S",
         "LatLong": "53.5634,-113.6697"
        },
        {
         "Name": "Edmonton West (West Jasper Place / West Edmonton Mall)",
         "PostCode": "T5T",
         "LatLong": "53.5185,-113.6579"
        },
        {
         "Name": "Edmonton (Central Mistatim)",
         "PostCode": "T5V",
         "LatLong": "53.5848,-113.6224"
        },
        {
         "Name": "Edmonton (Central Beverly)",
         "PostCode": "T5W",
         "LatLong": "53.5645,-113.4022"
        },
        {
         "Name": "Edmonton (East Castledowns)",
         "PostCode": "T5X",
         "LatLong": "53.6313,-113.5245"
        },
        {
         "Name": "Edmonton (Landbank / Oliver / East Lake District)",
         "PostCode": "T5Y",
         "LatLong": "53.6585,-113.3614"
        },
        {
         "Name": "Edmonton (West Lake District)",
         "PostCode": "T5Z",
         "LatLong": "53.6365,-113.4673"
        },
        {
         "Name": "Edmonton (North Capilano)",
         "PostCode": "T6A",
         "LatLong": "53.5482,-113.4318"
        },
        {
         "Name": "Edmonton (SE Capilano / West Southeast Industrial / East Bonnie Doon)",
         "PostCode": "T6B",
         "LatLong": "53.5128,-113.4194"
        },
        {
         "Name": "Edmonton (Central Bonnie Doon)",
         "PostCode": "T6C",
         "LatLong": "53.522,-113.459"
        },
        {
         "Name": "Edmonton (South Bonnie Doon / East University)",
         "PostCode": "T6E",
         "LatLong": "53.4914,-113.4802"
        },
        {
         "Name": "Edmonton (West University / Strathcona Place)",
         "PostCode": "T6G",
         "LatLong": "53.521,-113.5324"
        },
        {
         "Name": "Edmonton (Southgate / North Riverbend)",
         "PostCode": "T6H",
         "LatLong": "53.3753,-113.4585"
        },
        {
         "Name": "Edmonton (Kaskitayo)",
         "PostCode": "T6J",
         "LatLong": "53.4564,-113.521"
        },
        {
         "Name": "Edmonton (West Mill Woods)",
         "PostCode": "T6K",
         "LatLong": "53.4609,-113.4519"
        },
        {
         "Name": "Edmonton (East Mill Woods)",
         "PostCode": "T6L",
         "LatLong": "53.4593,-113.4145"
        },
        {
         "Name": "Edmonton Southwest",
         "PostCode": "T6M",
         "LatLong": "53.4593,-113.6546"
        },
        {
         "Name": "Edmonton (South Industrial)",
         "PostCode": "T6N",
         "LatLong": "53.465,-113.4776"
        },
        {
         "Name": "Edmonton (East Southeast Industrial / South Clover Bar)",
         "PostCode": "T6P",
         "LatLong": "53.5078,-113.3723"
        },
        {
         "Name": "Edmonton (Riverbend)",
         "PostCode": "T6R",
         "LatLong": "53.4567,-113.5801"
        },
        {
         "Name": "Edmonton (North Clover Bar)",
         "PostCode": "T6S",
         "LatLong": "53.5806,-113.3374"
        },
        {
         "Name": "Edmonton (Meadows)",
         "PostCode": "T6T",
         "LatLong": "53.4617,-113.371"
        },
        {
         "Name": "Edmonton (West Castledowns)",
         "PostCode": "T6V",
         "LatLong": "53.6112,-113.5746"
        },
        {
         "Name": "Edmonton (Heritage Valley)",
         "PostCode": "T6W",
         "LatLong": "53.4179,-113.5785"
        },
        {
         "Name": "Edmonton (Ellerslie)",
         "PostCode": "T6X",
         "LatLong": "53.4154,-113.4178"
        }
       ]
      }
     ]
    },
    {
     "Name": "Spruce Grove",
     "Communities": [
      {
       "Places": [
        {
         "Name": "Spruce Grove North",
         "PostCode": "T7X",
         "LatLong": "53.5334,-113.9187"
        },
        {
         "Name": "Spruce Grove South",
         "PostCode": "T7Y",
         "LatLong": "53.4184,-113.8097"
        }
       ]
      }
     ]
    },
    {
     "Name": "Sherwood Park",
     "Communities": [
      {
       "Places": [
        {
         "Name": "Sherwood Park West",
         "PostCode": "T8A",
         "LatLong": "53.528,-113.2512"
        },
        {
         "Name": "Sherwood Park Outer Southwest",
         "PostCode": "T8B",
         "LatLong": "53.4397,-113.2952"
        },
        {
         "Name": "Sherwood Park Inner Southwest",
         "PostCode": "T8C",
         "LatLong": "53.4391,-113.1903"
        },
        {
         "Name": "Sherwood Park Central",
         "PostCode": "T8E",
         "LatLong": "53.5225,-113.1022"
        },
        {
         "Name": "Sherwood Park East",
         "PostCode": "T8G",
         "LatLong": "53.5052,-112.9529"
        },
        {
         "Name": "Sherwood Park Northwest",
         "PostCode": "T8H",
         "LatLong": "53.556,-113.2952"
        }
       ]
      }
     ]
    },
    {
     "Name": "Grande Prairie",
     "Communities": [
      {
       "Places": [
        {
         "Name": "Grande Prairie Central",
         "PostCode": "T8V",
         "LatLong": "55.1808,-118.9103"
        },
        {
         "Name": "Grande Prairie South",
         "PostCode": "T8W",
         "LatLong": "55.1303,-118.7946"
        },
        {
         "Name": "Grande Prairie East",
         "PostCode": "T8X",
         "LatLong": "55.1834,-118.7457"
        }
       ]
      }
     ]
    },
    {
     "Name": "Fort McMurray",
     "Communities": [
      {
       "Places": [
        {
         "Name": "Fort McMurray Outer Central",
         "PostCode": "T9H",
         "LatLong": "56.664,-111.1357"
        },
        {
         "Name": "Fort McMurray Inner Central",
         "PostCode": "T9J",
         "LatLong": "56.707,-111.3771"
        },
        {
         "Name": "Fort McMurray Northwest",
         "PostCode": "T9K",
         "LatLong": "56.7538,-111.435"
        }
       ]
      }
     ]
    }
   ]
  },
  {
   "Name": "British Columbia",
   "Code": "BC",
   "Provinces": [
    {
     "Name": "Vancouver",
     "Code": "5965814",
     "Communities": [
      {
       "Places": [
        {
         "Name": "Vancouver (North Hastings-Sunrise)",
         "PostCode": "V5K",
         "LatLong": "49.2807,-123.0397"
        },
        {
         "Name": "Vancouver (North Grandview-Woodlands)",
         "PostCode": "V5L",
         "LatLong": "49.2795,-123.0667"
        },
        {
         "Name": "Vancouver (South Hastings-Sunrise / North Renfrew-Collingwood)",
         "PostCode": "V5M",
         "LatLong": "49.26,-123.0398"
        },
        {
         "Name": "Vancouver (South Grandview-Woodlands / NE Kensington)",
         "PostCode": "V5N",
         "LatLong": "49.2551,-123.0667"
        },
        {
         "Name": "Vancouver (SE Kensington / Victoria-Fraserview)",
         "PostCode": "V5P",
         "LatLong": "49.222,-123.0683"
        },
        {
         "Name": "Vancouver (South Renfrew-Collingwood)",
         "PostCode": "V5R",
         "LatLong": "49.2397,-123.0407"
        },
        {
         "Name": "Vancouver (Killarney)",
         "PostCode": "V5S",
         "LatLong": "49.2175,-123.038"
        },
        {
         "Name": "Vancouver (East Mount Pleasant)",
         "PostCode": "V5T",
         "LatLong": "49.262,-123.0923"
        },
        {
         "Name": "Vancouver (West Kensington / NE Riley Park-Little Mountain)",
         "PostCode": "V5V",
         "LatLong": "49.248,-123.0913"
        },
        {
         "Name": "Vancouver (SE Riley Park-Little Mountain / SW Kensington / NE Oakridge / North Sunset)",
         "PostCode": "V5W",
         "LatLong": "49.2327,-123.0917"
        },
        {
         "Name": "Vancouver (SE Oakridge / East Marpole / South Sunset)",
         "PostCode": "V5X",
         "LatLong": "49.2156,-123.0979"
        },
        {
         "Name": "Vancouver (West Mount Pleasant / West Riley Park-Little Mountain)",
         "PostCode": "V5Y",
         "LatLong": "49.2492,-123.1104"
        },
        {
         "Name": "Vancouver (East Fairview / South Cambie)",
         "PostCode": "V5Z",
         "LatLong": "49.2475,-123.121"
        },
        {
         "Name": "Vancouver (Strathcona / Chinatown / Downtown Eastside)",
         "PostCode": "V6A",
         "LatLong": "49.2779,-123.0908"
        },
        {
         "Name": "Vancouver (NE Downtown / Harbour Centre / Gastown / Yaletown)",
         "PostCode": "V6B",
         "LatLong": "49.2788,-123.1139"
        },
        {
         "Name": "Vancouver (Waterfront / Coal Harbour / Canada Place)",
         "PostCode": "V6C",
         "LatLong": "49.2866,-123.1158"
        },
        {
         "Name": "Vancouver (South West End)",
         "PostCode": "V6E",
         "LatLong": "49.2833,-123.1298"
        },
        {
         "Name": "Vancouver (North West End / Stanley Park)",
         "PostCode": "V6G",
         "LatLong": "49.299,-123.1408"
        },
        {
         "Name": "Vancouver (West Fairview / Granville Island / NE Shaughnessy)",
         "PostCode": "V6H",
         "LatLong": "49.2559,-123.1322"
        },
        {
         "Name": "Vancouver (NW Shaughnessy / East Kitsilano / Quilchena)",
         "PostCode": "V6J",
         "LatLong": "49.2603,-123.146"
        },
        {
         "Name": "Vancouver (Central Kitsilano)",
         "PostCode": "V6K",
         "LatLong": "49.2646,-123.1648"
        },
        {
         "Name": "Vancouver (NW Arbutus Ridge)",
         "PostCode": "V6L",
         "LatLong": "49.2497,-123.166"
        },
        {
         "Name": "Vancouver (South Shaughnessy / NW Oakridge / NE Kerrisdale / SE Arbutus Ridge)",
         "PostCode": "V6M",
         "LatLong": "49.2344,-123.1451"
        },
        {
         "Name": "Vancouver (Dunbar-Southlands / Musqueam)",
         "PostCode": "V6N",
         "LatLong": "49.2302,-123.189"
        },
        {
         "Name": "Vancouver (SE Kerrisdale / SW Oakridge / West Marpole)",
         "PostCode": "V6P",
         "LatLong": "49.2151,-123.1396"
        },
        {
         "Name": "Vancouver (West Kitsilano / Jericho)",
         "PostCode": "V6R",
         "LatLong": "49.2666,-123.1976"
        },
        {
         "Name": "Vancouver (Chaldecutt / South University Endowment Lands)",
         "PostCode": "V6S",
         "LatLong": "49.2491,-123.2088"
        },
        {
         "Name": "Vancouver (UBC)",
         "PostCode": "V6T",
         "LatLong": "49.4635,-122.822"
        },
        {
         "Name": "Vancouver (SW Downtown)",
         "PostCode": "V6Z",
         "LatLong": "49.2767,-123.13"
        },
        {
         "Name": "North Vancouver Outer East",
         "PostCode": "V7G",
         "LatLong": "49.3678,-122.9278"
        },
        {
         "Name": "North Vancouver Inner East",
         "PostCode": "V7H",
         "LatLong": "49.3551,-122.9802"
        },
        {
         "Name": "North Vancouver East Central",
         "PostCode": "V7J",
         "LatLong": "49.3622,-123.0178"
        },
        {
         "Name": "North Vancouver North Central",
         "PostCode": "V7K",
         "LatLong": "49.3597,-123.0377"
        },
        {
         "Name": "North Vancouver South Central",
         "PostCode": "V7L",
         "LatLong": "49.316,-123.0576"
        },
        {
         "Name": "North Vancouver Southwest Central",
         "PostCode": "V7M",
         "LatLong": "49.3222,-123.0834"
        },
        {
         "Name": "North Vancouver Northwest Central",
         "PostCode": "V7N",
         "LatLong": "49.35,-123.0679"
        },
        {
         "Name": "North Vancouver Southwest",
         "PostCode": "V7P",
         "LatLong": "49.322,-123.1149"
        },
        {
         "Name": "North Vancouver Northwest",
         "PostCode": "V7R",
         "LatLong": "49.3775,-123.0862"
        },
        {
         "Name": "West Vancouver North",
         "PostCode": "V7S",
         "LatLong": "49.3745,-123.1864"
        },
        {
         "Name": "West Vancouver Southeast",
         "PostCode": "V7T",
         "LatLong": "49.3322,-123.1417"
        },
        {
         "Name": "West Vancouver South",
         "PostCode": "V7V",
         "LatLong": "49.3397,-123.1912"
        },
        {
         "Name": "West Vancouver West",
         "PostCode": "V7W",
         "LatLong": "49.3615,-123.2627"
        },
        {
         "Name": "Vancouver (Bentall Centre)",
         "PostCode": "V7X",
         "LatLong": "49.2935,-123.1162"
        },
        {
         "Name": "Vancouver (Pacific Centre)",
         "PostCode": "V7Y",
         "LatLong": "49.2819,-123.119"
        }
       ]
      }
     ]
    },
    {
     "Communities": [
      {
       "Places": [
        {
         "Name": "Upper Columbia Region (Golden)",
         "PostCode": "V0A",
         "LatLong": "51.2994,-116.939"
        },
        {
         "Name": "East Kootenays (Fernie)",
         "PostCode": "V0B",
         "LatLong": "49.6775,-115.5636"
        },
        {
         "Name": "Northern British Columbia (Fort Nelson)",
         "PostCode": "V0C",
         "LatLong": "58.3874,-125.7167"
        },
        {
         "Name": "Central Okanagan and High Country (Revelstoke)",
         "PostCode": "V0E",
         "LatLong": "51.505,-119.2034"
        },
        {
         "Name": "West Kootenays (Rossland)",
         "PostCode": "V0G",
         "LatLong": "50.053,-117.4291"
        },
        {
         "Name": "South Okanagan (Summerland)",
         "PostCode": "V0H",
         "LatLong": "49.4089,-119.0054"
        },
        {
         "Name": "Omineca and Yellowhead (Smithers)",
         "PostCode": "V0J",
         "LatLong": "55.9964,-126.8574"
        },
        {
         "Name": "Cariboo and West Okanagan (100 Mile House)",
         "PostCode": "V0K",
         "LatLong": "51.4367,-121.6384"
        },
        {
         "Name": "Chilcotin (Alexis Creek)",
         "PostCode": "V0L",
         "LatLong": "52.0993,-123.6526"
        },
        {
         "Name": "Harrison Lake Region (Agassiz)",
         "PostCode": "V0M",
         "LatLong": "49.6346,-122.038"
        },
        {
         "Name": "North Island, Sunshine Coast, and Southern Gulf Islands (Whistler)",
         "PostCode": "V0N",
         "LatLong": "51.2944,-126.0745"
        },
        {
         "Name": "North Central Island and Bute Inlet Region (Gold River)",
         "PostCode": "V0P",
         "LatLong": "49.8866,-126.2673"
        },
        {
         "Name": "Central Island (Chemainus)",
         "PostCode": "V0R",
         "LatLong": "49.027,-124.8461"
        },
        {
         "Name": "Juan de Fuca Shore (Sooke)",
         "PostCode": "V0S",
         "LatLong": "48.5432,-123.672"
        },
        {
         "Name": "Inside Passage and the Queen Charlottes (Queen Charlotte City)",
         "PostCode": "V0T",
         "LatLong": "52.2338,-126.2134"
        },
        {
         "Name": "Lower Skeena (Port Edward)",
         "PostCode": "V0V",
         "LatLong": "53.9725,-129.8986"
        },
        {
         "Name": "Atlin Region (Atlin)",
         "PostCode": "V0W",
         "LatLong": "59.6378,-133.5433"
        },
        {
         "Name": "Similkameen (Hope)",
         "PostCode": "V0X",
         "LatLong": "49.3688,-120.6569"
        },
        {
         "Name": "Kimberley",
         "PostCode": "V1A",
         "LatLong": "49.6832,-115.9855"
        },
        {
         "Name": "Cranbrook",
         "PostCode": "V1C",
         "LatLong": "49.4999,-115.7688"
        },
        {
         "Name": "Salmon Arm",
         "PostCode": "V1E",
         "LatLong": "50.6998,-119.2691"
        },
        {
         "Name": "Dawson Creek",
         "PostCode": "V1G",
         "LatLong": "55.7666,-120.2362"
        },
        {
         "Name": "Fort St. John",
         "PostCode": "V1J",
         "LatLong": "56.2499,-120.8529"
        },
        {
         "Name": "Merritt",
         "PostCode": "V1K",
         "LatLong": "50.1122,-120.7942"
        },
        {
         "Name": "Nelson",
         "PostCode": "V1L",
         "LatLong": "49.4999,-117.2855"
        },
        {
         "Name": "Langley Township North",
         "PostCode": "V1M",
         "LatLong": "49.1661,-122.5792"
        },
        {
         "Name": "Castlegar",
         "PostCode": "V1N",
         "LatLong": "49.2998,-117.6689"
        },
        {
         "Name": "Trail",
         "PostCode": "V1R",
         "LatLong": "49.0998,-117.7022"
        },
        {
         "Name": "Kamloops Southwest",
         "PostCode": "V1S",
         "LatLong": "50.5583,-120.5477"
        },
        {
         "Name": "Penticton",
         "PostCode": "V2A",
         "LatLong": "49.4806,-119.5858"
        },
        {
         "Name": "Williams Lake",
         "PostCode": "V2G",
         "LatLong": "52.1415,-122.1445"
        },
        {
         "Name": "Quesnel",
         "PostCode": "V2J",
         "LatLong": "52.9784,-122.4931"
        },
        {
         "Name": "Mission East",
         "PostCode": "V2V",
         "LatLong": "49.6463,-122.5047"
        },
        {
         "Name": "Langley City",
         "PostCode": "V3A",
         "LatLong": "49.0997,-122.6526"
        },
        {
         "Name": "Abbotsford East",
         "PostCode": "V3G",
         "LatLong": "49.0754,-122.178"
        },
        {
         "Name": "Port Moody",
         "PostCode": "V3H",
         "LatLong": "49.3231,-122.8626"
        },
        {
         "Name": "Burnaby (East Big Bend / Stride Avenue / Edmonds / Cariboo-Armstrong)",
         "PostCode": "V3N",
         "LatLong": "49.2275,-122.9301"
        },
        {
         "Name": "Pitt Meadows",
         "PostCode": "V3Y",
         "LatLong": "49.2212,-122.6896"
        },
        {
         "Name": "Surrey",
         "PostCode": "V3Z",
         "LatLong": "49.1064,-122.8251"
        },
        {
         "Name": "White Rock",
         "PostCode": "V4B",
         "LatLong": "49.0259,-122.8058"
        },
        {
         "Name": "Maple Ridge Northwest",
         "PostCode": "V4R",
         "LatLong": "49.2903,-122.5169"
        },
        {
         "Name": "Mission West",
         "PostCode": "V4S",
         "LatLong": "49.2528,-122.3574"
        },
        {
         "Name": "Westbank",
         "PostCode": "V4T",
         "LatLong": "49.866,-119.7387"
        },
        {
         "Name": "Winfield",
         "PostCode": "V4V",
         "LatLong": "50.0221,-119.4054"
        },
        {
         "Name": "Langley Township East",
         "PostCode": "V4W",
         "LatLong": "49.0713,-122.4977"
        },
        {
         "Name": "Abbotsford West",
         "PostCode": "V4X",
         "LatLong": "49.0861,-122.4026"
        },
        {
         "Name": "Chilliwack East",
         "PostCode": "V4Z",
         "LatLong": "49.0787,-121.6098"
        },
        {
         "Name": "Powell River",
         "PostCode": "V8A",
         "LatLong": "50.0163,-124.3226"
        },
        {
         "Name": "Squamish",
         "PostCode": "V8B",
         "LatLong": "49.7002,-123.156"
        },
        {
         "Name": "Kitimat",
         "PostCode": "V8C",
         "LatLong": "54.0524,-128.6534"
        },
        {
         "Name": "Terrace",
         "PostCode": "V8G",
         "LatLong": "54.5163,-128.6035"
        },
        {
         "Name": "Prince Rupert",
         "PostCode": "V8J",
         "LatLong": "54.3161,-130.3201"
        },
        {
         "Name": "Saltspring Island",
         "PostCode": "V8K",
         "LatLong": "48.8138,-123.4973"
        },
        {
         "Name": "Sidney",
         "PostCode": "V8L",
         "LatLong": "48.6496,-123.4026"
        },
        {
         "Name": "Central Saanich",
         "PostCode": "V8M",
         "LatLong": "48.5663,-123.4193"
        },
        {
         "Name": "Esquimalt",
         "PostCode": "V9A",
         "LatLong": "48.4496,-123.4193"
        },
        {
         "Name": "Highlands",
         "PostCode": "V9B",
         "LatLong": "48.4793,-123.5271"
        },
        {
         "Name": "Metchosin",
         "PostCode": "V9C",
         "LatLong": "48.3829,-123.5359"
        },
        {
         "Name": "Saanich West",
         "PostCode": "V9E",
         "LatLong": "48.5219,-123.453"
        },
        {
         "Name": "Ladysmith",
         "PostCode": "V9G",
         "LatLong": "48.9829,-123.8194"
        },
        {
         "Name": "Qualicum Beach",
         "PostCode": "V9K",
         "LatLong": "49.3468,-124.4361"
        },
        {
         "Name": "Duncan",
         "PostCode": "V9L",
         "LatLong": "48.7829,-123.7027"
        },
        {
         "Name": "Comox",
         "PostCode": "V9M",
         "LatLong": "49.6829,-124.9361"
        },
        {
         "Name": "Parksville",
         "PostCode": "V9P",
         "LatLong": "49.3163,-124.3194"
        },
        {
         "Name": "Cedar",
         "PostCode": "V9X",
         "LatLong": "49.0419,-123.979"
        },
        {
         "Name": "Port Alberni",
         "PostCode": "V9Y",
         "LatLong": "49.2413,-124.8028"
        },
        {
         "Name": "Sooke",
         "PostCode": "V9Z",
         "LatLong": "48.3746,-123.7276"
        }
       ]
      }
     ]
    },
    {
     "Name": "Vernon",
     "Communities": [
      {
       "Places": [
        {
         "Name": "Vernon East",
         "PostCode": "V1B",
         "LatLong": "50.084,-118.938"
        },
        {
         "Name": "Vernon West",
         "PostCode": "V1H",
         "LatLong": "50.2868,-119.4975"
        },
        {
         "Name": "Vernon Central",
         "PostCode": "V1T",
         "LatLong": "50.2604,-119.2774"
        }
       ]
      }
     ]
    },
    {
     "Name": "Kelowna",
     "Communities": [
      {
       "Places": [
        {
         "Name": "Kelowna East",
         "PostCode": "V1P",
         "LatLong": "49.8959,-119.1724"
        },
        {
         "Name": "Kelowna North",
         "PostCode": "V1V",
         "LatLong": "49.9497,-119.4339"
        },
        {
         "Name": "Kelowna Southwest",
         "PostCode": "V1W",
         "LatLong": "49.812,-119.5076"
        },
        {
         "Name": "Kelowna East Central",
         "PostCode": "V1X",
         "LatLong": "50.0528,-119.2858"
        },
        {
         "Name": "Kelowna Central",
         "PostCode": "V1Y",
         "LatLong": "49.8928,-119.4852"
        },
        {
         "Name": "Kelowna West",
         "PostCode": "V1Z",
         "LatLong": "49.8625,-119.5833"
        }
       ]
      }
     ]
    },
    {
     "Name": "Kamloops",
     "Communities": [
      {
       "Places": [
        {
         "Name": "Kamloops Northwest",
         "PostCode": "V2B",
         "LatLong": "50.8869,-120.7357"
        },
        {
         "Name": "Kamloops Central and Southeast",
         "PostCode": "V2C",
         "LatLong": "50.5437,-120.0937"
        },
        {
         "Name": "Kamloops South and West",
         "PostCode": "V2E",
         "LatLong": "50.6736,-120.4212"
        },
        {
         "Name": "Kamloops North",
         "PostCode": "V2H",
         "LatLong": "50.7262,-120.1659"
        }
       ]
      }
     ]
    },
    {
     "Name": "Prince George",
     "Communities": [
      {
       "Places": [
        {
         "Name": "Prince George North",
         "PostCode": "V2K",
         "LatLong": "54.0508,-122.9221"
        },
        {
         "Name": "Prince George East Central",
         "PostCode": "V2L",
         "LatLong": "53.9078,-122.7473"
        },
        {
         "Name": "Prince George West Central",
         "PostCode": "V2M",
         "LatLong": "53.9127,-122.8708"
        },
        {
         "Name": "Prince George South",
         "PostCode": "V2N",
         "LatLong": "53.6408,-122.954"
        }
       ]
      }
     ]
    },
    {
     "Name": "Chilliwack",
     "Communities": [
      {
       "Places": [
        {
         "Name": "Chilliwack Central",
         "PostCode": "V2P",
         "LatLong": "49.1838,-121.9046"
        },
        {
         "Name": "Chilliwack West",
         "PostCode": "V2R",
         "LatLong": "49.076,-121.9883"
        }
       ]
      }
     ]
    },
    {
     "Name": "Abbotsford",
     "Communities": [
      {
       "Places": [
        {
         "Name": "Abbotsford Southeast",
         "PostCode": "V2S",
         "LatLong": "49.0423,-122.2835"
        },
        {
         "Name": "Abbotsford Southwest",
         "PostCode": "V2T",
         "LatLong": "49.0384,-122.3485"
        }
       ]
      }
     ]
    },
    {
     "Name": "Maple Ridge",
     "Communities": [
      {
       "Places": [
        {
         "Name": "Maple Ridge East",
         "PostCode": "V2W",
         "LatLong": "49.2068,-122.4851"
        },
        {
         "Name": "Maple Ridge West",
         "PostCode": "V2X",
         "LatLong": "49.2196,-122.6164"
        }
       ]
      }
     ]
    },
    {
     "Name": "Langley Township",
     "Communities": [
      {
       "Places": [
        {
         "Name": "Langley Township Northwest",
         "PostCode": "V2Y",
         "LatLong": "49.1285,-122.6236"
        },
        {
         "Name": "Langley Township Southwest",
         "PostCode": "V2Z",
         "LatLong": "49.0483,-122.5997"
        }
       ]
      }
     ]
    },
    {
     "Name": "Port Coquitlam",
     "Communities": [
      {
       "Places": [
        {
         "Name": "Port Coquitlam Central",
         "PostCode": "V3B",
         "LatLong": "49.274,-122.7649"
        },
        {
         "Name": "Port Coquitlam South",
         "PostCode": "V3C",
         "LatLong": "49.2436,-122.7865"
        },
        {
         "Name": "Port Coquitlam North",
         "PostCode": "V3E",
         "LatLong": "49.3167,-122.7384"
        }
       ]
      }
     ]
    },
    {
     "Name": "Coquitlam",
     "Communities": [
      {
       "Places": [
        {
         "Name": "Coquitlam North",
         "PostCode": "V3J",
         "LatLong": "49.265,-122.8716"
        },
        {
         "Name": "Coquitlam South",
         "PostCode": "V3K",
         "LatLong": "49.2366,-122.8521"
        }
       ]
      }
     ]
    },
    {
     "Name": "New Westminster",
     "Communities": [
      {
       "Places": [
        {
         "Name": "New Westminster Northeast",
         "PostCode": "V3L",
         "LatLong": "49.2201,-122.8998"
        },
        {
         "Name": "New Westminster Southwest (Includes Annacis Island)",
         "PostCode": "V3M",
         "LatLong": "49.1886,-122.9384"
        }
       ]
      }
     ]
    },
    {
     "Name": "Surrey",
     "Communities": [
      {
       "Places": [
        {
         "Name": "Surrey North",
         "PostCode": "V3R",
         "LatLong": "49.1948,-122.8131"
        },
        {
         "Name": "Surrey East",
         "PostCode": "V3S",
         "LatLong": "49.0791,-122.7553"
        },
        {
         "Name": "Surrey Inner Northwest",
         "PostCode": "V3T",
         "LatLong": "49.1894,-122.8454"
        },
        {
         "Name": "Surrey Outer Northwest",
         "PostCode": "V3V",
         "LatLong": "49.1889,-122.873"
        },
        {
         "Name": "Surrey Upper West",
         "PostCode": "V3W",
         "LatLong": "49.141,-122.8569"
        },
        {
         "Name": "Surrey Lower West",
         "PostCode": "V3X",
         "LatLong": "49.1067,-122.8576"
        },
        {
         "Name": "Surrey Southwest",
         "PostCode": "V4A",
         "LatLong": "49.0374,-122.8299"
        },
        {
         "Name": "Surrey Northeast",
         "PostCode": "V4N",
         "LatLong": "49.1707,-122.7326"
        },
        {
         "Name": "Surrey South",
         "PostCode": "V4P",
         "LatLong": "49.0561,-122.8302"
        }
       ]
      }
     ]
    },
    {
     "Name": "Delta",
     "Communities": [
      {
       "Places": [
        {
         "Name": "Delta Northeast",
         "PostCode": "V4C",
         "LatLong": "49.1551,-122.9124"
        },
        {
         "Name": "Delta East",
         "PostCode": "V4E",
         "LatLong": "49.1197,-122.9056"
        },
        {
         "Name": "Delta East Central",
         "PostCode": "V4G",
         "LatLong": "49.1464,-123.0137"
        },
        {
         "Name": "Delta Central",
         "PostCode": "V4K",
         "LatLong": "49.0986,-123.0318"
        },
        {
         "Name": "Delta Southeast",
         "PostCode": "V4L",
         "LatLong": "49.0418,-123.0591"
        },
        {
         "Name": "Delta Southwest",
         "PostCode": "V4M",
         "LatLong": "49.0331,-123.0877"
        }
       ]
      }
     ]
    },
    {
     "Name": "Burnaby",
     "Communities": [
      {
       "Places": [
        {
         "Name": "Burnaby (Government Road / Lake City / SFU / Burnaby Mountain)",
         "PostCode": "V5A",
         "LatLong": "49.264,-122.9369"
        },
        {
         "Name": "Burnaby (Parkcrest-Aubrey / Ardingley-Sprott)",
         "PostCode": "V5B",
         "LatLong": "49.2769,-122.9761"
        },
        {
         "Name": "Burnaby (Burnaby Heights / Willingdon Heights / West Central Valley)",
         "PostCode": "V5C",
         "LatLong": "49.274,-123.0074"
        },
        {
         "Name": "Burnaby (Lakeview-Mayfield / Richmond Park / Kingsway-Beresford)",
         "PostCode": "V5E",
         "LatLong": "49.2272,-122.9574"
        },
        {
         "Name": "Burnaby (Cascade-Schou / Douglas-Gilpin)",
         "PostCode": "V5G",
         "LatLong": "49.2478,-122.9938"
        },
        {
         "Name": "Burnaby (Maywood / Marlborough / Oakalla / Windsor)",
         "PostCode": "V5H",
         "LatLong": "49.2302,-122.9952"
        },
        {
         "Name": "Burnaby (Suncrest / Sussex-Nelson / Clinton-Glenwood / West Big Bend)",
         "PostCode": "V5J",
         "LatLong": "49.2038,-122.9921"
        }
       ]
      }
     ]
    },
    {
     "Name": "Richmond",
     "Communities": [
      {
       "Places": [
        {
         "Name": "Richmond Northeast",
         "PostCode": "V6V",
         "LatLong": "49.1853,-123.0386"
        },
        {
         "Name": "Richmond Southeast",
         "PostCode": "V6W",
         "LatLong": "49.1534,-123.048"
        },
        {
         "Name": "Richmond North",
         "PostCode": "V6X",
         "LatLong": "49.1836,-123.1168"
        },
        {
         "Name": "Richmond Central",
         "PostCode": "V6Y",
         "LatLong": "49.17,-123.1368"
        },
        {
         "Name": "Richmond South",
         "PostCode": "V7A",
         "LatLong": "49.1205,-123.1171"
        },
        {
         "Name": "Richmond (Sea Island / YVR)",
         "PostCode": "V7B",
         "LatLong": "49.1988,-123.1799"
        },
        {
         "Name": "Richmond West",
         "PostCode": "V7C",
         "LatLong": "49.1626,-123.1721"
        },
        {
         "Name": "Richmond Southwest",
         "PostCode": "V7E",
         "LatLong": "49.1323,-123.1705"
        }
       ]
      }
     ]
    },
    {
     "Name": "Saanich",
     "Communities": [
      {
       "Places": [
        {
         "Name": "Saanich East",
         "PostCode": "V8N",
         "LatLong": "48.4765,-123.3145"
        },
        {
         "Name": "Saanich Southeast",
         "PostCode": "V8P",
         "LatLong": "48.4583,-123.3325"
        },
        {
         "Name": "Saanich South",
         "PostCode": "V8X",
         "LatLong": "48.4777,-123.3658"
        },
        {
         "Name": "Saanich North",
         "PostCode": "V8Y",
         "LatLong": "48.5247,-123.3745"
        },
        {
         "Name": "Saanich Central",
         "PostCode": "V8Z",
         "LatLong": "48.4993,-123.4003"
        }
       ]
      }
     ]
    },
    {
     "Name": "Oak Bay",
     "Communities": [
      {
       "Places": [
        {
         "Name": "Oak Bay North",
         "PostCode": "V8R",
         "LatLong": "48.4496,-123.3026"
        },
        {
         "Name": "Oak Bay South",
         "PostCode": "V8S",
         "LatLong": "48.42,-123.3047"
        }
       ]
      }
     ]
    },
    {
     "Name": "Victoria",
     "Communities": [
      {
       "Places": [
        {
         "Name": "Victoria North",
         "PostCode": "V8T",
         "LatLong": "48.4392,-123.3566"
        },
        {
         "Name": "Victoria South",
         "PostCode": "V8V",
         "LatLong": "48.4167,-123.365"
        },
        {
         "Name": "Victoria Central British Columbia Provincial Government",
         "PostCode": "V8W",
         "LatLong": "48.4267,-123.3655"
        }
       ]
      }
     ]
    },
    {
     "Name": "Campbell River",
     "Communities": [
      {
       "Places": [
        {
         "Name": "Campbell River Outskirts",
         "PostCode": "V9H",
         "LatLong": "49.9088,-125.5862"
        },
        {
         "Name": "Campbell River Central",
         "PostCode": "V9W",
         "LatLong": "50.0769,-125.5909"
        }
       ]
      }
     ]
    },
    {
     "Name": "Courtenay",
     "Communities": [
      {
       "Places": [
        {
         "Name": "Courtenay Northern Outskirts",
         "PostCode": "V9J",
         "LatLong": "49.7242,-125.2604"
        },
        {
         "Name": "Courtenay Central",
         "PostCode": "V9N",
         "LatLong": "49.6585,-124.9835"
        }
       ]
      }
     ]
    },
    {
     "Name": "Nanaimo",
     "Communities": [
      {
       "Places": [
        {
         "Name": "Nanaimo South",
         "PostCode": "V9R",
         "LatLong": "49.1609,-123.9825"
        },
        {
         "Name": "Nanaimo Central",
         "PostCode": "V9S",
         "LatLong": "49.1886,-123.963"
        },
        {
         "Name": "Nanaimo North",
         "PostCode": "V9T",
         "LatLong": "49.2146,-124.02"
        },
        {
         "Name": "Nanaimo Northwest",
         "PostCode": "V9V",
         "LatLong": "49.2391,-124.0227"
        }
       ]
      }
     ]
    }
   ]
  },
  {
   "Name": "Manitoba",
   "Code": "MB",
   "Provinces": [
    {
     "Communities": [
      {
       "Places": [
        {
         "Name": "Southeastern Manitoba (Lorette)",
         "PostCode": "R0A",
         "LatLong": "49.2911,-96.2985"
        },
        {
         "Name": "Northern Manitoba (Norway House)",
         "PostCode": "R0B",
         "LatLong": "56.2701,-96.9118"
        },
        {
         "Name": "North Interlake (Stonewall)",
         "PostCode": "R0C",
         "LatLong": "51.4132,-97.8525"
        },
        {
         "Name": "Eastern Manitoba (Beausejour)",
         "PostCode": "R0E",
         "LatLong": "50.4751,-95.961"
        },
        {
         "Name": "Riding Mountain (Neepawa)",
         "PostCode": "R0J",
         "LatLong": "50.5842,-100.1345"
        },
        {
         "Name": "Brandon Region (Killarney)",
         "PostCode": "R0K",
         "LatLong": "49.555,-99.7154"
        },
        {
         "Name": "Western Manitoba (Swan River)",
         "PostCode": "R0L",
         "LatLong": "52.0092,-100.2901"
        },
        {
         "Name": "Southwestern Manitoba (Virden)",
         "PostCode": "R0M",
         "LatLong": "49.711,-100.9263"
        },
        {
         "Name": "Selkirk",
         "PostCode": "R1A",
         "LatLong": "50.1436,-96.8845"
        },
        {
         "Name": "Lockport",
         "PostCode": "R1B",
         "LatLong": "50.084,-96.9353"
        },
        {
         "Name": "Narol",
         "PostCode": "R1C",
         "LatLong": "50.055,-96.9781"
        },
        {
         "Name": "Portage la Prairie",
         "PostCode": "R1N",
         "LatLong": "49.9728,-98.2926"
        },
        {
         "Name": "East St. Paul",
         "PostCode": "R2E",
         "LatLong": "49.9791,-97.0128"
        },
        {
         "Name": "West St. Paul",
         "PostCode": "R4A",
         "LatLong": "50.0211,-97.1147"
        },
        {
         "Name": "Oak Bluff",
         "PostCode": "R4G",
         "LatLong": "49.7736,-97.3221"
        },
        {
         "Name": "Cartier",
         "PostCode": "R4K",
         "LatLong": "49.8908,-97.6004"
        },
        {
         "Name": "St. Francois Xavier",
         "PostCode": "R4L",
         "LatLong": "49.9372,-97.5545"
        },
        {
         "Name": "St. Adolphe",
         "PostCode": "R5A",
         "LatLong": "49.712,-97.0836"
        },
        {
         "Name": "Steinbach",
         "PostCode": "R5G",
         "LatLong": "49.5258,-96.6845"
        },
        {
         "Name": "Ste. Anne",
         "PostCode": "R5H",
         "LatLong": "49.6697,-96.65"
        },
        {
         "Name": "Morden",
         "PostCode": "R6M",
         "LatLong": "49.1919,-98.1014"
        },
        {
         "Name": "Winkler",
         "PostCode": "R6W",
         "LatLong": "49.1817,-97.941"
        },
        {
         "Name": "Dauphin",
         "PostCode": "R7N",
         "LatLong": "51.1494,-100.0502"
        },
        {
         "Name": "Flin Flon",
         "PostCode": "R8A",
         "LatLong": "54.7682,-101.865"
        },
        {
         "Name": "Thompson",
         "PostCode": "R8N",
         "LatLong": "55.7435,-97.8558"
        },
        {
         "Name": "The Pas",
         "PostCode": "R9A",
         "LatLong": "53.704,-101.2933"
        }
       ]
      }
     ]
    },
    {
     "Name": "South",
     "Communities": [
      {
       "Places": [
        {
         "Name": "South Central Manitoba (Altona)",
         "PostCode": "R0G",
         "LatLong": "49.4394,-98.0869"
        },
        {
         "Name": "South Interlake (MacGregor)",
         "PostCode": "R0H",
         "LatLong": "50.3458,-98.5152"
        }
       ]
      }
     ]
    },
    {
     "Name": "Winnipeg",
     "Communities": [
      {
       "Places": [
        {
         "Name": "Winnipeg (Transcona)",
         "PostCode": "R2C",
         "LatLong": "49.9247,-96.9563"
        },
        {
         "Name": "Winnipeg (River East North)",
         "PostCode": "R2G",
         "LatLong": "49.9413,-97.0571"
        },
        {
         "Name": "Winnipeg (St. Boniface NW)",
         "PostCode": "R2H",
         "LatLong": "49.8846,-97.1186"
        },
        {
         "Name": "Winnipeg (St. Boniface NE)",
         "PostCode": "R2J",
         "LatLong": "49.8665,-97.0633"
        },
        {
         "Name": "Winnipeg (River East Central)",
         "PostCode": "R2K",
         "LatLong": "49.9203,-97.083"
        },
        {
         "Name": "Winnipeg (River East South)",
         "PostCode": "R2L",
         "LatLong": "49.9075,-97.0996"
        },
        {
         "Name": "Winnipeg (St. Vital North)",
         "PostCode": "R2M",
         "LatLong": "49.8396,-97.1147"
        },
        {
         "Name": "Winnipeg (St. Vital SW)",
         "PostCode": "R2N",
         "LatLong": "49.7838,-97.0973"
        },
        {
         "Name": "Winnipeg (Seven Oaks West)",
         "PostCode": "R2P",
         "LatLong": "49.9696,-97.1554"
        },
        {
         "Name": "Winnipeg (Inkster West)",
         "PostCode": "R2R",
         "LatLong": "49.9377,-97.2162"
        },
        {
         "Name": "Winnipeg (Seven Oaks East)",
         "PostCode": "R2V",
         "LatLong": "49.9548,-97.1112"
        },
        {
         "Name": "Winnipeg (Point Douglas East)",
         "PostCode": "R2W",
         "LatLong": "49.9195,-97.1354"
        },
        {
         "Name": "Winnipeg (Point Douglas West / Inkster East)",
         "PostCode": "R2X",
         "LatLong": "49.9322,-97.1733"
        },
        {
         "Name": "Winnipeg (St. James-Assiniboia NW)",
         "PostCode": "R2Y",
         "LatLong": "49.9073,-97.2945"
        },
        {
         "Name": "Winnipeg (Centennial)",
         "PostCode": "R3A",
         "LatLong": "49.9038,-97.1489"
        },
        {
         "Name": "Winnipeg (Chinatown / Civic Centre / Exchange District)",
         "PostCode": "R3B",
         "LatLong": "49.898,-97.1401"
        },
        {
         "Name": "Winnipeg (Broadway / The Forks / Portage and Main) Manitoba Provincial Government",
         "PostCode": "R3C",
         "LatLong": "50.011,-97.2184"
        },
        {
         "Name": "Winnipeg (Sargent Park / Daniel McIntyre / Inkster SE)",
         "PostCode": "R3E",
         "LatLong": "49.9081,-97.1779"
        },
        {
         "Name": "Winnipeg (Minto / St. Mathews / Wolseley)",
         "PostCode": "R3G",
         "LatLong": "49.8876,-97.1807"
        },
        {
         "Name": "Winnipeg (St. James-Assiniboia NE / YWG)",
         "PostCode": "R3H",
         "LatLong": "49.9033,-97.2074"
        },
        {
         "Name": "Winnipeg (St. James-Assiniboia SE)",
         "PostCode": "R3J",
         "LatLong": "49.8966,-97.2404"
        },
        {
         "Name": "Winnipeg (St. James-Assiniboia SW)",
         "PostCode": "R3K",
         "LatLong": "49.8734,-97.307"
        },
        {
         "Name": "Winnipeg (River Heights East)",
         "PostCode": "R3L",
         "LatLong": "49.867,-97.1356"
        },
        {
         "Name": "Winnipeg (River Heights Central)",
         "PostCode": "R3M",
         "LatLong": "49.8625,-97.1665"
        },
        {
         "Name": "Winnipeg (River Heights West)",
         "PostCode": "R3N",
         "LatLong": "49.8629,-97.1959"
        },
        {
         "Name": "Winnipeg (Fort Garry NW / Tuxedo)",
         "PostCode": "R3P",
         "LatLong": "49.8425,-97.2182"
        },
        {
         "Name": "Winnipeg (Assiniboine South / Betsworth)",
         "PostCode": "R3R",
         "LatLong": "49.8546,-97.2874"
        },
        {
         "Name": "Winnipeg (Wilkes South)",
         "PostCode": "R3S",
         "LatLong": "49.8255,-97.2934"
        },
        {
         "Name": "Winnipeg (Fort Garry NE / University of Manitoba)",
         "PostCode": "R3T",
         "LatLong": "49.8143,-97.1531"
        },
        {
         "Name": "Winnipeg (Fort Garry South)",
         "PostCode": "R3V",
         "LatLong": "49.7462,-97.1745"
        },
        {
         "Name": "Winnipeg (Grassie / Pequis)",
         "PostCode": "R3W",
         "LatLong": "49.9141,-97.0401"
        },
        {
         "Name": "Winnipeg (St. Boniface South / St. Vital SE)",
         "PostCode": "R3X",
         "LatLong": "49.8209,-97.0322"
        },
        {
         "Name": "Winnipeg (Fort Garry West)",
         "PostCode": "R3Y",
         "LatLong": "49.7885,-97.2147"
        }
       ]
      }
     ]
    },
    {
     "Name": "Headingley",
     "Communities": [
      {
       "Places": [
        {
         "Name": "Headingley East",
         "PostCode": "R4H",
         "LatLong": "49.8761,-97.3812"
        },
        {
         "Name": "Headingley West",
         "PostCode": "R4J",
         "LatLong": "49.8467,-97.4319"
        }
       ]
      }
     ]
    },
    {
     "Name": "Brandon",
     "Communities": [
      {
       "Places": [
        {
         "Name": "Brandon Southeast",
         "PostCode": "R7A",
         "LatLong": "49.8174,-99.9565"
        },
        {
         "Name": "Brandon Southwest",
         "PostCode": "R7B",
         "LatLong": "49.842,-99.9831"
        },
        {
         "Name": "Brandon North",
         "PostCode": "R7C",
         "LatLong": "49.8817,-99.965"
        }
       ]
      }
     ]
    }
   ]
  },
  {
   "Name": "New Brunswick",
   "Code": "NB",
   "Provinces": [
    {
     "Communities": [
      {
       "Places": [
        {
         "Name": "Dieppe Moncton East",
         "PostCode": "E1A",
         "LatLong": "46.0967,-64.7087"
        },
        {
         "Name": "Riverview",
         "PostCode": "E1B",
         "LatLong": "46.0545,-64.816"
        },
        {
         "Name": "Lakeville, Shediac Bridge",
         "PostCode": "E1H",
         "LatLong": "46.1732,-64.6957"
        },
        {
         "Name": "Coverdale",
         "PostCode": "E1J",
         "LatLong": "45.9976,-64.8483"
        },
        {
         "Name": "Caraquet",
         "PostCode": "E1W",
         "LatLong": "47.7941,-64.9386"
        },
        {
         "Name": "Tracadie-Sheila",
         "PostCode": "E1X",
         "LatLong": "47.5144,-64.9181"
        },
        {
         "Name": "Bathurst",
         "PostCode": "E2A",
         "LatLong": "47.6181,-65.6511"
        },
        {
         "Name": "Rothesay, Quispamsis",
         "PostCode": "E2E",
         "LatLong": "45.4137,-65.982"
        },
        {
         "Name": "Quispamsis",
         "PostCode": "E2G",
         "LatLong": "45.4534,-65.931"
        },
        {
         "Name": "Oromocto",
         "PostCode": "E2V",
         "LatLong": "45.8351,-66.4792"
        },
        {
         "Name": "Kingsclear",
         "PostCode": "E3E",
         "LatLong": "45.8834,-66.9156"
        },
        {
         "Name": "Fredericton",
         "PostCode": "E3G",
         "LatLong": "46.0546,-66.7344"
        },
        {
         "Name": "St. Stephen",
         "PostCode": "E3L",
         "LatLong": "45.1804,-67.2953"
        },
        {
         "Name": "Campbellton",
         "PostCode": "E3N",
         "LatLong": "48.0075,-66.6727"
        },
        {
         "Name": "Edmundston",
         "PostCode": "E3V",
         "LatLong": "47.3737,-68.3251"
        },
        {
         "Name": "Bathurst",
         "PostCode": "E4A",
         "LatLong": "46.1599,-65.8102"
        },
        {
         "Name": "Minto",
         "PostCode": "E4B",
         "LatLong": "46.0848,-66.0622"
        },
        {
         "Name": "Youngs Cove",
         "PostCode": "E4C",
         "LatLong": "45.8693,-65.9006"
        },
        {
         "Name": "Sussex",
         "PostCode": "E4E",
         "LatLong": "45.7227,-65.5066"
        },
        {
         "Name": "Smiths Creek",
         "PostCode": "E4G",
         "LatLong": "45.8552,-65.4795"
        },
        {
         "Name": "Hillsborough",
         "PostCode": "E4H",
         "LatLong": "45.9199,-64.6552"
        },
        {
         "Name": "Salisbury",
         "PostCode": "E4J",
         "LatLong": "46.0391,-65.0463"
        },
        {
         "Name": "Dorchester",
         "PostCode": "E4K",
         "LatLong": "45.9016,-64.508"
        },
        {
         "Name": "Sackville",
         "PostCode": "E4L",
         "LatLong": "45.9188,-64.3845"
        },
        {
         "Name": "Bayfield",
         "PostCode": "E4M",
         "LatLong": "46.0919,-64.0173"
        },
        {
         "Name": "Cap-Pel",
         "PostCode": "E4N",
         "LatLong": "46.2129,-64.2784"
        },
        {
         "Name": "Shediac",
         "PostCode": "E4P",
         "LatLong": "46.2198,-64.5411"
        },
        {
         "Name": "Cocagne",
         "PostCode": "E4R",
         "LatLong": "46.3324,-64.6187"
        },
        {
         "Name": "Bouctouche",
         "PostCode": "E4S",
         "LatLong": "46.4684,-64.739"
        },
        {
         "Name": "Bass River",
         "PostCode": "E4T",
         "LatLong": "46.3042,-64.972"
        },
        {
         "Name": "Saint-Antoine",
         "PostCode": "E4V",
         "LatLong": "46.3629,-64.7499"
        },
        {
         "Name": "Richibucto",
         "PostCode": "E4W",
         "LatLong": "46.6807,-64.8804"
        },
        {
         "Name": "St-Louis-de-Kent",
         "PostCode": "E4X",
         "LatLong": "46.7401,-64.9698"
        },
        {
         "Name": "Rogersville",
         "PostCode": "E4Y",
         "LatLong": "46.7345,-65.427"
        },
        {
         "Name": "Petitcodiac",
         "PostCode": "E4Z",
         "LatLong": "45.9394,-65.1802"
        },
        {
         "Name": "Moores Mills",
         "PostCode": "E5A",
         "LatLong": "45.3705,-67.1737"
        },
        {
         "Name": "St. Andrews",
         "PostCode": "E5B",
         "LatLong": "45.0845,-67.0617"
        },
        {
         "Name": "St. George",
         "PostCode": "E5C",
         "LatLong": "45.1265,-66.8314"
        },
        {
         "Name": "Campobello Island",
         "PostCode": "E5E",
         "LatLong": "44.8908,-66.9318"
        },
        {
         "Name": "Pennfield",
         "PostCode": "E5H",
         "LatLong": "45.1168,-66.6822"
        },
        {
         "Name": "Lepreau",
         "PostCode": "E5J",
         "LatLong": "45.1979,-66.4308"
        },
        {
         "Name": "Fredericton Junction",
         "PostCode": "E5L",
         "LatLong": "45.6604,-66.6139"
        },
        {
         "Name": "Gagetown",
         "PostCode": "E5M",
         "LatLong": "45.7701,-66.1617"
        },
        {
         "Name": "Hampton",
         "PostCode": "E5N",
         "LatLong": "45.5288,-65.8535"
        },
        {
         "Name": "Apohaqui",
         "PostCode": "E5P",
         "LatLong": "45.7599,-65.6704"
        },
        {
         "Name": "St. Martins",
         "PostCode": "E5R",
         "LatLong": "45.351,-65.5457"
        },
        {
         "Name": "Kingston",
         "PostCode": "E5S",
         "LatLong": "45.4098,-66.0932"
        },
        {
         "Name": "Norton",
         "PostCode": "E5T",
         "LatLong": "45.6508,-65.7302"
        },
        {
         "Name": "Deer Island",
         "PostCode": "E5V",
         "LatLong": "44.9862,-66.9694"
        },
        {
         "Name": "Boiestown",
         "PostCode": "E6A",
         "LatLong": "46.4558,-66.4198"
        },
        {
         "Name": "Stanley",
         "PostCode": "E6B",
         "LatLong": "46.3381,-66.9058"
        },
        {
         "Name": "Durham Bridge",
         "PostCode": "E6C",
         "LatLong": "46.1168,-66.5989"
        },
        {
         "Name": "Millville",
         "PostCode": "E6E",
         "LatLong": "46.1307,-67.1962"
        },
        {
         "Name": "Nackawic",
         "PostCode": "E6G",
         "LatLong": "45.9967,-67.2403"
        },
        {
         "Name": "Canterbury",
         "PostCode": "E6H",
         "LatLong": "45.8954,-67.4678"
        },
        {
         "Name": "McAdam",
         "PostCode": "E6J",
         "LatLong": "45.5923,-67.307"
        },
        {
         "Name": "Harvey",
         "PostCode": "E6K",
         "LatLong": "45.729,-67.0064"
        },
        {
         "Name": "Burtts Corner",
         "PostCode": "E6L",
         "LatLong": "45.9881,-67.0338"
        },
        {
         "Name": "Baker Brook",
         "PostCode": "E7A",
         "LatLong": "47.3,-68.7487"
        },
        {
         "Name": "Saint-Jacques",
         "PostCode": "E7B",
         "LatLong": "47.5655,-68.3127"
        },
        {
         "Name": "Saint-Basile",
         "PostCode": "E7C",
         "LatLong": "47.6583,-68.0684"
        },
        {
         "Name": "Saint-Leonard",
         "PostCode": "E7E",
         "LatLong": "47.173,-67.9247"
        },
        {
         "Name": "Plaster Rock",
         "PostCode": "E7G",
         "LatLong": "46.9065,-67.39"
        },
        {
         "Name": "Perth-Andover",
         "PostCode": "E7H",
         "LatLong": "46.7355,-67.7039"
        },
        {
         "Name": "Bath",
         "PostCode": "E7J",
         "LatLong": "46.5807,-67.5911"
        },
        {
         "Name": "Centreville",
         "PostCode": "E7K",
         "LatLong": "46.3982,-67.7174"
        },
        {
         "Name": "Florenceville",
         "PostCode": "E7L",
         "LatLong": "46.5528,-67.305"
        },
        {
         "Name": "Woodstock",
         "PostCode": "E7M",
         "LatLong": "46.158,-67.5838"
        },
        {
         "Name": "Debec",
         "PostCode": "E7N",
         "LatLong": "46.0555,-67.5839"
        },
        {
         "Name": "Hartland",
         "PostCode": "E7P",
         "LatLong": "46.2999,-67.5167"
        },
        {
         "Name": "Saint-Quentin",
         "PostCode": "E8A",
         "LatLong": "47.5133,-67.3929"
        },
        {
         "Name": "Kedgwick",
         "PostCode": "E8B",
         "LatLong": "47.6446,-67.3434"
        },
        {
         "Name": "Dalhousie",
         "PostCode": "E8C",
         "LatLong": "48.055,-66.3847"
        },
        {
         "Name": "Balmoral",
         "PostCode": "E8E",
         "LatLong": "47.679,-66.4342"
        },
        {
         "Name": "Belledune",
         "PostCode": "E8G",
         "LatLong": "47.8023,-66.1243"
        },
        {
         "Name": "Petit-Rocher",
         "PostCode": "E8J",
         "LatLong": "47.7941,-65.8219"
        },
        {
         "Name": "Beresford",
         "PostCode": "E8K",
         "LatLong": "47.6913,-65.6989"
        },
        {
         "Name": "Allardville",
         "PostCode": "E8L",
         "LatLong": "47.475,-65.495"
        },
        {
         "Name": "Saint-Isidore",
         "PostCode": "E8M",
         "LatLong": "47.5765,-65.1379"
        },
        {
         "Name": "Grande-Anse",
         "PostCode": "E8N",
         "LatLong": "47.8078,-65.1945"
        },
        {
         "Name": "Inkerman",
         "PostCode": "E8P",
         "LatLong": "47.6672,-64.8248"
        },
        {
         "Name": "Paquetville",
         "PostCode": "E8R",
         "LatLong": "47.6383,-65.1709"
        },
        {
         "Name": "Shippagan",
         "PostCode": "E8S",
         "LatLong": "47.7287,-64.7247"
        },
        {
         "Name": "Lamque",
         "PostCode": "E8T",
         "LatLong": "47.7936,-64.6475"
        },
        {
         "Name": "Baie-Sainte-Anne",
         "PostCode": "E9A",
         "LatLong": "47.0188,-64.92"
        },
        {
         "Name": "Blackville",
         "PostCode": "E9B",
         "LatLong": "46.7398,-65.8319"
        },
        {
         "Name": "Doaktown",
         "PostCode": "E9C",
         "LatLong": "46.557,-66.1257"
        },
        {
         "Name": "Red Bank",
         "PostCode": "E9E",
         "LatLong": "46.8486,-65.6772"
        },
        {
         "Name": "Neguac",
         "PostCode": "E9G",
         "LatLong": "47.2489,-65.0741"
        },
        {
         "Name": "Brantville",
         "PostCode": "E9H",
         "LatLong": "47.3528,-65.0538"
        }
       ]
      }
     ]
    },
    {
     "Name": "Moncton",
     "Communities": [
      {
       "Places": [
        {
         "Name": "Moncton Central",
         "PostCode": "E1C",
         "LatLong": "46.0987,-64.8036"
        },
        {
         "Name": "Moncton West",
         "PostCode": "E1E",
         "LatLong": "46.0771,-64.8529"
        },
        {
         "Name": "Moncton Northwest",
         "PostCode": "E1G",
         "LatLong": "46.1797,-64.9484"
        }
       ]
      }
     ]
    },
    {
     "Name": "Miramichi",
     "Communities": [
      {
       "Places": [
        {
         "Name": "Miramichi South",
         "PostCode": "E1N",
         "LatLong": "46.9501,-65.3239"
        },
        {
         "Name": "Miramichi North",
         "PostCode": "E1V",
         "LatLong": "47.1942,-65.9381"
        }
       ]
      }
     ]
    },
    {
     "Name": "Saint John",
     "Communities": [
      {
       "Places": [
        {
         "Name": "Saint John Northeast, Renforth",
         "PostCode": "E2H",
         "LatLong": "45.35,-66.0101"
        },
        {
         "Name": "Saint John East",
         "PostCode": "E2J",
         "LatLong": "45.2563,-65.9432"
        },
        {
         "Name": "Saint John North",
         "PostCode": "E2K",
         "LatLong": "45.3053,-66.0808"
        },
        {
         "Name": "Saint John Central",
         "PostCode": "E2L",
         "LatLong": "45.2717,-66.0584"
        },
        {
         "Name": "Saint John West",
         "PostCode": "E2M",
         "LatLong": "45.2347,-66.1749"
        },
        {
         "Name": "Saint John Lakewood",
         "PostCode": "E2N",
         "LatLong": "45.3176,-65.9271"
        },
        {
         "Name": "Saint John Red Head",
         "PostCode": "E2P",
         "LatLong": "45.2426,-65.9847"
        },
        {
         "Name": "Saint John Grandview",
         "PostCode": "E2R",
         "LatLong": "46.0368,-66.0373"
        },
        {
         "Name": "Saint John Loch Lomond",
         "PostCode": "E2S",
         "LatLong": "45.3371,-65.8133"
        }
       ]
      }
     ]
    },
    {
     "Name": "Fredericton",
     "Communities": [
      {
       "Places": [
        {
         "Name": "Fredericton North",
         "PostCode": "E3A",
         "LatLong": "46.0401,-66.3862"
        },
        {
         "Name": "Fredericton South New Brunswick Provincial Government",
         "PostCode": "E3B",
         "LatLong": "45.8119,-66.6763"
        },
        {
         "Name": "Fredericton Southwest, New Maryland",
         "PostCode": "E3C",
         "LatLong": "45.902,-66.7057"
        }
       ]
      }
     ]
    },
    {
     "Name": "Grand Falls",
     "Communities": [
      {
       "Places": [
        {
         "Name": "Grand Falls Northeast",
         "PostCode": "E3Y",
         "LatLong": "47.1683,-67.6207"
        },
        {
         "Name": "Grand Falls Central",
         "PostCode": "E3Z",
         "LatLong": "46.9266,-67.7466"
        }
       ]
      }
     ]
    },
    {
     "Name": "Grand",
     "Communities": [
      {
       "Places": [
        {
         "Name": "Grand Manan Island",
         "PostCode": "E5G",
         "LatLong": "44.6976,-66.8065"
        },
        {
         "Name": "Grand Bay-Westfield",
         "PostCode": "E5K",
         "LatLong": "45.3407,-66.2528"
        }
       ]
      }
     ]
    }
   ]
  },
  {
   "Name": "Newfoundland and Labrador",
   "Code": "NL",
   "Provinces": [
    {
     "Communities": [
      {
       "Places": [
        {
         "Name": "Southeastern Avalon Peninsula (Ferryland)",
         "PostCode": "A0A",
         "LatLong": "47.2195,-53.1448"
        },
        {
         "Name": "Bonavista Peninsula (Bonavista)",
         "PostCode": "A0C",
         "LatLong": "48.3843,-53.9081"
        },
        {
         "Name": "Burin Peninsula (Marystown)",
         "PostCode": "A0E",
         "LatLong": "47.5607,-54.7801"
        },
        {
         "Name": "Northeast Newfoundland (Lewisporte)",
         "PostCode": "A0G",
         "LatLong": "48.8657,-54.7296"
        },
        {
         "Name": "Central Newfoundland (Bishops Falls)",
         "PostCode": "A0H",
         "LatLong": "48.4311,-56.1758"
        },
        {
         "Name": "Northern Newfoundland (Springdale)",
         "PostCode": "A0J",
         "LatLong": "49.5067,-56.2616"
        },
        {
         "Name": "Northwest Newfoundland/Eastern Labrador (Mary's Harbour)",
         "PostCode": "A0K",
         "LatLong": "52.7359,-57.9825"
        },
        {
         "Name": "Southwestern Newfoundland (Channel-Port aux Basques)",
         "PostCode": "A0M",
         "LatLong": "47.8037,-58.3869"
        },
        {
         "Name": "Port au Port Peninsula region (St. George's)",
         "PostCode": "A0N",
         "LatLong": "48.0868,-57.8231"
        },
        {
         "Name": "Central Labrador (Happy Valley-Goose Bay)",
         "PostCode": "A0P",
         "LatLong": "54.9549,-61.6024"
        },
        {
         "Name": "North/Western Labrador (Churchill Falls)",
         "PostCode": "A0R",
         "LatLong": "53.54,-65.112"
        },
        {
         "Name": "Torbay",
         "PostCode": "A1K",
         "LatLong": "47.6666,-52.7313"
        },
        {
         "Name": "Paradise",
         "PostCode": "A1L",
         "LatLong": "47.5291,-52.8814"
        },
        {
         "Name": "Portugal Cove-St. Philips",
         "PostCode": "A1M",
         "LatLong": "47.6207,-52.8318"
        },
        {
         "Name": "Mount Pearl",
         "PostCode": "A1N",
         "LatLong": "47.5194,-52.8122"
        },
        {
         "Name": "Goulds",
         "PostCode": "A1S",
         "LatLong": "47.4212,-52.8077"
        },
        {
         "Name": "Gander",
         "PostCode": "A1V",
         "LatLong": "48.9682,-54.5906"
        },
        {
         "Name": "Manuels",
         "PostCode": "A1W",
         "LatLong": "47.5096,-52.9447"
        },
        {
         "Name": "Conception Bay",
         "PostCode": "A1X",
         "LatLong": "47.4999,-52.9981"
        },
        {
         "Name": "Carbonear",
         "PostCode": "A1Y",
         "LatLong": "47.7113,-53.2953"
        },
        {
         "Name": "Grand Falls",
         "PostCode": "A2A",
         "LatLong": "48.9332,-55.6649"
        },
        {
         "Name": "Windsor",
         "PostCode": "A2B",
         "LatLong": "48.9499,-55.6649"
        },
        {
         "Name": "Corner Brook",
         "PostCode": "A2H",
         "LatLong": "48.9156,-57.797"
        },
        {
         "Name": "Stephenville",
         "PostCode": "A2N",
         "LatLong": "48.55,-58.5818"
        },
        {
         "Name": "Labrador City",
         "PostCode": "A2V",
         "LatLong": "52.9517,-66.9328"
        },
        {
         "Name": "Clarenville",
         "PostCode": "A5A",
         "LatLong": "48.1666,-53.9648"
        },
        {
         "Name": "Deer Lake",
         "PostCode": "A8A",
         "LatLong": "49.1667,-57.4316"
        }
       ]
      }
     ]
    },
    {
     "Name": "Western",
     "Communities": [
      {
       "Places": [
        {
         "Name": "Western Avalon Peninsula (Argentia)",
         "PostCode": "A0B",
         "LatLong": "47.327,-53.6609"
        },
        {
         "Name": "Western Newfoundland (Lark Harbour)",
         "PostCode": "A0L",
         "LatLong": "48.9445,-58.0645"
        }
       ]
      }
     ]
    },
    {
     "Name": "St. John's",
     "Communities": [
      {
       "Places": [
        {
         "Name": "St. John's North",
         "PostCode": "A1A",
         "LatLong": "47.5986,-52.6926"
        },
        {
         "Name": "St. John's Northwest Newfoundland & Labrador Provincial Government",
         "PostCode": "A1B",
         "LatLong": "47.5698,-52.7796"
        },
        {
         "Name": "St. John's North Central",
         "PostCode": "A1C",
         "LatLong": "47.5124,-52.6729"
        },
        {
         "Name": "St. John's Central",
         "PostCode": "A1E",
         "LatLong": "47.5334,-52.7595"
        },
        {
         "Name": "St. John's South",
         "PostCode": "A1G",
         "LatLong": "47.506,-52.7603"
        },
        {
         "Name": "St. John's Southwest",
         "PostCode": "A1H",
         "LatLong": "47.483,-52.8415"
        }
       ]
      }
     ]
    }
   ]
  },
  {
   "Name": "Nova Scotia",
   "Code": "NS",
   "Provinces": [
    {
     "Communities": [
      {
       "Places": [
        {
         "Name": "North Victoria County (Dingwall)",
         "PostCode": "B0C",
         "LatLong": "46.6482,-60.5396"
        },
        {
         "Name": "West Cape Breton Island (Baddeck)",
         "PostCode": "B0E",
         "LatLong": "46.1133,-61.0251"
        },
        {
         "Name": "Canso region (Havre Boucher)",
         "PostCode": "B0H",
         "LatLong": "45.3335,-61.8333"
        },
        {
         "Name": "Mainland east shore (Lunenburg)",
         "PostCode": "B0J",
         "LatLong": "44.9419,-62.6471"
        },
        {
         "Name": "Southern Northumberland Strait (Pictou)",
         "PostCode": "B0K",
         "LatLong": "45.6138,-62.9506"
        },
        {
         "Name": "Isthmus of Chignecto (River Hbert)",
         "PostCode": "B0L",
         "LatLong": "45.6908,-64.3641"
        },
        {
         "Name": "Cobequid Bay north shore (Springhill)",
         "PostCode": "B0M",
         "LatLong": "45.5354,-64.0393"
        },
        {
         "Name": "Hants County (Shubenacadie)",
         "PostCode": "B0N",
         "LatLong": "45.0963,-63.4701"
        },
        {
         "Name": "Kings County (Kingston)",
         "PostCode": "B0P",
         "LatLong": "45.0328,-64.6566"
        },
        {
         "Name": "West Lunenburg County (New Germany)",
         "PostCode": "B0R",
         "LatLong": "44.6003,-64.7443"
        },
        {
         "Name": "West Annapolis County (Middleton)",
         "PostCode": "B0S",
         "LatLong": "44.6861,-65.3002"
        },
        {
         "Name": "Queens County (Shelburne)",
         "PostCode": "B0T",
         "LatLong": "44.0802,-65.1175"
        },
        {
         "Name": "Digby Neck (Digby)",
         "PostCode": "B0V",
         "LatLong": "44.5342,-65.7783"
        },
        {
         "Name": "Southwest Mainland (Weymouth)",
         "PostCode": "B0W",
         "LatLong": "44.0486,-65.7547"
        },
        {
         "Name": "Glace Bay",
         "PostCode": "B1A",
         "LatLong": "46.197,-59.957"
        },
        {
         "Name": "Port Morien",
         "PostCode": "B1B",
         "LatLong": "46.1174,-59.9144"
        },
        {
         "Name": "Louisbourg",
         "PostCode": "B1C",
         "LatLong": "45.9485,-59.9737"
        },
        {
         "Name": "Reserve Mines",
         "PostCode": "B1E",
         "LatLong": "46.1845,-60.0166"
        },
        {
         "Name": "Dominion",
         "PostCode": "B1G",
         "LatLong": "46.2168,-60.0151"
        },
        {
         "Name": "New Waterford",
         "PostCode": "B1H",
         "LatLong": "46.2501,-60.0817"
        },
        {
         "Name": "East Bay",
         "PostCode": "B1J",
         "LatLong": "45.9834,-60.3652"
        },
        {
         "Name": "Marion Bridge",
         "PostCode": "B1K",
         "LatLong": "45.9668,-60.2318"
        },
        {
         "Name": "Christmas Island",
         "PostCode": "B1T",
         "LatLong": "45.9668,-60.7152"
        },
        {
         "Name": "North Sydney North",
         "PostCode": "B1V",
         "LatLong": "46.2437,-60.2313"
        },
        {
         "Name": "Eskasoni",
         "PostCode": "B1W",
         "LatLong": "45.9328,-60.6438"
        },
        {
         "Name": "Big Bras d'Or",
         "PostCode": "B1X",
         "LatLong": "46.2904,-60.47"
        },
        {
         "Name": "Alder Point",
         "PostCode": "B1Y",
         "LatLong": "46.2538,-60.3566"
        },
        {
         "Name": "North Sydney South Central",
         "PostCode": "B2A",
         "LatLong": "46.1169,-60.3769"
        },
        {
         "Name": "Iona",
         "PostCode": "B2C",
         "LatLong": "45.9948,-60.8421"
        },
        {
         "Name": "Loch Lomond",
         "PostCode": "B2E",
         "LatLong": "45.7501,-60.6152"
        },
        {
         "Name": "Antigonish",
         "PostCode": "B2G",
         "LatLong": "45.6168,-61.9986"
        },
        {
         "Name": "New Glasgow",
         "PostCode": "B2H",
         "LatLong": "45.5834,-62.6486"
        },
        {
         "Name": "Fourchu",
         "PostCode": "B2J",
         "LatLong": "45.707,-60.4665"
        },
        {
         "Name": "Truro",
         "PostCode": "B2N",
         "LatLong": "45.3668,-63.2654"
        },
        {
         "Name": "Waverley",
         "PostCode": "B2R",
         "LatLong": "44.7599,-63.5525"
        },
        {
         "Name": "Lantz",
         "PostCode": "B2S",
         "LatLong": "45.0209,-63.5344"
        },
        {
         "Name": "Enfield",
         "PostCode": "B2T",
         "LatLong": "44.8749,-63.4689"
        },
        {
         "Name": "Porters Lake",
         "PostCode": "B3E",
         "LatLong": "44.7722,-63.3361"
        },
        {
         "Name": "Eastern Passage",
         "PostCode": "B3G",
         "LatLong": "44.6169,-63.482"
        },
        {
         "Name": "Lakeside",
         "PostCode": "B3T",
         "LatLong": "44.5683,-63.7306"
        },
        {
         "Name": "Harrietsfield",
         "PostCode": "B3V",
         "LatLong": "44.5199,-63.6064"
        },
        {
         "Name": "Tantallon",
         "PostCode": "B3Z",
         "LatLong": "44.6386,-63.8687"
        },
        {
         "Name": "Amherst",
         "PostCode": "B4H",
         "LatLong": "45.8335,-64.1987"
        },
        {
         "Name": "Kentville",
         "PostCode": "B4N",
         "LatLong": "45.0834,-64.4988"
        },
        {
         "Name": "Wolfville",
         "PostCode": "B4P",
         "LatLong": "45.0834,-64.3655"
        },
        {
         "Name": "Coldbrook",
         "PostCode": "B4R",
         "LatLong": "45.0668,-64.5821"
        },
        {
         "Name": "Bridgewater",
         "PostCode": "B4V",
         "LatLong": "44.3835,-64.5155"
        },
        {
         "Name": "Yarmouth",
         "PostCode": "B5A",
         "LatLong": "43.8335,-66.1156"
        },
        {
         "Name": "Truro",
         "PostCode": "B6L",
         "LatLong": "45.4093,-63.2114"
        },
        {
         "Name": "Port Hawkesbury",
         "PostCode": "B9A",
         "LatLong": "45.6168,-61.3485"
        }
       ]
      }
     ]
    },
    {
     "Name": "Sydney",
     "Communities": [
      {
       "Places": [
        {
         "Name": "Sydney Southwest",
         "PostCode": "B1L",
         "LatLong": "46.0627,-60.2045"
        },
        {
         "Name": "Sydney East",
         "PostCode": "B1M",
         "LatLong": "46.127,-60.0696"
        },
        {
         "Name": "Sydney North",
         "PostCode": "B1N",
         "LatLong": "46.1975,-60.1559"
        },
        {
         "Name": "Sydney North Central",
         "PostCode": "B1P",
         "LatLong": "46.1341,-60.1749"
        },
        {
         "Name": "Sydney West",
         "PostCode": "B1R",
         "LatLong": "46.1284,-60.2915"
        },
        {
         "Name": "Sydney Central",
         "PostCode": "B1S",
         "LatLong": "46.1109,-60.2092"
        }
       ]
      }
     ]
    },
    {
     "Name": "Dartmouth",
     "Communities": [
      {
       "Places": [
        {
         "Name": "Dartmouth Morris Lake",
         "PostCode": "B2V",
         "LatLong": "44.6529,-63.4777"
        },
        {
         "Name": "Dartmouth East Central",
         "PostCode": "B2W",
         "LatLong": "44.6752,-63.5077"
        },
        {
         "Name": "Dartmouth North Central",
         "PostCode": "B2X",
         "LatLong": "44.702,-63.533"
        },
        {
         "Name": "Dartmouth South Central",
         "PostCode": "B2Y",
         "LatLong": "44.6645,-63.5453"
        },
        {
         "Name": "Dartmouth East",
         "PostCode": "B2Z",
         "LatLong": "44.7227,-63.4223"
        },
        {
         "Name": "Dartmouth Southwest",
         "PostCode": "B3A",
         "LatLong": "44.6819,-63.5768"
        },
        {
         "Name": "Dartmouth Northwest",
         "PostCode": "B3B",
         "LatLong": "44.7091,-63.5869"
        }
       ]
      }
     ]
    },
    {
     "Name": "Halifax",
     "Communities": [
      {
       "Places": [
        {
         "Name": "Halifax Lower Harbour",
         "PostCode": "B3H",
         "LatLong": "44.6344,-63.5822"
        },
        {
         "Name": "Halifax Mid-Harbour Nova Scotia Provincial Government",
         "PostCode": "B3J",
         "LatLong": "44.6451,-63.5762"
        },
        {
         "Name": "Halifax Upper Harbour",
         "PostCode": "B3K",
         "LatLong": "44.662,-63.6017"
        },
        {
         "Name": "Halifax Central",
         "PostCode": "B3L",
         "LatLong": "44.6508,-63.6146"
        },
        {
         "Name": "Halifax Bedford Basin",
         "PostCode": "B3M",
         "LatLong": "44.6784,-63.6582"
        },
        {
         "Name": "Halifax South Central",
         "PostCode": "B3N",
         "LatLong": "44.631,-63.6405"
        },
        {
         "Name": "Halifax North West Arm",
         "PostCode": "B3P",
         "LatLong": "44.6139,-63.5946"
        },
        {
         "Name": "Halifax South",
         "PostCode": "B3R",
         "LatLong": "44.5939,-63.6031"
        },
        {
         "Name": "Halifax West",
         "PostCode": "B3S",
         "LatLong": "44.6533,-63.6675"
        }
       ]
      }
     ]
    },
    {
     "Name": "Bedford",
     "Communities": [
      {
       "Places": [
        {
         "Name": "Bedford Southeast",
         "PostCode": "B4A",
         "LatLong": "44.7232,-63.656"
        },
        {
         "Name": "Bedford Northwest",
         "PostCode": "B4B",
         "LatLong": "44.7509,-63.7711"
        }
       ]
      }
     ]
    },
    {
     "Name": "Lower Sackville",
     "Communities": [
      {
       "Places": [
        {
         "Name": "Lower Sackville South",
         "PostCode": "B4C",
         "LatLong": "44.7607,-63.637"
        },
        {
         "Name": "Lower Sackville West",
         "PostCode": "B4E",
         "LatLong": "44.8163,-63.7387"
        },
        {
         "Name": "Lower Sackville North",
         "PostCode": "B4G",
         "LatLong": "44.8814,-63.6798"
        }
       ]
      }
     ]
    }
   ]
  },
  {
   "Name": "Northwest Territory",
   "Code": "NT",
   "Provinces": [
    {
     "Communities": [
      {
       "Places": [
        {
         "Name": "Central Northwest Territories (Inuvik)",
         "PostCode": "X0E",
         "LatLong": "66.8714,-120.225"
        },
        {
         "Name": "Southwestern Northwest Territories (Fort Liard)",
         "PostCode": "X0G",
         "LatLong": "60.2563,-123.3826"
        },
        {
         "Name": "Yellowknife",
         "PostCode": "X1A",
         "LatLong": "62.456,-114.3525"
        }
       ]
      }
     ]
    }
   ]
  },
  {
   "Name": "Nunavut Territory",
   "Code": "NU",
   "Provinces": [
    {
     "Communities": [
      {
       "Places": [
        {
         "Name": "Outer Nunavut (Iqaluit)",
         "PostCode": "X0A",
         "LatLong": "79.6218,-76.7765"
        },
        {
         "Name": "Central Nunavut (Cambridge Bay)",
         "PostCode": "X0B",
         "LatLong": "70.9072,-106.9604"
        },
        {
         "Name": "Inner Nunavut (Rankin Inlet)",
         "PostCode": "X0C",
         "LatLong": "64.1647,-94.7724"
        }
       ]
      }
     ]
    }
   ]
  },
  {
   "Name": "Ontario",
   "Code": "ON",
   "Provinces": [
    {
     "Name": "Algoma",
     "Code": "5883638",
     "Communities": [
      {
       "Places": [
        {
         "Name": "Algoma Southwest (Blind River)",
         "PostCode": "P0R",
         "LatLong": "46.5984,-83.0385"
        }
       ]
      }
     ]
    },
    {
     "Name": "Brant",
     "Code": "5907982",
     "Communities": [
      {
       "Places": [
        {
         "Name": "Brantford Northeast",
         "PostCode": "N3P",
         "LatLong": "43.1818,-80.2367"
        },
        {
         "Name": "Brantford Central",
         "PostCode": "N3R",
         "LatLong": "43.1692,-80.2684"
        },
        {
         "Name": "Brantford Southeast",
         "PostCode": "N3S",
         "LatLong": "43.1394,-80.2357"
        },
        {
         "Name": "Brantford Southwest",
         "PostCode": "N3T",
         "LatLong": "43.131,-80.3254"
        },
        {
         "Name": "Brantford Northwest",
         "PostCode": "N3V",
         "LatLong": "43.1734,-80.298"
        }
       ]
      }
     ]
    },
    {
     "Name": "Dufferin County",
     "Code": "5943542",
     "Communities": [
      {
       "Places": [
        {
         "Name": "Dufferin County (Shelburne)",
         "PostCode": "L0N",
         "LatLong": "44.0317,-80.2068"
        }
       ]
      }
     ]
    },
    {
     "Name": "Frontenac County",
     "Code": "5958506",
     "Communities": [
      {
       "Places": [
        {
         "Name": "Frontenac County, Addington County, Loyalist Shores and Southwest Leeds (Inverary)",
         "PostCode": "K0H",
         "LatLong": "44.7208,-76.8334"
        }
       ]
      }
     ]
    },
    {
     "Name": "Halton",
     "Code": "5969719",
     "Communities": [
      {
       "Places": [
        {
         "Name": "Halton Regional Municipality (Campbellville)",
         "PostCode": "L0P",
         "LatLong": "43.4906,-79.9998"
        },
        {
         "Name": "Milton",
         "PostCode": "L9E",
         "LatLong": "43.5168,-79.8829"
        }
       ]
      }
     ]
    },
    {
     "Name": "Hamilton",
     "Code": "5969784",
     "Communities": [
      {
       "Places": [
        {
         "Name": "Hamilton (Confederation Park / Nashdale / East Kentley / Riverdale / Lakely / Grayside / North Stoney Creek)",
         "PostCode": "L8E",
         "LatLong": "43.2245,-79.6988"
        },
        {
         "Name": "Hamilton (Greenford / North Gershome / West Stoney Creek)",
         "PostCode": "L8G",
         "LatLong": "43.2164,-79.7423"
        },
        {
         "Name": "Hamilton (West Kentley / McQuesten / Parkview / Hamilton Beach / East Industrial Sector / Normanhurst / Homeside / East Crown Point)",
         "PostCode": "L8H",
         "LatLong": "43.2596,-79.7925"
        },
        {
         "Name": "Hamilton (East Albion Falls / South Stoney Creek)",
         "PostCode": "L8J",
         "LatLong": "43.1836,-79.721"
        },
        {
         "Name": "Hamilton (East Delta / Bartonville / Glenview / Rosedale / Lower King's Forest / Red Hill / Corman / Vincent / South Gershome)",
         "PostCode": "L8K",
         "LatLong": "43.2211,-79.7994"
        },
        {
         "Name": "Hamilton (West Industrial Sector / West Crown Point / North Stipley / North Gibson / Landsdale / Keith / North End / Beasley)",
         "PostCode": "L8L",
         "LatLong": "43.2783,-79.8344"
        },
        {
         "Name": "Hamilton (West Delta / Blakeley / South Stipley / South Gibson / St. Clair)",
         "PostCode": "L8M",
         "LatLong": "43.2441,-79.8359"
        },
        {
         "Name": "Hamilton (Stinson / Corktown)",
         "PostCode": "L8N",
         "LatLong": "43.4017,-80.017"
        },
        {
         "Name": "Hamilton (Durand / Kirkendall / Chedoke Park)",
         "PostCode": "L8P",
         "LatLong": "43.2514,-79.8925"
        },
        {
         "Name": "Hamilton (Central / Strathcona / South Dundurn)",
         "PostCode": "L8R",
         "LatLong": "43.2726,-79.8792"
        },
        {
         "Name": "Hamilton (Westdale / Cootes Paradise / Ainslie Wood)",
         "PostCode": "L8S",
         "LatLong": "43.2606,-79.9161"
        },
        {
         "Name": "Hamilton (Sherwood / Huntington / Upper King's Forest / Lisgar / Berrisfield / Hampton Heights / Sunninghill)",
         "PostCode": "L8T",
         "LatLong": "43.2199,-79.8286"
        },
        {
         "Name": "Hamilton (Raleigh / Macassa / Lawfield / Thorner / Burkholme / Eastmount)",
         "PostCode": "L8V",
         "LatLong": "43.2266,-79.8499"
        },
        {
         "Name": "Hamilton (West Albion Falls / Hannon / Rymal / Trenholme / Quinndale / Templemead / Broughton / Eleanor / Randall / Rushdale / Butler / East Chappel)",
         "PostCode": "L8W",
         "LatLong": "43.1958,-79.8458"
        },
        {
         "Name": "Hamilton (Crerar / Bruleville / Hill Park / Inch Park / Centremount / Balfour / Greeningdon / Jerome)",
         "PostCode": "L9A",
         "LatLong": "43.2271,-79.871"
        },
        {
         "Name": "Hamilton (Barnstown / West Chappel / Allison / Ryckmans / Mewburn / Sheldon / Falkirk / Carpenter / Kennedy / Southwest Outskirts)",
         "PostCode": "L9B",
         "LatLong": "43.2055,-79.9004"
        },
        {
         "Name": "Hamilton (Southam / Bonnington / Yeoville / Kernighan / Gourley / Rolston / Buchanan / Mohawk / Westcliffe / Gilbert / Gilkson / Gurnett / Fessenden / Mountview)",
         "PostCode": "L9C",
         "LatLong": "43.2313,-79.9049"
        }
       ]
      }
     ]
    },
    {
     "Name": "Peterborough County",
     "Code": "6101646",
     "Communities": [
      {
       "Places": [
        {
         "Name": "Peterborough County and North Hastings County (Lakefield)",
         "PostCode": "K0L",
         "LatLong": "44.7767,-77.9687"
        }
       ]
      }
     ]
    },
    {
     "Name": "Renfrew County",
     "Code": "6119449",
     "Communities": [
      {
       "Places": [
        {
         "Name": "Renfrew County and Lanark Highlands Township (Deep River)",
         "PostCode": "K0J",
         "LatLong": "45.6606,-77.5886"
        }
       ]
      }
     ]
    },
    {
     "Name": "Toronto",
     "Code": "8133394",
     "Communities": [
      {
       "Places": [
        {
         "Name": "Downsview East (CFB Toronto)",
         "PostCode": "M3K",
         "LatLong": "43.739,-79.4692"
        },
        {
         "Name": "East Toronto (The Beaches)",
         "PostCode": "M4E",
         "LatLong": "43.6784,-79.2941"
        },
        {
         "Name": "East Toronto (The Danforth East)",
         "PostCode": "M4J",
         "LatLong": "43.6872,-79.3368"
        },
        {
         "Name": "East Toronto (The Danforth West / Riverdale)",
         "PostCode": "M4K",
         "LatLong": "43.6803,-79.3538"
        },
        {
         "Name": "East Toronto (India Bazaar / The Beaches West)",
         "PostCode": "M4L",
         "LatLong": "43.6693,-79.3155"
        },
        {
         "Name": "East Toronto (Studio District)",
         "PostCode": "M4M",
         "LatLong": "43.6561,-79.3406"
        },
        {
         "Name": "Central Toronto (Lawrence Park East)",
         "PostCode": "M4N",
         "LatLong": "43.7301,-79.3935"
        },
        {
         "Name": "Central Toronto (Davisville North)",
         "PostCode": "M4P",
         "LatLong": "43.7135,-79.3887"
        },
        {
         "Name": "Central Toronto (North Toronto West)",
         "PostCode": "M4R",
         "LatLong": "43.7143,-79.4065"
        },
        {
         "Name": "Central Toronto (Davisville)",
         "PostCode": "M4S",
         "LatLong": "43.702,-79.3853"
        },
        {
         "Name": "Central Toronto (Moore Park / Summerhill East)",
         "PostCode": "M4T",
         "LatLong": "43.6899,-79.3853"
        },
        {
         "Name": "Central Toronto (Summerhill West / Rathnelly / South Hill / Forest Hill SE / Deer Park)",
         "PostCode": "M4V",
         "LatLong": "43.6861,-79.4025"
        },
        {
         "Name": "Downtown Toronto (Rosedale)",
         "PostCode": "M4W",
         "LatLong": "43.6827,-79.373"
        },
        {
         "Name": "Downtown Toronto (St. James Town / Cabbagetown)",
         "PostCode": "M4X",
         "LatLong": "43.6684,-79.3689"
        },
        {
         "Name": "Downtown Toronto (Church and Wellesley)",
         "PostCode": "M4Y",
         "LatLong": "43.6656,-79.383"
        },
        {
         "Name": "Downtown Toronto (Regent Park / Port of Toronto)",
         "PostCode": "M5A",
         "LatLong": "43.6555,-79.3626"
        },
        {
         "Name": "Downtown Toronto (Ryerson)",
         "PostCode": "M5B",
         "LatLong": "43.6572,-79.3783"
        },