[
{
"Name": "Anhui",
"Code": "01",
"Provinces": [
{
"Name": "Hefei Shi",
"Communities": [
{
"Places": [
{
"Name": "Hefei",
"PostCode": "230000",
"Location": {
"Latitude": 31.8639,
"Longitude": 117.2808
}
}
],
"PostCode": "230000"
},
{
"Name": "Changfeng Xian",
"Code": "3401",
"Places": [
{
"Name": "Changfeng County",
"PostCode": "231100",
"Location": {
"Latitude": 31.0391,
"Longitude": 116.9737
}
}
],
"PostCode": "231100"
},
{
"Name": "Feixi Xian",
"Code": "3401",
"Places": [
{
"Name": "Feixi County",
"PostCode": "231200",
"Location": {
"Latitude": 31.0391,
"Longitude": 116.9737
}
}
],
"PostCode": "231200"
},
{
"Name": "Lujiang Xian",
"Code": "3401",
"Places": [
{
"Name": "Lujiang County",
"PostCode": "231500",
"Location": {
"Latitude": 31.0391,
"Longitude": 116.9737
}
}
],
"PostCode": "231500"
},
{
"Name": "Feidong Xian",
"Code": "3401",
"Places": [
{
"Name": "Feidong County",
"PostCode": "231600",
"Location": {
"Latitude": 31.0391,
"Longitude": 116.9737
}
}
],
"PostCode": "231600"
},
{
"Name": "Chaohu Shi",
"Code": "3401",
"Places": [
{
"Name": "Chaohu",
"PostCode": "238000",
"Location": {
"Latitude": 31.6,
"Longitude": 117.8667
}
}
],
"PostCode": "238000"
}
]
},
{
"Name": "Huainan Shi",
"Communities": [
{
"Places": [
{
"Name": "Huainan",
"PostCode": "232000",
"Location": {
"Latitude": 32.6264,
"Longitude": 116.9969
}
}
],
"PostCode": "232000"
},
{
"Name": "Fengtai Xian",
"Code": "3404",
"Places": [
{
"Name": "Fengtai County",
"PostCode": "232100",
"Location": {
"Latitude": 32.6264,
"Longitude": 116.9969
}
}
],
"PostCode": "232100"
},
{
"Name": "Shou Xian",
"Code": "3404",
"Places": [
{
"Name": "Shou County",
"PostCode": "232200",
"Location": {
"Latitude": 32.6264,
"Longitude": 116.9969
}
}
],
"PostCode": "232200"
}
]
},
{
"Name": "Bengbu Shi",
"Communities": [
{
"Places": [
{
"Name": "Bengbu",
"PostCode": "233000",
"Location": {
"Latitude": 32.9408,
"Longitude": 117.3608
}
}
],
"PostCode": "233000"
},
{
"Name": "Wuhe Xian",
"Code": "3403",
"Places": [
{
"Name": "Wuhe County",
"PostCode": "233300",
"Location": {
"Latitude": 32.9408,
"Longitude": 117.3608
}
}
],
"PostCode": "233300"
},
{
"Name": "Huaiyuan Xian",
"Code": "3403",
"Places": [
{
"Name": "Huaiyuan County",
"PostCode": "233400",
"Location": {
"Latitude": 32.9408,
"Longitude": 117.3608
}
}
],
"PostCode": "233400"
},
{
"Name": "Guzhen Xian",
"Code": "3403",
"Places": [
{
"Name": "Guzhen County",
"PostCode": "233700",
"Location": {
"Latitude": 32.9408,
"Longitude": 117.3608
}
}
],
"PostCode": "233700"
}
]
},
{
"Name": "Suzhou Shi",
"Communities": [
{
"Places": [
{
"Name": "Suzhou",
"PostCode": "234000",
"Location": {
"Latitude": 33.6361,
"Longitude": 116.9789
}
}
],
"PostCode": "234000"
},
{
"Name": "Lingbi Xian",
"Code": "3413",
"Places": [
{
"Name": "Lingbi County",
"PostCode": "234200",
"Location": {
"Latitude": 33.6361,
"Longitude": 116.9789
}
}
],
"PostCode": "234200"
},
{
"Name": "Si Xian",
"Code": "3413",
"Places": [
{
"Name": "Si County",
"PostCode": "234300",
"Location": {
"Latitude": 33.6361,
"Longitude": 116.9789
}
}
],
"PostCode": "234300"
},
{
"Name": "Xiao Xian",
"Code": "3413",
"Places": [
{
"Name": "Xiao County",
"PostCode": "235200",
"Location": {
"Latitude": 33.9744,
"Longitude": 116.7917
}
}
],
"PostCode": "235200"
},
{
"Name": "Dangshan Xian",
"Code": "3413",
"Places": [
{
"Name": "Dangshan County",
"PostCode": "235300",
"Location": {
"Latitude": 33.9744,
"Longitude": 116.7917
}
}
],
"PostCode": "235300"
},
{
"Name": "Yingshang Xian",
"Code": "3413",
"Places": [
{
"Name": "Yingshang County",
"PostCode": "236200",
"Location": {
"Latitude": 33.0817,
"Longitude": 115.5889
}
}
],
"PostCode": "236200"
}
]
},
{
"Name": "Huaibei Shi",
"Communities": [
{
"Places": [
{
"Name": "Huaibei",
"PostCode": "235000",
"Location": {
"Latitude": 33.9744,
"Longitude": 116.7917
}
}
],
"PostCode": "235000"
},
{
"Name": "Suixi Xian",
"Code": "3406",
"Places": [
{
"Name": "Suixi County, Anhui",
"PostCode": "235100",
"Location": {
"Latitude": 33.9744,
"Longitude": 116.7917
}
}
],
"PostCode": "235100"
}
]
},
{
"Name": "Fuyang Shi",
"Communities": [
{
"Places": [
{
"Name": "Fuyang",
"PostCode": "236000",
"Location": {
"Latitude": 32.9,
"Longitude": 115.8167
}
}
],
"PostCode": "236000"
},
{
"Name": "Funan Xian",
"Code": "3412",
"Places": [
{
"Name": "Funan County",
"PostCode": "236300",
"Location": {
"Latitude": 33.0817,
"Longitude": 115.5889
}
}
],
"PostCode": "236300"
},
{
"Name": "Linquan Xian",
"Code": "3412",
"Places": [
{
"Name": "Linquan County",
"PostCode": "236400",
"Location": {
"Latitude": 33.0817,
"Longitude": 115.5889
}
}
],
"PostCode": "236400"
},
{
"Name": "Jieshou Shi",
"Code": "3412",
"Places": [
{
"Name": "Jieshou",
"PostCode": "236500",
"Location": {
"Latitude": 33.2634,
"Longitude": 115.3611
}
}
],
"PostCode": "236500"
},
{
"Name": "Taihe Xian",
"Code": "3412",
"Places": [
{
"Name": "Taihe County",
"PostCode": "236600",
"Location": {
"Latitude": 33.0817,
"Longitude": 115.5889
}
}
],
"PostCode": "236600"
}
]
},
{
"Name": "Chuzhou Shi",
"Communities": [
{
"Places": [
{
"Name": "Chuzhou",
"PostCode": "239000",
"Location": {
"Latitude": 32.3219,
"Longitude": 118.2978
}
}
],
"PostCode": "239000"
},
{
"Name": "Fengyang Xian",
"Code": "3411",
"Places": [
{
"Name": "Fengyang County",
"PostCode": "233100",
"Location": {
"Latitude": 32.9408,
"Longitude": 117.3608
}
}
],
"PostCode": "233100"
},
{
"Name": "Dingyuan Xian",
"Code": "3411",
"Places": [
{
"Name": "Dingyuan County",
"PostCode": "233200",
"Location": {
"Latitude": 32.9408,
"Longitude": 117.3608
}
}
],
"PostCode": "233200"
},
{
"Name": "Lai’an Xian",
"Code": "3411",
"Places": [
{
"Name": "Lai'an County",
"PostCode": "239200",
"Location": {
"Latitude": 32.5957,
"Longitude": 118.4236
}
}
],
"PostCode": "239200"
},
{
"Name": "Tianchang Shi",
"Code": "3411",
"Places": [
{
"Name": "Tianchang",
"PostCode": "239300",
"Location": {
"Latitude": 32.685,
"Longitude": 119.0093
}
}
],
"PostCode": "239300"
},
{
"Name": "Mingguang Shi",
"Code": "3411",
"Places": [
{
"Name": "Mingguang",
"PostCode": "239400",
"Location": {
"Latitude": 32.7802,
"Longitude": 117.9638
}
}
],
"PostCode": "239400"
},
{
"Name": "Quanjiao Xian",
"Code": "3411",
"Places": [
{
"Name": "Quanjiao County",
"PostCode": "239500",
"Location": {
"Latitude": 32.5957,
"Longitude": 118.4236
}
}
],
"PostCode": "239500"
}
]
},
{
"Name": "Ma’anshan Shi",
"Communities": [
{
"Places": [
{
"Name": "Ma'anshan",
"PostCode": "243000",
"Location": {
"Latitude": 31.6858,
"Longitude": 118.5101
}
}
],
"PostCode": "243000"
},
{
"Name": "Hanshan Xian",
"Code": "3405",
"Places": [
{
"Name": "Hanshan County",
"PostCode": "238100",
"Location": {
"Latitude": 31.6,
"Longitude": 117.8667
}
}
],
"PostCode": "238100"
},
{
"Name": "He Xian",
"Code": "3405",
"Places": [
{
"Name": "He County",
"PostCode": "238200",
"Location": {
"Latitude": 31.6,
"Longitude": 117.8667
}
}
],
"PostCode": "238200"
},
{
"Name": "Dangtu Xian",
"Code": "3405",
"Places": [
{
"Name": "Dangtu County",
"PostCode": "243100",
"Location": {
"Latitude": 31.6858,
"Longitude": 118.5101
}
}
],
"PostCode": "243100"
}
]
},
{
"Name": "Anqing Shi",
"Communities": [
{
"Places": [
{
"Name": "Anqing",
"PostCode": "246000",
"Location": {
"Latitude": 30.5136,
"Longitude": 117.0472
}
}
],
"PostCode": "246000"
},
{
"Name": "Tongcheng Shi",
"Code": "3408",
"Places": [
{
"Name": "Tongcheng",
"PostCode": "231400",
"Location": {
"Latitude": 31.0391,
"Longitude": 116.9737
}
}
],
"PostCode": "231400"
},
{
"Name": "Yixiu Qu",
"Code": "3408",
"Places": [
{
"Name": "Yi'an District",
"PostCode": "244100",
"Location": {
"Latitude": 30.95,
"Longitude": 117.7833
}
}
],
"PostCode": "244100"
},
{
"Name": "Huaining Xian",
"Code": "3408",
"Places": [
{
"Name": "Huaining County",
"PostCode": "246100",
"Location": {
"Latitude": 30.5136,
"Longitude": 117.0472
}
}
],
"PostCode": "246100"
},
{
"Name": "Wangjiang Xian",
"Code": "3408",
"Places": [
{
"Name": "Wangjiang County",
"PostCode": "246200",
"Location": {
"Latitude": 30.5136,
"Longitude": 117.0472
}
}
],
"PostCode": "246200"
},
{
"Name": "Qianshan Xian",
"Code": "3408",
"Places": [
{
"Name": "Qianshan County",
"PostCode": "246300",
"Location": {
"Latitude": 30.5136,
"Longitude": 117.0472
}
}
],
"PostCode": "246300"
},
{
"Name": "Taihu Xian",
"Code": "3408",
"Places": [
{
"Name": "Taihu County",
"PostCode": "246400",
"Location": {
"Latitude": 30.5136,
"Longitude": 117.0472
}
}
],
"PostCode": "246400"
},
{
"Name": "Susong Xian",
"Code": "3408",
"Places": [
{
"Name": "Susong County",
"PostCode": "246500",
"Location": {
"Latitude": 30.5136,
"Longitude": 117.0472
}
}
],
"PostCode": "246500"
},
{
"Name": "Yuexi Xian",
"Code": "3408",
"Places": [
{
"Name": "Yuexi County",
"PostCode": "246600",
"Location": {
"Latitude": 30.5136,
"Longitude": 117.0472
}
}
],
"PostCode": "246600"
},
{
"Name": "Zongyang Xian",
"Code": "3408",
"Places": [
{
"Name": "Zongyang County",
"PostCode": "246700",
"Location": {
"Latitude": 30.5136,
"Longitude": 117.0472
}
}
],
"PostCode": "246700"
}
]
},
{
"Name": "Chizhou Shi",
"Communities": [
{
"Places": [
{
"Name": "Chizhou",
"PostCode": "247100",
"Location": {
"Latitude": 30.6613,
"Longitude": 117.4778
}
}
],
"PostCode": "247100"
},
{
"Name": "Qingyang County",
"Code": "3417",
"Places": [
{
"Name": "Qingyang County",
"PostCode": "242800",
"Location": {
"Latitude": 30.7937,
"Longitude": 118.8697
}
}
],
"PostCode": "242800"
},
{
"Name": "Shitai Xian",
"Code": "3417",
"Places": [
{
"Name": "Shitai County",
"PostCode": "245100",
"Location": {
"Latitude": 29.7114,
"Longitude": 118.3125
}
}
],
"PostCode": "245100"
},
{
"Name": "Dongzhi Xian",
"Code": "3417",
"Places": [
{
"Name": "Dongzhi County",
"PostCode": "247200",
"Location": {
"Latitude": 30.6613,
"Longitude": 117.4778
}
}
],
"PostCode": "247200"
}
]
},
{
"Name": "Wuhu Shi",
"Code": "3402",
"Communities": [
{
"Name": "Wuhu Xian",
"Code": "3402",
"Places": [
{
"Name": "Wuhu",
"PostCode": "241000",
"Location": {
"Latitude": 31.1469,
"Longitude": 118.5671
}
},
{
"Name": "Wuhu County",
"PostCode": "241100",
"Location": {
"Latitude": 31.1469,
"Longitude": 118.5671
}
}
]
},
{
"Name": "Fanchang Xian",
"Code": "3402",
"Places": [
{
"Name": "Fanchang County",
"PostCode": "241200",
"Location": {
"Latitude": 31.1469,
"Longitude": 118.5671
}
}
],
"PostCode": "241200"
},
{
"Name": "Nanling Xian",
"Code": "3402",
"Places": [
{
"Name": "Nanling County",
"PostCode": "242400",
"Location": {
"Latitude": 30.7937,
"Longitude": 118.8697
}
}
],
"PostCode": "242400"
}
]
},
{
"Name": "Tongling Shi",
"Code": "3407",
"PostCode": "244000",
"Communities": [
{
"Name": "Tongling Xian",
"Code": "3407",
"Places": [
{
"Name": "Tongling",
"PostCode": "244000",
"Location": {
"Latitude": 30.95,
"Longitude": 117.7833
}
}
],
"PostCode": "244000"
}
]
},
{
"Name": "Huangshan Shi",
"Code": "3410",
"Communities": [
{
"Name": "Huangshan Qu",
"Code": "3410",
"Places": [
{
"Name": "Huangshan City",
"PostCode": "245000",
"Location": {
"Latitude": 29.7114,
"Longitude": 118.3125
}
},
{
"Name": "Huangshan District",
"PostCode": "242700",
"Location": {
"Latitude": 30.7937,
"Longitude": 118.8697
}
}
]
},
{
"Name": "She Xian",
"Code": "3410",
"Places": [
{
"Name": "She County",
"PostCode": "245200",
"Location": {
"Latitude": 29.7114,
"Longitude": 118.3125
}
}
],
"PostCode": "245200"
},
{
"Name": "Xiuning Xian",
"Code": "3410",
"Places": [
{
"Name": "Xiuning County",
"PostCode": "245400",
"Location": {
"Latitude": 29.7114,
"Longitude": 118.3125
}
}
],
"PostCode": "245400"
},
{
"Name": "Yi Xian",
"Code": "3410",
"Places": [
{
"Name": "Yi County",
"PostCode": "245500",
"Location": {
"Latitude": 29.7114,
"Longitude": 118.3125
}
}
],
"PostCode": "245500"
},
{
"Name": "Qimen Xian",
"Code": "3410",
"Places": [
{
"Name": "Qimen County",
"PostCode": "245600",
"Location": {
"Latitude": 29.7114,
"Longitude": 118.3125
}
}
],
"PostCode": "245600"
}
]
},
{
"Name": "Lu’an Shi",
"Code": "3415",
"Communities": [
{
"Name": "Shucheng Xian",
"Code": "3415",
"Places": [
{
"Name": "Shucheng County",
"PostCode": "231300",
"Location": {
"Latitude": 31.0391,
"Longitude": 116.9737
}
}
],
"PostCode": "231300"
},
{
"Name": "Jin'an District",
"Code": "3415",
"Places": [
{
"Name": "Lu'an",
"PostCode": "237000",
"Location": {
"Latitude": 31.7356,
"Longitude": 116.5169
}
}
],
"PostCode": "237000"
},
{
"Name": "Huoshan Xian",
"Code": "3415",
"Places": [
{
"Name": "Huoshan County",
"PostCode": "237200",
"Location": {
"Latitude": 31.7356,
"Longitude": 116.5169
}
}
],
"PostCode": "237200"
},
{
"Name": "Jinzhai Xian",
"Code": "3415",
"Places": [
{
"Name": "Jinzhai County",
"PostCode": "237300",
"Location": {
"Latitude": 31.7356,
"Longitude": 116.5169
}
}
],
"PostCode": "237300"
},
{
"Name": "Huoqiu Xian",
"Code": "3415",
"Places": [
{
"Name": "Huoqiu County",
"PostCode": "237400",
"Location": {
"Latitude": 31.7356,
"Longitude": 116.5169
}
}
],
"PostCode": "237400"
}
]
},
{
"Name": "Bozhou",
"Code": "3416",
"Communities": [
{
"Name": "Mengcheng Xian",
"Code": "3416",
"Places": [
{
"Name": "Mengcheng County",
"PostCode": "233500",
"Location": {
"Latitude": 32.9408,
"Longitude": 117.3608
}
}
],
"PostCode": "233500"
},
{
"Name": "Guoyang Xian",
"Code": "3416",
"Places": [
{
"Name": "Guoyang County",
"PostCode": "233600",
"Location": {
"Latitude": 32.9408,
"Longitude": 117.3608
}
}
],
"PostCode": "233600"
},
{
"Name": "Lixin Xian",
"Code": "3416",
"Places": [
{
"Name": "Lixin County",
"PostCode": "236700",
"Location": {
"Latitude": 33.0817,
"Longitude": 115.5889
}
}
],
"PostCode": "236700"
},
{
"Name": "Qiaocheng Qu",
"Code": "3416",
"Places": [
{
"Name": "Qiaocheng District",
"PostCode": "236800",
"Location": {
"Latitude": 33.0817,
"Longitude": 115.5889
}
}
],
"PostCode": "236800"
}
]
},
{
"Name": "Xuancheng Shi",
"Code": "3418",
"Communities": [
{
"Name": "Xuanzhou Qu",
"Code": "3418",
"Places": [
{
"Name": "Xuancheng",
"PostCode": "242000",
"Location": {
"Latitude": 30.9525,
"Longitude": 118.7553
}
}
],
"PostCode": "242000"
},
{
"Name": "Langxi Xian",
"Code": "3418",
"Places": [
{
"Name": "Langxi County",
"PostCode": "242100",
"Location": {
"Latitude": 30.7937,
"Longitude": 118.8697
}
}
],
"PostCode": "242100"
},
{
"Name": "Guangde Xian",
"Code": "3418",
"Places": [
{
"Name": "Guangde County",
"PostCode": "242200",
"Location": {
"Latitude": 30.7937,
"Longitude": 118.8697
}
}
],
"PostCode": "242200"
},
{
"Name": "Ningguo Shi",
"Code": "3418",
"Places": [
{
"Name": "Ningguo",
"PostCode": "242300",
"Location": {
"Latitude": 30.6349,
"Longitude": 118.9842
}
}
],
"PostCode": "242300"
},
{
"Name": "Jing Xian",
"Code": "3418",
"Places": [
{
"Name": "Jing County",
"PostCode": "242500",
"Location": {
"Latitude": 30.7937,
"Longitude": 118.8697
}
}
],
"PostCode": "242500"
},
{
"Name": "Jingde Xian",
"Code": "3418",
"Places": [
{
"Name": "Jingde County",
"PostCode": "242600",
"Location": {
"Latitude": 30.7937,
"Longitude": 118.8697
}
}
],
"PostCode": "242600"
},
{
"Name": "Jixi Xian",
"Code": "3418",
"Places": [
{
"Name": "Jixi County",
"PostCode": "245300",
"Location": {
"Latitude": 29.7114,
"Longitude": 118.3125
}
}
],
"PostCode": "245300"
}
]
}
]
},
{
"Name": "Zhejiang",
"Code": "02",
"Provinces": [
{
"Name": "Hangzhou Shi",
"Communities": [
{
"Places": [
{
"Name": "Hangzhou",
"PostCode": "310000",
"Location": {
"Latitude": 30.2936,
"Longitude": 120.1614
}
}
],
"PostCode": "310000"
},
{
"Name": "Yuhang Qu",
"Code": "3301",
"Places": [
{
"Name": "Yuhang District",
"PostCode": "311100",
"Location": {
"Latitude": 29.8325,
"Longitude": 119.8198
}
}
],
"PostCode": "311100"
},
{
"Name": "Xiaoshan Qu",
"Code": "3301",
"Places": [
{
"Name": "Xiaoshan District",
"PostCode": "311200",
"Location": {
"Latitude": 29.8325,
"Longitude": 119.8198
}
}
],
"PostCode": "311200"
},
{
"Name": "Lin’an Shi",
"Code": "3301",
"Places": [
{
"Name": "Lin'an",
"PostCode": "311300",
"Location": {
"Latitude": 30.2358,
"Longitude": 119.7181
}
}
],
"PostCode": "311300"
},
{
"Name": "Fuyang Shi",
"Code": "3301",
"Places": [
{
"Name": "Fuyang District",
"PostCode": "311400",
"Location": {
"Latitude": 29.8325,
"Longitude": 119.8198
}
}
],
"PostCode": "311400"
},
{
"Name": "Tonglu Xian",
"Code": "3301",
"Places": [
{
"Name": "Tonglu County",
"PostCode": "311500",
"Location": {
"Latitude": 29.8325,
"Longitude": 119.8198
}
}
],
"PostCode": "311500"
},
{
"Name": "Jiande Shi",
"Code": "3301",
"Places": [
{
"Name": "Jiande",
"PostCode": "311600",
"Location": {
"Latitude": 29.5429,
"Longitude": 119.4991
}
}
],
"PostCode": "311600"
},
{
"Name": "Chun’an Xian",
"Code": "3301",
"Places": [
{
"Name": "Chun'an County",
"PostCode": "311700",
"Location": {
"Latitude": 29.8325,
"Longitude": 119.8198
}
}
],
"PostCode": "311700"
}
]
},
{
"Name": "Huzhou Shi",
"Communities": [
{
"Places": [
{
"Name": "Huzhou",
"PostCode": "313000",
"Location": {
"Latitude": 30.8703,
"Longitude": 120.0933
}
}
],
"PostCode": "313000"
},
{
"Name": "Changxing Xian",
"Code": "3305",
"Places": [
{
"Name": "Changxing County",
"PostCode": "313100",
"Location": {
"Latitude": 30.8703,
"Longitude": 120.0933
}
}
],
"PostCode": "313100"
},
{
"Name": "Deqing County",
"Code": "3305",
"Places": [
{
"Name": "Deqing County",
"PostCode": "313200",
"Location": {
"Latitude": 30.8703,
"Longitude": 120.0933
}
}
],
"PostCode": "313200"
},
{
"Name": "Anji Xian",
"Code": "3305",
"Places": [
{
"Name": "Anji County",
"PostCode": "313300",
"Location": {
"Latitude": 30.8703,
"Longitude": 120.0933
}
}
],
"PostCode": "313300"
}
]
},
{
"Name": "Jiaxing Shi",
"Communities": [
{
"Places": [
{
"Name": "Jiaxing",
"PostCode": "314000",
"Location": {
"Latitude": 30.7522,
"Longitude": 120.75
}
}
],
"PostCode": "314000"
},
{
"Name": "Jiashan Xian",
"Code": "3304",
"Places": [
{
"Name": "Jiashan County",
"PostCode": "314100",
"Location": {
"Latitude": 30.6558,
"Longitude": 120.7521
}
}
],
"PostCode": "314100"
},
{
"Name": "Pinghu Shi",
"Code": "3304",
"Places": [
{
"Name": "Pinghu",
"PostCode": "314200",
"Location": {
"Latitude": 30.7017,
"Longitude": 121.0111
}
}
],
"PostCode": "314200"
},
{
"Name": "Haiyan Xian",
"Code": "3304",
"Places": [
{
"Name": "Haiyan County",
"PostCode": "314300",
"Location": {
"Latitude": 30.6558,
"Longitude": 120.7521
}
}
],
"PostCode": "314300"
},
{
"Name": "Haining Shi",
"Code": "3304",
"Places": [
{
"Name": "Haining",
"PostCode": "314400",
"Location": {
"Latitude": 30.5363,
"Longitude": 120.6864
}
}
],
"PostCode": "314400"
},
{
"Name": "Tongxiang Shi",
"Code": "3304",
"Places": [
{
"Name": "Tongxiang",
"PostCode": "314500",
"Location": {
"Latitude": 30.6329,
"Longitude": 120.5608
}
}
],
"PostCode": "314500"
}
]
},
{
"Name": "Ningbo Shi",
"Communities": [
{
"Places": [
{
"Name": "Ningbo",
"PostCode": "315000",
"Location": {
"Latitude": 29.8782,
"Longitude": 121.5495
}
}
],
"PostCode": "315000"
},
{
"Name": "Yinzhou Qu",
"Code": "3302",
"Places": [
{
"Name": "Yinzhou District",
"PostCode": "315100",
"Location": {
"Latitude": 29.8615,
"Longitude": 121.3684
}
}
],
"PostCode": "315100"
},
{
"Name": "Zhenhai Qu",
"Code": "3302",
"Places": [
{
"Name": "Zhenhai District",
"PostCode": "315200",
"Location": {
"Latitude": 29.8615,
"Longitude": 121.3684
}
}
],
"PostCode": "315200"
},
{
"Name": "Cixi Shi",
"Code": "3302",
"Places": [
{
"Name": "Cixi City",
"PostCode": "315300",
"Location": {
"Latitude": 29.8615,
"Longitude": 121.3684
}
}
],
"PostCode": "315300"
},
{
"Name": "Yuyao Shi",
"Code": "3302",
"Places": [
{
"Name": "Yuyao",
"PostCode": "315400",
"Location": {
"Latitude": 30.05,
"Longitude": 121.1494
}
}
],
"PostCode": "315400"
},
{
"Name": "Fenghua Shi",
"Code": "3302",
"Places": [
{
"Name": "Fenghua",
"PostCode": "315500",
"Location": {
"Latitude": 29.6563,
"Longitude": 121.4064
}
}
],
"PostCode": "315500"
},
{
"Name": "Ninghai Xian",
"Code": "3302",
"Places": [
{
"Name": "Ninghai County",
"PostCode": "315600",
"Location": {
"Latitude": 29.8615,
"Longitude": 121.3684
}
}
],
"PostCode": "315600"
},
{
"Name": "Xiangshan Xian",
"Code": "3302",
"Places": [
{
"Name": "Xiangshan County",
"PostCode": "315700",
"Location": {
"Latitude": 29.8615,
"Longitude": 121.3684
}
}
],
"PostCode": "315700"
},
{
"Name": "Beilun Qu",
"Code": "3302",
"Places": [
{
"Name": "Beilun District",
"PostCode": "315800",
"Location": {
"Latitude": 29.8615,
"Longitude": 121.3684
}
}
],
"PostCode": "315800"
}
]
},
{
"Name": "Zhoushan Shi",
"Communities": [
{
"Places": [
{
"Name": "Zhoushan",
"PostCode": "316000",
"Location": {
"Latitude": 29.9887,
"Longitude": 122.2049
}
}
],
"PostCode": "316000"
},
{
"Name": "Shengsi Xian",
"Code": "3309",
"Places": [
{
"Name": "Shengsi County",
"PostCode": "202400",
"Location": {
"Latitude": 31.2222,
"Longitude": 121.4581
}
}
],
"PostCode": "202400"
},
{
"Name": "Putuo Qu",
"Code": "3309",
"Places": [
{
"Name": "Putuo District",
"PostCode": "316100",
"Location": {
"Latitude": 29.9887,
"Longitude": 122.2049
}
}
],
"PostCode": "316100"
},
{
"Name": "Daishan Xian",
"Code": "3309",
"Places": [
{
"Name": "Daishan County",
"PostCode": "316200",
"Location": {
"Latitude": 29.9887,
"Longitude": 122.2049
}
}
],
"PostCode": "316200"
}
]
},
{
"Name": "Taizhou Shi",
"Communities": [
{
"Places": [
{
"Name": "Taizhou",
"PostCode": "318000",
"Location": {
"Latitude": 28.8554,
"Longitude": 121.1447
}
}
],
"PostCode": "318000"
},
{
"Name": "Linhai Shi",
"Code": "3310",
"Places": [
{
"Name": "Linhai",
"PostCode": "317000",
"Location": {
"Latitude": 28.8554,
"Longitude": 121.1447
}
}
],
"PostCode": "317000"
},
{
"Name": "Sanmen Xian",
"Code": "3310",
"Places": [
{
"Name": "Sanmen County",
"PostCode": "317100",
"Location": {
"Latitude": 28.6153,
"Longitude": 121.2644
}
}
],
"PostCode": "317100"
},
{
"Name": "Tiantai Xian",
"Code": "3310",
"Places": [
{
"Name": "Tiantai County",
"PostCode": "317200",
"Location": {
"Latitude": 28.6153,
"Longitude": 121.2644
}
}
],
"PostCode": "317200"
},
{
"Name": "Wenling County",
"Code": "3310",
"Places": [
{
"Name": "Wenling",
"PostCode": "317500",
"Location": {
"Latitude": 28.3752,
"Longitude": 121.3842
}
}
],
"PostCode": "317500"
},
{
"Name": "Yuhuan Xian",
"Code": "3310",
"Places": [
{
"Name": "Yuhuan County",
"PostCode": "317600",
"Location": {
"Latitude": 28.6153,
"Longitude": 121.2644
}
}
],
"PostCode": "317600"
}
]
},
{
"Name": "Lishui Shi",
"Communities": [
{
"Places": [
{
"Name": "Lishui",
"PostCode": "323000",
"Location": {
"Latitude": 28.4604,
"Longitude": 119.9103
}
}
],
"PostCode": "323000"
},
{
"Name": "Xianju Xian",
"Code": "3311",
"Places": [
{
"Name": "Xianju County",
"PostCode": "317300",
"Location": {
"Latitude": 28.6153,
"Longitude": 121.2644
}
}
],
"PostCode": "317300"
},
{
"Name": "Jinyun Xian",
"Code": "3311",
"Places": [
{
"Name": "Jinyun County",
"PostCode": "321400",
"Location": {
"Latitude": 29.0681,
"Longitude": 119.7163
}
}
],
"PostCode": "321400"
},
{
"Name": "Suichang Xian",
"Code": "3311",
"Places": [
{
"Name": "Suichang County",
"PostCode": "323300",
"Location": {
"Latitude": 28.2706,
"Longitude": 119.5154
}
}
],
"PostCode": "323300"
},
{
"Name": "Songyang Xian",
"Code": "3311",
"Places": [
{
"Name": "Songyang County",
"PostCode": "323400",
"Location": {
"Latitude": 28.2706,
"Longitude": 119.5154
}
}
],
"PostCode": "323400"
},
{
"Name": "Jingning Shezu Zizhixian",
"Code": "3311",
"Places": [
{
"Name": "Jingning She Autonomous County",
"PostCode": "323500",
"Location": {
"Latitude": 28.2706,
"Longitude": 119.5154
}
}
],
"PostCode": "323500"
},
{
"Name": "Longquan Shi",
"Code": "3311",
"Places": [
{
"Name": "Longquan",
"PostCode": "323600",
"Location": {
"Latitude": 28.0808,
"Longitude": 119.1206
}
}
],
"PostCode": "323600"
},
{
"Name": "Yunhe Xian",
"Code": "3311",
"Places": [
{
"Name": "Yunhe County",
"PostCode": "323700",
"Location": {
"Latitude": 28.2706,
"Longitude": 119.5154
}
}
],
"PostCode": "323700"
},
{
"Name": "Qingyuan Xian",
"Code": "3311",
"Places": [
{
"Name": "Qingyuan County",
"PostCode": "323800",
"Location": {
"Latitude": 28.2706,
"Longitude": 119.5154
}
}
],
"PostCode": "323800"
},
{
"Name": "Qingtian Xian",
"Code": "3311",
"Places": [
{
"Name": "Qingtian County",
"PostCode": "323900",
"Location": {
"Latitude": 28.2706,
"Longitude": 119.5154
}
}
],
"PostCode": "323900"
}
]
},
{
"Name": "Quzhou Shi",
"Communities": [
{
"Places": [
{
"Name": "Quzhou",
"PostCode": "324000",
"Location": {
"Latitude": 28.9594,
"Longitude": 118.8686
}
}
],
"PostCode": "324000"
},
{
"Name": "Jiangshan Shi",
"Code": "3308",
"Places": [
{
"Name": "Jiangshan",
"PostCode": "324100",
"Location": {
"Latitude": 28.7392,
"Longitude": 118.6228
}
}
],
"PostCode": "324100"
},
{
"Name": "Changshan Xian",
"Code": "3308",
"Places": [
{
"Name": "Changshan County",
"PostCode": "324200",
"Location": {
"Latitude": 28.8493,
"Longitude": 118.7457
}
}
],
"PostCode": "324200"
},
{
"Name": "Kaihua Xian",
"Code": "3308",
"Places": [
{
"Name": "Kaihua County",
"PostCode": "324300",
"Location": {
"Latitude": 28.8493,
"Longitude": 118.7457
}
}
],
"PostCode": "324300"
},
{
"Name": "Longyou Xian",
"Code": "3308",
"Places": [
{
"Name": "Longyou County",
"PostCode": "324400",
"Location": {
"Latitude": 28.8493,
"Longitude": 118.7457
}
}
],
"PostCode": "324400"
}
]
},
{
"Name": "Wenzhou Shi",
"Communities": [
{
"Places": [
{
"Name": "Wenzhou",
"PostCode": "325000",
"Location": {
"Latitude": 27.9994,
"Longitude": 120.6668
}
}
],
"PostCode": "325000"
},
{
"Name": "Yongjia Xian",
"Code": "3303",
"Places": [
{
"Name": "Yongjia County",
"PostCode": "325100",
"Location": {
"Latitude": 27.965,
"Longitude": 120.7622
}
}
],
"PostCode": "325100"
},
{
"Name": "Rui’an Shi",
"Code": "3303",
"Places": [
{
"Name": "Rui'an",
"PostCode": "325200",
"Location": {
"Latitude": 27.776,
"Longitude": 120.6586
}
}
],
"PostCode": "325200"
},
{
"Name": "Wencheng Xian",
"Code": "3303",
"Places": [
{
"Name": "Wencheng County",
"PostCode": "325300",
"Location": {
"Latitude": 27.965,
"Longitude": 120.7622
}
}
],
"PostCode": "325300"
},
{
"Name": "Pingyang Xian",
"Code": "3303",
"Places": [
{
"Name": "Pingyang County",
"PostCode": "325400",
"Location": {
"Latitude": 27.965,
"Longitude": 120.7622
}
}
],
"PostCode": "325400"
},
{
"Name": "Taishun Xian",
"Code": "3303",
"Places": [
{
"Name": "Taishun County",
"PostCode": "325500",
"Location": {
"Latitude": 27.965,
"Longitude": 120.7622
}
}
],
"PostCode": "325500"
},
{
"Name": "Yueqing Shi",
"Code": "3303",
"Places": [
{
"Name": "Yueqing",
"PostCode": "325600",
"Location": {
"Latitude": 28.1194,
"Longitude": 120.9612
}
}
],
"PostCode": "325600"
},
{
"Name": "Dongtou Xian",
"Code": "3303",
"Places": [
{
"Name": "Dongtou District",
"PostCode": "325700",
"Location": {
"Latitude": 27.965,
"Longitude": 120.7622
}
}
],
"PostCode": "325700"
},
{
"Name": "Cangnan Xian",
"Code": "3303",
"Places": [
{
"Name": "Cangnan County",
"PostCode": "325800",
"Location": {
"Latitude": 27.965,
"Longitude": 120.7622
}
}
],
"PostCode": "325800"
}
]
},
{
"Name": "Shaoxing Shi",
"Code": "3306",
"Communities": [
{
"Name": "Zhuji Shi",
"Code": "3306",
"Places": [
{
"Name": "Zhuji",
"PostCode": "311800",
"Location": {
"Latitude": 29.7188,
"Longitude": 120.2423
}
}
],
"PostCode": "311800"
},
{
"Name": "Yuecheng Qu",
"Code": "3306",
"Places": [
{
"Name": "Shaoxing",
"PostCode": "312000",
"Location": {
"Latitude": 30.0024,
"Longitude": 120.5786
}
}
],
"PostCode": "312000"
},
{
"Name": "Shangyu District",
"Code": "3306",
"Places": [
{
"Name": "Shangyu District",
"PostCode": "312300",
"Location": {
"Latitude": 29.7991,
"Longitude": 120.6977
}
}
],
"PostCode": "312300"
},
{
"Name": "Shengzhou Shi",
"Code": "3306",
"Places": [
{
"Name": "Shengzhou",
"PostCode": "312400",
"Location": {
"Latitude": 29.5958,
"Longitude": 120.8167
}
}
],
"PostCode": "312400"
},
{
"Name": "Xinchang Xian",
"Code": "3306",
"Places": [
{
"Name": "Xinchang County",
"PostCode": "312500",
"Location": {
"Latitude": 29.7991,
"Longitude": 120.6977
}
}
],
"PostCode": "312500"
}
]
},
{
"Name": "Jinhua Shi",
"Code": "3307",
"Communities": [
{
"Name": "Jindong Qu",
"Code": "3307",
"Places": [
{
"Name": "Jinhua",
"PostCode": "321000",
"Location": {
"Latitude": 29.1068,
"Longitude": 119.6442
}
}
],
"PostCode": "321000"
},
{
"Name": "Lanxi Shi",
"Code": "3307",
"Places": [
{
"Name": "Lanxi",
"PostCode": "321100",
"Location": {
"Latitude": 29.2159,
"Longitude": 119.4716
}
}
],
"PostCode": "321100"
},
{
"Name": "Wuyi Xian",
"Code": "3307",
"Places": [
{
"Name": "Wuyi County",
"PostCode": "321200",
"Location": {
"Latitude": 29.0681,
"Longitude": 119.7163
}
}
],
"PostCode": "321200"
},
{
"Name": "Yongkang Shi",
"Code": "3307",
"Places": [
{
"Name": "Yongkang",
"PostCode": "321300",
"Location": {
"Latitude": 28.8816,
"Longitude": 120.0331
}
}
],
"PostCode": "321300"
},
{
"Name": "Yiwu Shi",
"Code": "3307",
"Places": [
{
"Name": "Yiwu",
"PostCode": "322000",
"Location": {
"Latitude": 29.3151,
"Longitude": 120.0768
}
}
],
"PostCode": "322000"
},
{
"Name": "Dongyang County",
"Code": "3307",
"Places": [
{
"Name": "Dongyang",
"PostCode": "322100",
"Location": {
"Latitude": 29.2678,
"Longitude": 120.2253
}
}
],
"PostCode": "322100"
},
{
"Name": "Pujiang Xian",
"Code": "3307",
"Places": [
{
"Name": "Pujiang County",
"PostCode": "322200",
"Location": {
"Latitude": 29.2914,
"Longitude": 120.151
}
}
],
"PostCode": "322200"
},
{
"Name": "Pan’an Xian",
"Code": "3307",
"Places": [
{
"Name": "Pan'an County",
"PostCode": "322300",
"Location": {
"Latitude": 29.2914,
"Longitude": 120.151
}
}
],
"PostCode": "322300"
}
]
}
]
},
{
"Name": "Jiangxi",
"Code": "03",
"Provinces": [
{
"Name": "Jingdezhen Shi",
"Communities": [
{
"Places": [
{
"Name": "Jingdezhen",
"PostCode": "333000",
"Location": {
"Latitude": 29.2947,
"Longitude": 117.2079
}
}
],
"PostCode": "333000"
},
{
"Name": "Leping Shi",
"Code": "3602",
"Places": [
{
"Name": "Leping",
"PostCode": "333300",
"Location": {
"Latitude": 28.9682,
"Longitude": 117.1165
}
}
],
"PostCode": "333300"
}
]
},
{
"Name": "Yingtan Shi",
"Communities": [
{
"Places": [
{
"Name": "Yingtan",
"PostCode": "335000",
"Location": {
"Latitude": 28.2333,
"Longitude": 117.0
}
}
],
"PostCode": "335000"
},
{
"Name": "Yujiang Xian",
"Code": "3606",
"Places": [
{
"Name": "Yujiang County",
"PostCode": "335200",
"Location": {
"Latitude": 28.2333,
"Longitude": 117.0
}
}
],
"PostCode": "335200"
},
{
"Name": "Guixi Shi",
"Code": "3606",
"Places": [
{
"Name": "Guixi City",
"PostCode": "335400",
"Location": {
"Latitude": 28.2333,
"Longitude": 117.0
}
}
],
"PostCode": "335400"
}
]
},
{
"Name": "Yichun Shi",
"Communities": [
{
"Places": [
{
"Name": "Yichun",
"PostCode": "336000",
"Location": {
"Latitude": 27.8333,
"Longitude": 114.4
}
}
],
"PostCode": "336000"
},
{
"Name": "Jing’an Xian",
"Code": "3609",
"Places": [
{
"Name": "Jing'an County",
"PostCode": "330600",
"Location": {
"Latitude": 28.2065,
"Longitude": 114.921
}
}
],
"PostCode": "330600"
},
{
"Name": "Fengxin Xian",
"Code": "3609",
"Places": [
{
"Name": "Fengxin County",
"PostCode": "330700",
"Location": {
"Latitude": 28.2065,
"Longitude": 114.921
}
}
],
"PostCode": "330700"
},
{
"Name": "Gao’an Shi",
"Code": "3609",
"Places": [
{
"Name": "Gao'an",
"PostCode": "330800",
"Location": {
"Latitude": 27.729,
"Longitude": 113.989
}
}
],
"PostCode": "330800"
},
{
"Name": "Fengcheng Shi",
"Code": "3609",
"Places": [
{
"Name": "Fengcheng",
"PostCode": "331100",
"Location": {
"Latitude": 28.1938,
"Longitude": 115.7836
}
}
],
"PostCode": "331100"
},
{
"Name": "Zhangshu Shi",
"Code": "3609",
"Places": [
{
"Name": "Zhangshu",
"PostCode": "331200",
"Location": {
"Latitude": 28.0833,
"Longitude": 115.5167
}
}
],
"PostCode": "331200"
},
{
"Name": "Wanzai Xian",
"Code": "3609",
"Places": [
{
"Name": "Wanzai County",
"PostCode": "336100",
"Location": {
"Latitude": 27.8362,
"Longitude": 114.623
}
}
],
"PostCode": "336100"
},
{
"Name": "Tonggu Xian",
"Code": "3609",
"Places": [
{
"Name": "Tonggu County",
"PostCode": "336200",
"Location": {
"Latitude": 27.8362,
"Longitude": 114.623
}
}
],
"PostCode": "336200"
},
{
"Name": "Yifeng Xian",
"Code": "3609",
"Places": [
{
"Name": "Yifeng County",
"PostCode": "336300",
"Location": {
"Latitude": 27.8362,
"Longitude": 114.623
}
}
],
"PostCode": "336300"
},
{
"Name": "Shanggao Xian",
"Code": "3609",
"Places": [
{
"Name": "Shanggao County",
"PostCode": "336400",
"Location": {
"Latitude": 27.8362,
"Longitude": 114.623
}
}
],
"PostCode": "336400"
}
]
},
{
"Name": "Xinyu",
"Communities": [
{
"Places": [
{
"Name": "Xinyu",
"PostCode": "336500",
"Location": {
"Latitude": 27.8391,
"Longitude": 114.8459
}
}
],
"PostCode": "336500"
},
{
"Name": "Fenyi Xian",
"Code": "3605",
"Places": [
{
"Name": "Fenyi County",
"PostCode": "336600",
"Location": {
"Latitude": 27.8362,
"Longitude": 114.623
}
}
],
"PostCode": "336600"
}
]
},
{
"Name": "Pingxiang Shi",
"Communities": [
{
"Places": [
{
"Name": "Pingxiang",
"PostCode": "337000",
"Location": {
"Latitude": 27.6167,
"Longitude": 113.8535
}
}
],
"PostCode": "337000"
},
{
"Name": "Lianhua Xian",
"Code": "3603",
"Places": [
{
"Name": "Lianhua County",
"PostCode": "337100",
"Location": {
"Latitude": 27.6167,
"Longitude": 113.8535
}
}
],
"PostCode": "337100"
},
{
"Name": "Luxi Xian",
"Code": "3603",
"Places": [
{
"Name": "Luxi County",
"PostCode": "337200",
"Location": {
"Latitude": 27.6167,
"Longitude": 113.8535
}
}
],
"PostCode": "337200"
}
]
},
{
"Name": "Ganzhou Shi",
"Communities": [
{
"Places": [
{
"Name": "Ganzhou",
"PostCode": "341000",
"Location": {
"Latitude": 25.8466,
"Longitude": 114.9326
}
}
],
"PostCode": "341000"
},
{
"Name": "Gan Xian",
"Code": "3607",
"Places": [
{
"Name": "Gan County",
"PostCode": "341100",
"Location": {
"Latitude": 25.8466,
"Longitude": 114.9326
}
}
],
"PostCode": "341100"
},
{
"Name": "Shangyou Xian",
"Code": "3607",
"Places": [
{
"Name": "Shangyou County",
"PostCode": "341200",
"Location": {
"Latitude": 25.8466,
"Longitude": 114.9326
}
}
],
"PostCode": "341200"
},
{
"Name": "Chongyi Xian",
"Code": "3607",
"Places": [
{
"Name": "Chongyi County",
"PostCode": "341300",
"Location": {
"Latitude": 25.8466,
"Longitude": 114.9326
}
}
],
"PostCode": "341300"
},
{
"Name": "Nankang Shi",
"Code": "3607",
"Places": [
{
"Name": "Nankang District",
"PostCode": "341400",
"Location": {
"Latitude": 25.8466,
"Longitude": 114.9326
}
}
],
"PostCode": "341400"
},
{
"Name": "Dayu Xian",
"Code": "3607",
"Places": [
{
"Name": "Dayu County",
"PostCode": "341500",
"Location": {
"Latitude": 25.8466,
"Longitude": 114.9326
}
}
],
"PostCode": "341500"
},
{
"Name": "Xinfeng Xian",
"Code": "3607",
"Places": [
{
"Name": "Xinfeng County",
"PostCode": "341600",
"Location": {
"Latitude": 25.8466,
"Longitude": 114.9326
}
}
],
"PostCode": "341600"
},
{
"Name": "Longnan",
"Code": "3607",
"Places": [
{
"Name": "Longnan County",
"PostCode": "341700",
"Location": {
"Latitude": 25.8466,
"Longitude": 114.9326
}
}
],
"PostCode": "341700"
},
{
"Name": "Quannan Xian",
"Code": "3607",
"Places": [
{
"Name": "Quannan County",
"PostCode": "341800",
"Location": {
"Latitude": 25.8466,
"Longitude": 114.9326
}
}
],
"PostCode": "341800"
},
{
"Name": "Dingnan Xian",
"Code": "3607",
"Places": [
{
"Name": "Dingnan County",
"PostCode": "341900",
"Location": {
"Latitude": 25.8466,
"Longitude": 114.9326
}
}
],
"PostCode": "341900"
},
{
"Name": "Anyuan Xian",
"Code": "3607",
"Places": [
{
"Name": "Anyuan County",
"PostCode": "342100",
"Location": {
"Latitude": 25.8832,
"Longitude": 116.0272
}
}
],
"PostCode": "342100"
},
{
"Name": "Xunwu Xian",
"Code": "3607",
"Places": [
{
"Name": "Xunwu County",
"PostCode": "342200",
"Location": {
"Latitude": 25.8832,
"Longitude": 116.0272
}
}
],
"PostCode": "342200"
},
{
"Name": "Yudu Xian",
"Code": "3607",
"Places": [
{
"Name": "Yudu County",
"PostCode": "342300",
"Location": {
"Latitude": 25.8832,
"Longitude": 116.0272
}
}
],
"PostCode": "342300"
},
{
"Name": "Xingguo Xian",
"Code": "3607",
"Places": [
{
"Name": "Xingguo County",
"PostCode": "342400",
"Location": {
"Latitude": 25.8832,
"Longitude": 116.0272
}
}
],
"PostCode": "342400"
},
{
"Name": "Ruijin Shi",
"Code": "3607",
"Places": [
{
"Name": "Ruijin",
"PostCode": "342500",
"Location": {
"Latitude": 25.8832,
"Longitude": 116.0272
}
}
],
"PostCode": "342500"
},
{
"Name": "Shicheng Xian",
"Code": "3607",
"Places": [
{
"Name": "Shicheng County",
"PostCode": "342700",
"Location": {
"Latitude": 25.8832,
"Longitude": 116.0272
}
}
],
"PostCode": "342700"
},
{
"Name": "Ningdu Xian",
"Code": "3607",
"Places": [
{
"Name": "Ningdu County",
"PostCode": "342800",
"Location": {
"Latitude": 25.8832,
"Longitude": 116.0272
}
}
],
"PostCode": "342800"
}
]
},
{
"Name": "Fuzhou Shi",
"Communities": [
{
"Places": [
{
"Name": "Fuzhou",
"PostCode": "344000",
"Location": {
"Latitude": 27.96,
"Longitude": 116.3333
}
}
],
"PostCode": "344000"
},
{
"Name": "Dongxiang Xian",
"Code": "3610",
"Places": [
{
"Name": "Dongxiang County",
"PostCode": "331800",
"Location": {
"Latitude": 28.1386,
"Longitude": 115.6501
}
}
],
"PostCode": "331800"
},
{
"Name": "Zixi Xian",
"Code": "3610",
"Places": [
{
"Name": "Zixi County",
"PostCode": "335300",
"Location": {
"Latitude": 28.2333,
"Longitude": 117.0
}
}
],
"PostCode": "335300"
},
{
"Name": "Linchuan Qu",
"Code": "3610",
"Places": [
{
"Name": "Parts of Linchuan District",
"PostCode": "344100",
"Location": {
"Latitude": 27.96,
"Longitude": 116.3333
}
}
],
"PostCode": "344100"
},
{
"Name": "Chongren Xian",
"Code": "3610",
"Places": [
{
"Name": "Chongren County",
"PostCode": "344200",
"Location": {
"Latitude": 27.96,
"Longitude": 116.3333
}
}
],
"PostCode": "344200"
},
{
"Name": "Le’an Xian",
"Code": "3610",
"Places": [
{
"Name": "Le'an County",
"PostCode": "344300",
"Location": {
"Latitude": 27.96,
"Longitude": 116.3333
}
}
],
"PostCode": "344300"
},
{
"Name": "Yihuang Xian",
"Code": "3610",
"Places": [
{
"Name": "Yihuang County",
"PostCode": "344400",
"Location": {
"Latitude": 27.96,
"Longitude": 116.3333
}
}
],
"PostCode": "344400"
},
{
"Name": "Nanfeng Xian",
"Code": "3610",
"Places": [
{
"Name": "Nanfeng County",
"PostCode": "344500",
"Location": {
"Latitude": 27.96,
"Longitude": 116.3333
}
}
],
"PostCode": "344500"
},
{
"Name": "Lichuan Xian",
"Code": "3610",
"Places": [
{
"Name": "Lichuan County",
"PostCode": "344600",
"Location": {
"Latitude": 27.96,
"Longitude": 116.3333
}
}
],
"PostCode": "344600"
},
{
"Name": "Nancheng Xian",
"Code": "3610",
"Places": [
{
"Name": "Nancheng County",
"PostCode": "344700",
"Location": {
"Latitude": 27.96,
"Longitude": 116.3333
}
}
],
"PostCode": "344700"
},
{
"Name": "Jinxi Xian",
"Code": "3610",
"Places": [
{
"Name": "Jinxi County",
"PostCode": "344800",
"Location": {
"Latitude": 27.96,
"Longitude": 116.3333
}
}
],
"PostCode": "344800"
},
{
"Name": "Guangchang Xian",
"Code": "3610",
"Places": [
{
"Name": "Guangchang County",
"PostCode": "344900",
"Location": {
"Latitude": 27.96,
"Longitude": 116.3333
}
}
],
"PostCode": "344900"
}
]
},
{
"Name": "Nanchang Shi",
"Code": "3601",
"Communities": [
{
"Name": "Nanchang Xian",
"Code": "3601",
"Places": [
{
"Name": "Nanchang",
"PostCode": "330000",
"Location": {
"Latitude": 28.684,
"Longitude": 115.8531
}
},
{
"Name": "Nanchang County",
"PostCode": "330200",
"Location": {
"Latitude": 28.2065,
"Longitude": 114.921
}
}
]
},
{
"Name": "Xinjian Xian",
"Code": "3601",
"Places": [
{
"Name": "Xinjian District",
"PostCode": "330100",
"Location": {
"Latitude": 28.2065,
"Longitude": 114.921
}
}
],
"PostCode": "330100"
},
{
"Name": "Anyi Xian",
"Code": "3601",
"Places": [
{
"Name": "Anyi County",
"PostCode": "330500",
"Location": {
"Latitude": 28.2065,
"Longitude": 114.921
}
}
],
"PostCode": "330500"
},
{
"Name": "Jinxian Xian",
"Code": "3601",
"Places": [
{
"Name": "Jinxian County",
"PostCode": "331700",
"Location": {
"Latitude": 28.1386,
"Longitude": 115.6501
}
}
],
"PostCode": "331700"
}
]
},
{
"Name": "Jiujiang Shi",
"Code": "3604",
"Communities": [
{
"Name": "Yongxiu Xian",
"Code": "3604",
"Places": [
{
"Name": "Yongxiu County",
"PostCode": "330300",
"Location": {
"Latitude": 28.2065,
"Longitude": 114.921
}
}
],
"PostCode": "330300"
},
{
"Name": "De’an Xian",
"Code": "3604",
"Places": [
{
"Name": "De'an County",
"PostCode": "330400",
"Location": {
"Latitude": 28.2065,
"Longitude": 114.921
}
}
],
"PostCode": "330400"
},
{
"Name": "Jiujiang Xian",
"Code": "3604",
"Places": [
{
"Name": "Jiujiang",
"PostCode": "332000",
"Location": {
"Latitude": 29.6079,
"Longitude": 115.8872
}
},
{
"Name": "Jiujiang County",
"PostCode": "332100",
"Location": {
"Latitude": 29.6438,
"Longitude": 115.772
}
}
]
},
{
"Name": "Ruichang Shi",
"Code": "3604",
"Places": [
{
"Name": "Ruichang",
"PostCode": "332200",
"Location": {
"Latitude": 29.6797,
"Longitude": 115.6567
}
}
],
"PostCode": "332200"
},
{
"Name": "Wuning Xian",
"Code": "3604",
"Places": [
{
"Name": "Wuning County",
"PostCode": "332300",
"Location": {
"Latitude": 29.6438,
"Longitude": 115.772
}
}
],
"PostCode": "332300"
},
{
"Name": "Xiushui Xian",
"Code": "3604",
"Places": [
{
"Name": "Xiushui County",
"PostCode": "332400",
"Location": {
"Latitude": 29.6438,
"Longitude": 115.772
}
}
],
"PostCode": "332400"
},
{
"Name": "Hukou Xian",
"Code": "3604",
"Places": [
{
"Name": "Hukou County",
"PostCode": "332500",
"Location": {
"Latitude": 29.6438,
"Longitude": 115.772
}
}
],
"PostCode": "332500"
},
{
"Name": "Duchang Xian",
"Code": "3604",
"Places": [
{
"Name": "Duchang County",
"PostCode": "332600",
"Location": {
"Latitude": 29.6438,
"Longitude": 115.772
}
}
],
"PostCode": "332600"
},
{
"Name": "Pengze County",
"Code": "3604",
"Places": [
{
"Name": "Pengze County",
"PostCode": "332700",
"Location": {
"Latitude": 29.6438,
"Longitude": 115.772
}
}
],
"PostCode": "332700"
},
{
"Name": "Lushan Qu",
"Code": "3604",
"Places": [
{
"Name": "Lianxi District",
"PostCode": "332900",
"Location": {
"Latitude": 29.6438,
"Longitude": 115.772
}
},
{
"Name": "Lushan City",
"PostCode": "332800",
"Location": {
"Latitude": 29.6438,
"Longitude": 115.772
}
}
]
}
]
},
{
"Name": "Ji’an Shi",
"Code": "3608",
"Communities": [
{
"Name": "Xingan Xian",
"Code": "3608",
"Places": [
{
"Name": "Xingan County",
"PostCode": "331300",
"Location": {
"Latitude": 28.1386,
"Longitude": 115.6501
}
}
],
"PostCode": "331300"
},
{
"Name": "Xiajiang Xian",
"Code": "3608",
"Places": [
{
"Name": "Xiajiang County",
"PostCode": "331400",
"Location": {
"Latitude": 28.1386,
"Longitude": 115.6501
}
}
],
"PostCode": "331400"
},
{
"Name": "Yongfeng Xian",
"Code": "3608",
"Places": [
{
"Name": "Yongfeng County",
"PostCode": "331500",
"Location": {
"Latitude": 28.1386,
"Longitude": 115.6501
}
}
],
"PostCode": "331500"
},
{
"Name": "Jishui Xian",
"Code": "3608",
"Places": [
{
"Name": "Jishui County",
"PostCode": "331600",
"Location": {
"Latitude": 28.1386,
"Longitude": 115.6501
}
}
],
"PostCode": "331600"
},
{
"Name": "Huichang Xian",
"Code": "3608",
"Places": [
{
"Name": "Huichang County",
"PostCode": "342600",
"Location": {
"Latitude": 25.8832,
"Longitude": 116.0272
}
}
],
"PostCode": "342600"
},
{
"Name": "Ji’an Xian",
"Code": "3608",
"Places": [
{
"Name": "Ji'an",
"PostCode": "343000",
"Location": {
"Latitude": 27.05,
"Longitude": 114.9
}
},
{
"Name": "Ji'an County",
"PostCode": "343100",
"Location": {
"Latitude": 26.6798,
"Longitude": 114.7065
}
}
]
},
{
"Name": "Anfu Xian",
"Code": "3608",
"Places": [
{
"Name": "Anfu County",
"PostCode": "343200",
"Location": {
"Latitude": 26.6798,
"Longitude": 114.7065
}
}
],
"PostCode": "343200"
},
{
"Name": "Yongxin Xian",
"Code": "3608",
"Places": [
{
"Name": "Yongxin County",
"PostCode": "343400",
"Location": {
"Latitude": 26.6798,
"Longitude": 114.7065
}
}
],
"PostCode": "343400"
},
{
"Name": "Jinggangshan Shi",
"Code": "3608",
"Places": [
{
"Name": "Jinggangshan City",
"PostCode": "343600",
"Location": {
"Latitude": 26.6798,
"Longitude": 114.7065
}
}
],
"PostCode": "343600"
},
{
"Name": "Taihe Xian",
"Code": "3608",
"Places": [
{
"Name": "Taihe County",
"PostCode": "343700",
"Location": {
"Latitude": 26.6798,
"Longitude": 114.7065
}
}
],
"PostCode": "343700"
},
{
"Name": "Wan’an Xian",
"Code": "3608",
"Places": [
{
"Name": "Wan'an County",
"PostCode": "343800",
"Location": {
"Latitude": 26.6798,
"Longitude": 114.7065
}
}
],
"PostCode": "343800"
},
{
"Name": "Suichuan Xian",
"Code": "3608",
"Places": [
{
"Name": "Suichuan",
"PostCode": "343900",
"Location": {
"Latitude": 26.3096,
"Longitude": 114.5129
}
}
],
"PostCode": "343900"
}
]
},
{
"Name": "Shangrao Shi",
"Code": "3611",
"Communities": [
{
"Name": "Poyang Xian",
"Code": "3611",
"Places": [
{
"Name": "Poyang County",
"PostCode": "333100",
"Location": {
"Latitude": 29.1314,
"Longitude": 117.1622
}
}
],
"PostCode": "333100"
},
{
"Name": "Wuyuan Xian",
"Code": "3611",
"Places": [
{
"Name": "Wuyuan County",
"PostCode": "333200",
"Location": {
"Latitude": 29.1314,
"Longitude": 117.1622
}
}
],
"PostCode": "333200"
},
{
"Name": "Shangrao Xian",
"Code": "3611",
"Places": [
{
"Name": "Shangrao",
"PostCode": "334000",
"Location": {
"Latitude": 28.4518,
"Longitude": 117.9429
}
},
{
"Name": "Shangrao County",
"PostCode": "334100",
"Location": {
"Latitude": 28.7027,
"Longitude": 117.7578
}
}
]
},
{
"Name": "Dexing Shi",
"Code": "3611",
"Places": [
{
"Name": "Dexing",
"PostCode": "334200",
"Location": {
"Latitude": 28.9536,
"Longitude": 117.5728
}
}
],
"PostCode": "334200"
},
{
"Name": "Hengfeng Xian",
"Code": "3611",
"Places": [
{
"Name": "Hengfeng County",
"PostCode": "334300",
"Location": {
"Latitude": 28.7027,
"Longitude": 117.7578
}
}
],
"PostCode": "334300"
},
{
"Name": "Yiyang Xian",
"Code": "3611",
"Places": [
{
"Name": "Yiyang County",
"PostCode": "334400",
"Location": {
"Latitude": 28.7027,
"Longitude": 117.7578
}
}
],
"PostCode": "334400"
},
{
"Name": "Yanshan Xian",
"Code": "3611",
"Places": [
{
"Name": "Yanshan County",
"PostCode": "334500",
"Location": {
"Latitude": 28.7027,
"Longitude": 117.7578
}
}
],
"PostCode": "334500"
},
{
"Name": "Guangfeng",
"Code": "3611",
"Places": [
{
"Name": "Guangfeng District",
"PostCode": "334600",
"Location": {
"Latitude": 28.7027,
"Longitude": 117.7578
}
}
],
"PostCode": "334600"
},
{
"Name": "Yushan Xian",
"Code": "3611",
"Places": [
{
"Name": "Yushan County",
"PostCode": "334700",
"Location": {
"Latitude": 28.7027,
"Longitude": 117.7578
}
}
],
"PostCode": "334700"
},
{
"Name": "Yugan Xian",
"Code": "3611",
"Places": [
{
"Name": "Yugan County",
"PostCode": "335100",
"Location": {
"Latitude": 28.2333,
"Longitude": 117.0
}
}
],
"PostCode": "335100"
},
{
"Name": "Wannian Xian",
"Code": "3611",
"Places": [
{
"Name": "Wannian County",
"PostCode": "335500",
"Location": {
"Latitude": 28.2333,
"Longitude": 117.0
}
}
],
"PostCode": "335500"
}
]
}
]
},
{
"Name": "Jiangsu",
"Code": "04",
"Provinces": [
{
"Name": "Nanjing Shi",
"Communities": [
{
"Places": [
{
"Name": "Nanjing",
"PostCode": "210000",
"Location": {
"Latitude": 32.0617,
"Longitude": 118.7778
}
}
],
"PostCode": "210000"
},
{
"Name": "Jiangning Qu",
"Code": "3201",
"Places": [
{
"Name": "Jiangning District",
"PostCode": "211100",
"Location": {
"Latitude": 32.2803,
"Longitude": 119.17
}
}
],
"PostCode": "211100"
},
{
"Name": "Lishui Xian",
"Code": "3201",
"Places": [
{
"Name": "Lishui District",
"PostCode": "211200",
"Location": {
"Latitude": 32.2803,
"Longitude": 119.17
}
}
],
"PostCode": "211200"
},
{
"Name": "Gaochun Xian",
"Code": "3201",
"Places": [
{
"Name": "Gaochun District",
"PostCode": "211300",
"Location": {
"Latitude": 32.2803,
"Longitude": 119.17
}
}
],
"PostCode": "211300"
},
{
"Name": "Luhe Qu",
"Code": "3201",
"Places": [
{
"Name": "Luhe District",
"PostCode": "211500",
"Location": {
"Latitude": 32.2803,
"Longitude": 119.17
}
}
],
"PostCode": "211500"
},
{
"Name": "Pukou Qu",
"Code": "3201",
"Places": [
{
"Name": "Jiangpu County",
"PostCode": "211800",
"Location": {
"Latitude": 32.2803,
"Longitude": 119.17
}
}
],
"PostCode": "211800"
}
]
},
{
"Name": "Zhenjiang Shi",
"Communities": [
{
"Places": [
{
"Name": "Zhenjiang",
"PostCode": "212000",
"Location": {
"Latitude": 32.2109,
"Longitude": 119.4551
}
}
],
"PostCode": "212000"
},
{
"Name": "Dantu Qu",
"Code": "3211",
"Places": [
{
"Name": "Dantu District",
"PostCode": "212100",
"Location": {
"Latitude": 32.0994,
"Longitude": 119.5036
}
}
],
"PostCode": "212100"
},
{
"Name": "Yangzhong Shi",
"Code": "3211",
"Places": [
{
"Name": "Yangzhong",
"PostCode": "212200",
"Location": {
"Latitude": 32.2393,
"Longitude": 119.8154
}
}
],
"PostCode": "212200"
},
{
"Name": "Danyang Shi",
"Code": "3211",
"Places": [
{
"Name": "Danyang",
"PostCode": "212300",
"Location": {
"Latitude": 31.9987,
"Longitude": 119.5784
}
}
],
"PostCode": "212300"
},
{
"Name": "Jurong Shi",
"Code": "3211",
"Places": [
{
"Name": "Jurong",
"PostCode": "212400",
"Location": {
"Latitude": 31.9487,
"Longitude": 119.1655
}
}
],
"PostCode": "212400"
}
]
},
{
"Name": "Changzhou Shi",
"Communities": [
{
"Places": [
{
"Name": "Changzhou",
"PostCode": "213000",
"Location": {
"Latitude": 31.7736,
"Longitude": 119.954
}
}
],
"PostCode": "213000"
},
{
"Name": "Wujin Qu",
"Code": "3204",
"Places": [
{
"Name": "Wujin District",
"PostCode": "213100",
"Location": {
"Latitude": 31.6009,
"Longitude": 119.7188
}
}
],
"PostCode": "213100"
},
{
"Name": "Jintan Shi",
"Code": "3204",
"Places": [
{
"Name": "Jintan District",
"PostCode": "213200",
"Location": {
"Latitude": 31.6009,
"Longitude": 119.7188
}
}
],
"PostCode": "213200"
},
{
"Name": "Liyang Shi",
"Code": "3204",
"Places": [
{
"Name": "Liyang",
"PostCode": "213300",
"Location": {
"Latitude": 31.4281,
"Longitude": 119.4835
}
}
],
"PostCode": "213300"
}
]
},
{
"Name": "Wuxi Shi",
"Communities": [
{
"Places": [
{
"Name": "Wuxi",
"PostCode": "214000",
"Location": {
"Latitude": 31.5689,
"Longitude": 120.2886
}
}
],
"PostCode": "214000"
},
{
"Name": "Xishan Qu",
"Code": "3202",
"Places": [
{
"Name": "Xishan District",
"PostCode": "214100",
"Location": {
"Latitude": 31.7137,
"Longitude": 120.1586
}
}
],
"PostCode": "214100"
},
{
"Name": "Huishan Qu",
"Code": "3202",
"Places": [
{
"Name": "Huishan District",
"PostCode": "214100",
"Location": {
"Latitude": 31.7137,
"Longitude": 120.1586
}
}
],
"PostCode": "214100"
},
{
"Name": "Yixing Shi",
"Code": "3202",
"Places": [
{
"Name": "Yixing",
"PostCode": "214200",
"Location": {
"Latitude": 31.3606,
"Longitude": 119.8202
}
}
],
"PostCode": "214200"
},
{
"Name": "Jiangyin Shi",
"Code": "3202",
"Places": [
{
"Name": "Jiangyin",
"PostCode": "214400",
"Location": {
"Latitude": 31.911,
"Longitude": 120.263
}
}
],
"PostCode": "214400"
}
]
},
{
"Name": "Suzhou Shi",
"Communities": [
{
"Places": [
{
"Name": "Suzhou",
"PostCode": "215000",
"Location": {
"Latitude": 31.3041,
"Longitude": 120.5954
}
}
],
"PostCode": "215000"
},
{
"Name": "Wuzhong Qu",
"Code": "3205",
"Places": [
{
"Name": "Wuzhong District, Xiangcheng District, parts of Suzhou New District and parts of Suzhou Industrial Park",
"PostCode": "215100",
"Location": {
"Latitude": 31.5281,
"Longitude": 120.7849
}
}
],
"PostCode": "215100"
},
{
"Name": "Wujiang Shi",
"Code": "3205",
"Places": [
{
"Name": "Wujiang District",
"PostCode": "215200",
"Location": {
"Latitude": 31.5281,
"Longitude": 120.7849
}
}
],
"PostCode": "215200"
},
{
"Name": "Kunshan Shi",
"Code": "3205",
"Places": [
{
"Name": "Kunshan",
"PostCode": "215300",
"Location": {
"Latitude": 31.3776,
"Longitude": 120.9543
}
}
],
"PostCode": "215300"
},
{
"Name": "Taicang Shi",
"Code": "3205",
"Places": [
{
"Name": "Taicang",
"PostCode": "215400",
"Location": {
"Latitude": 31.4478,
"Longitude": 121.0939
}
}
],
"PostCode": "215400"
},
{
"Name": "Changshu Shi",
"Code": "3205",
"Places": [
{
"Name": "Changshu",
"PostCode": "215500",
"Location": {
"Latitude": 31.6461,
"Longitude": 120.7422
}
}
],
"PostCode": "215500"
},
{
"Name": "Zhangjiagang",
"Code": "3205",
"Places": [
{
"Name": "Zhangjiagang",
"PostCode": "215600",
"Location": {
"Latitude": 31.865,
"Longitude": 120.5389
}
}
],
"PostCode": "215600"
}
]
},
{
"Name": "Xuzhou",
"Communities": [
{
"Places": [
{
"Name": "Xuzhou",
"PostCode": "221000",
"Location": {
"Latitude": 34.2044,
"Longitude": 117.2839
}
}
],
"PostCode": "221000"
},
{
"Name": "Tongshan Xian",
"Code": "3203",
"Places": [
{
"Name": "Tongshan District",
"PostCode": "221100",
"Location": {
"Latitude": 34.3,
"Longitude": 117.8601
}
}
],
"PostCode": "221100"
},
{
"Name": "Suining Xian",
"Code": "3203",
"Places": [
{
"Name": "Suining County",
"PostCode": "221200",
"Location": {
"Latitude": 34.3,
"Longitude": 117.8601
}
}
],
"PostCode": "221200"
},
{
"Name": "Pizhou Shi",
"Code": "3203",
"Places": [
{
"Name": "Pei County",
"PostCode": "221600",
"Location": {
"Latitude": 34.3,
"Longitude": 117.8601
}
},
{
"Name": "Pizhou",
"PostCode": "221300",
"Location": {
"Latitude": 34.3114,
"Longitude": 117.9503
}
}
]
},
{
"Name": "Xinyi Shi",
"Code": "3203",
"Places": [
{
"Name": "Xinyi",
"PostCode": "221400",
"Location": {
"Latitude": 34.3842,
"Longitude": 118.3462
}
}
],
"PostCode": "221400"
},
{
"Name": "Feng Xian",
"Code": "3203",
"Places": [
{
"Name": "Feng County",
"PostCode": "221700",
"Location": {
"Latitude": 34.3,
"Longitude": 117.8601
}
}
],
"PostCode": "221700"
}
]
},
{
"Name": "Lianyungang Shi",
"Communities": [
{
"Places": [
{
"Name": "Lianyungang",
"PostCode": "222000",
"Location": {
"Latitude": 34.5984,
"Longitude": 119.2156
}
}
],
"PostCode": "222000"
},
{
"Name": "Ganyu Xian",
"Code": "3207",
"Places": [
{
"Name": "Ganyu District",
"PostCode": "222100",
"Location": {
"Latitude": 34.5984,
"Longitude": 119.2156
}
}
],
"PostCode": "222100"
},
{
"Name": "Guanyun Xian",
"Code": "3207",
"Places": [
{
"Name": "Guanyun County",
"PostCode": "222200",
"Location": {
"Latitude": 34.5984,
"Longitude": 119.2156
}
}
],
"PostCode": "222200"
},
{
"Name": "Donghai Xian",
"Code": "3207",
"Places": [
{
"Name": "Donghai County",
"PostCode": "222300",
"Location": {
"Latitude": 34.5984,
"Longitude": 119.2156
}
}
],
"PostCode": "222300"
},
{
"Name": "Guannan Xian",
"Code": "3207",
"Places": [
{
"Name": "Guannan County",
"PostCode": "223500",
"Location": {
"Latitude": 33.7689,
"Longitude": 118.6575
}
}
],
"PostCode": "223500"
}
]
},
{
"Name": "Suqian Shi",
"Communities": [
{
"Places": [
{
"Name": "Suqian",
"PostCode": "223800",
"Location": {
"Latitude": 33.9492,
"Longitude": 118.2958
}
}
],
"PostCode": "223800"
},
{
"Name": "Shuyang Xian",
"Code": "3213",
"Places": [
{
"Name": "Shuyang County",
"PostCode": "223600",
"Location": {
"Latitude": 33.7689,
"Longitude": 118.6575
}
}
],
"PostCode": "223600"
},
{
"Name": "Siyang Xian",
"Code": "3213",
"Places": [
{
"Name": "Siyang County",
"PostCode": "223700",
"Location": {
"Latitude": 33.7689,
"Longitude": 118.6575
}
}
],
"PostCode": "223700"
},
{
"Name": "Sihong Xian",
"Code": "3213",
"Places": [
{
"Name": "Sihong County",
"PostCode": "223900",
"Location": {
"Latitude": 33.7689,
"Longitude": 118.6575
}
}
],
"PostCode": "223900"
}
]
},
{
"Name": "Yancheng Shi",
"Communities": [
{
"Places": [
{
"Name": "Yancheng",
"PostCode": "224000",
"Location": {
"Latitude": 33.3575,
"Longitude": 120.1573
}
}
],
"PostCode": "224000"
},
{
"Name": "Dafeng Shi",
"Code": "3209",
"Places": [
{
"Name": "Dafeng District",
"PostCode": "224100",
"Location": {
"Latitude": 33.1049,
"Longitude": 120.2334
}
}
],
"PostCode": "224100"
},
{
"Name": "Dongtai Shi",
"Code": "3209",
"Places": [
{
"Name": "Dongtai",
"PostCode": "224200",
"Location": {
"Latitude": 32.8523,
"Longitude": 120.3095
}
}
],
"PostCode": "224200"
},
{
"Name": "Sheyang Xian",
"Code": "3209",
"Places": [
{
"Name": "Sheyang County",
"PostCode": "224300",
"Location": {
"Latitude": 33.1049,
"Longitude": 120.2334
}
}
],
"PostCode": "224300"
},
{
"Name": "Funing Xian",
"Code": "3209",
"Places": [
{
"Name": "Funing County",
"PostCode": "224400",
"Location": {
"Latitude": 33.1049,
"Longitude": 120.2334
}
}
],
"PostCode": "224400"
},
{
"Name": "Binhai Xian",
"Code": "3209",
"Places": [
{
"Name": "Binhai County",
"PostCode": "224500",
"Location": {
"Latitude": 33.1049,
"Longitude": 120.2334
}
}
],
"PostCode": "224500"
},
{
"Name": "Xiangshui Xian",
"Code": "3209",
"Places": [
{
"Name": "Xiangshui County",
"PostCode": "224600",
"Location": {
"Latitude": 33.1049,
"Longitude": 120.2334
}
}
],
"PostCode": "224600"
},
{
"Name": "Jianhu Xian",
"Code": "3209",
"Places": [
{
"Name": "Jianhu County",
"PostCode": "224700",
"Location": {
"Latitude": 33.1049,
"Longitude": 120.2334
}
}
],
"PostCode": "224700"
}
]
},
{
"Name": "Yangzhou Shi",
"Communities": [
{
"Places": [
{
"Name": "Yangzhou",
"PostCode": "225000",
"Location": {
"Latitude": 32.3972,
"Longitude": 119.4358
}
}
],
"PostCode": "225000"
},
{
"Name": "Yizheng Shi",
"Code": "3210",
"Places": [
{
"Name": "Yizheng",
"PostCode": "211400",
"Location": {
"Latitude": 32.2803,
"Longitude": 119.17
}
}
],
"PostCode": "211400"
},
{
"Name": "Hanjiang Qu",
"Code": "3210",
"Places": [
{
"Name": "Hanjiang District",
"PostCode": "225100",
"Location": {
"Latitude": 32.554,
"Longitude": 119.733
}
}
],
"PostCode": "225100"
},
{
"Name": "Jiangdu Shi",
"Code": "3210",
"Places": [
{
"Name": "Jiangdu District",
"PostCode": "225200",
"Location": {
"Latitude": 32.554,
"Longitude": 119.733
}
}
],
"PostCode": "225200"
},
{
"Name": "Gaoyou Shi",
"Code": "3210",
"Places": [
{
"Name": "Gaoyou",
"PostCode": "225600",
"Location": {
"Latitude": 32.7761,
"Longitude": 119.4731
}
}
],
"PostCode": "225600"
},
{
"Name": "Baoying Xian",
"Code": "3210",
"Places": [
{
"Name": "Baoying County",
"PostCode": "225800",
"Location": {
"Latitude": 32.554,
"Longitude": 119.733
}
}
],
"PostCode": "225800"
}
]
},
{
"Name": "Taizhou Shi",
"Communities": [
{
"Places": [
{
"Name": "Taizhou",
"PostCode": "225300",
"Location": {
"Latitude": 32.4907,
"Longitude": 119.9081
}
}
],
"PostCode": "225300"
},
{
"Name": "Jingjiang Shi",
"Code": "3212",
"Places": [
{
"Name": "Jingjiang",
"PostCode": "214500",
"Location": {
"Latitude": 32.0142,
"Longitude": 120.2625
}
}
],
"PostCode": "214500"
},
{
"Name": "Taixing Shi",
"Code": "3212",
"Places": [
{
"Name": "Taixing",
"PostCode": "225400",
"Location": {
"Latitude": 32.1667,
"Longitude": 120.0136
}
}
],
"PostCode": "225400"
},
{
"Name": "Jiangyan Shi",
"Code": "3212",
"Places": [
{
"Name": "Jiangyan District",
"PostCode": "225500",
"Location": {
"Latitude": 32.554,
"Longitude": 119.733
}
}
],
"PostCode": "225500"
},
{
"Name": "Xinghua Shi",
"Code": "3212",
"Places": [
{
"Name": "Xinghua",
"PostCode": "225700",
"Location": {
"Latitude": 32.9392,
"Longitude": 119.8342
}
}
],
"PostCode": "225700"
}
]
},
{
"Name": "Nantong Shi",
"Communities": [
{
"Places": [
{
"Name": "Nantong",
"PostCode": "226000",
"Location": {
"Latitude": 32.0898,
"Longitude": 121.0735
}
}
],
"PostCode": "226000"
},
{
"Name": "Haimen Shi",
"Code": "3206",
"Places": [
{
"Name": "Haimen",
"PostCode": "226100",
"Location": {
"Latitude": 31.8962,
"Longitude": 121.1727
}
}
],
"PostCode": "226100"
},
{
"Name": "Qidong Shi",
"Code": "3206",
"Places": [
{
"Name": "Qidong",
"PostCode": "226200",
"Location": {
"Latitude": 32.1716,
"Longitude": 121.0662
}
}
],
"PostCode": "226200"
},
{
"Name": "Tongzhou Qu",
"Code": "3206",
"Places": [
{
"Name": "Tongzhou District",
"PostCode": "226300",
"Location": {
"Latitude": 32.132,
"Longitude": 120.9722
}
}
],
"PostCode": "226300"
},
{
"Name": "Rudong Xian",
"Code": "3206",
"Places": [
{
"Name": "Rudong County",
"PostCode": "226400",
"Location": {
"Latitude": 32.132,
"Longitude": 120.9722
}
}
],
"PostCode": "226400"
},
{
"Name": "Rugao Shi",
"Code": "3206",
"Places": [
{
"Name": "Rugao",
"PostCode": "226500",
"Location": {
"Latitude": 32.3704,
"Longitude": 120.5765
}
}
],
"PostCode": "226500"
},
{
"Name": "Hai’an Xian",
"Code": "3206",
"Places": [
{
"Name": "Hai'an County",
"PostCode": "226600",
"Location": {
"Latitude": 32.132,
"Longitude": 120.9722
}
}
],
"PostCode": "226600"
}
]
},
{
"Name": "Huai’an Shi",
"Code": "3208",
"Communities": [
{
"Name": "Jinhu Xian",
"Code": "3208",
"Places": [
{
"Name": "Jinhu County",
"PostCode": "211600",
"Location": {
"Latitude": 32.2803,
"Longitude": 119.17
}
}
],
"PostCode": "211600"
},
{
"Name": "Xuyi Xian",
"Code": "3208",
"Places": [
{
"Name": "Xuyi County",
"PostCode": "211700",
"Location": {
"Latitude": 32.2803,
"Longitude": 119.17
}
}
],
"PostCode": "211700"
},
{
"Name": "Huai'an District",
"Code": "3208",
"Places": [
{
"Name": "Huai'an",
"PostCode": "223000",
"Location": {
"Latitude": 33.5886,
"Longitude": 119.0192
}
},
{
"Name": "Huai'an District",
"PostCode": "223200",
"Location": {
"Latitude": 33.7689,
"Longitude": 118.6575
}
}
]
},
{
"Name": "Hongze",
"Code": "3208",
"Places": [
{
"Name": "Hongze County",
"PostCode": "223100",
"Location": {
"Latitude": 33.7689,
"Longitude": 118.6575
}
}
],
"PostCode": "223100"
},
{
"Name": "Huaiyin Qu",
"Code": "3208",
"Places": [
{
"Name": "Huaiyin District",
"PostCode": "223300",
"Location": {
"Latitude": 33.7689,
"Longitude": 118.6575
}
}
],
"PostCode": "223300"
},
{
"Name": "Lianshui Xian",
"Code": "3208",
"Places": [
{
"Name": "Lianshui County",
"PostCode": "223400",
"Location": {
"Latitude": 33.7689,
"Longitude": 118.6575
}
}
],
"PostCode": "223400"
}
]
}
]
},
{
"Name": "Jilin",
"Code": "05",
"Provinces": [
{
"Name": "Changchun Shi",
"Communities": [
{
"Places": [
{
"Name": "Changchun",
"PostCode": "130000",
"Location": {
"Latitude": 43.88,
"Longitude": 125.3228
}
}
],
"PostCode": "130000"
},
{
"Name": "Nong’an Xian",
"Code": "2201",
"Places": [
{
"Name": "Nong'an County",
"PostCode": "130200",
"Location": {
"Latitude": 43.975,
"Longitude": 126.383
}
}
],
"PostCode": "130200"
},
{
"Name": "Dehui Shi",
"Code": "2201",
"Places": [
{
"Name": "Dehui",
"PostCode": "130300",
"Location": {
"Latitude": 44.5333,
"Longitude": 125.7
}
}
],
"PostCode": "130300"
},
{
"Name": "Yushu Shi",
"Code": "2201",
"Places": [
{
"Name": "Yushu",
"PostCode": "130400",
"Location": {
"Latitude": 44.8275,
"Longitude": 126.5406
}
}
],
"PostCode": "130400"
},
{
"Name": "Jiutai Shi",
"Code": "2201",
"Places": [
{
"Name": "Jiutai District",
"PostCode": "130500",
"Location": {
"Latitude": 43.975,
"Longitude": 126.383
}
}
],
"PostCode": "130500"
},
{
"Name": "Shuangyang Qu",
"Code": "2201",
"Places": [
{
"Name": "Shuangyang District",
"PostCode": "130600",
"Location": {
"Latitude": 44.3804,
"Longitude": 125.7165
}
}
],
"PostCode": "130600"
}
]
},
{
"Name": "Jilin Shi",
"Communities": [
{
"Places": [
{
"Name": "Jilin City",
"PostCode": "132000",
"Location": {
"Latitude": 43.8508,
"Longitude": 126.5603
}
}
],
"PostCode": "132000"
},
{
"Name": "Yongji Xian",
"Code": "2202",
"Places": [
{
"Name": "Yongji County",
"PostCode": "132200",
"Location": {
"Latitude": 43.7314,
"Longitude": 126.7248
}
}
],
"PostCode": "132200"
},
{
"Name": "Panshi Shi",
"Code": "2202",
"Places": [
{
"Name": "Panshi",
"PostCode": "132300",
"Location": {
"Latitude": 42.9422,
"Longitude": 126.0561
}
}
],
"PostCode": "132300"
},
{
"Name": "Huadian Shi",
"Code": "2202",
"Places": [
{
"Name": "Huadian City",
"PostCode": "132400",
"Location": {
"Latitude": 43.7314,
"Longitude": 126.7248
}
}
],
"PostCode": "132400"
},
{
"Name": "Jiaohe Shi",
"Code": "2202",
"Places": [
{
"Name": "Jiaohe",
"PostCode": "132500",
"Location": {
"Latitude": 43.7213,
"Longitude": 127.3347
}
}
],
"PostCode": "132500"
},
{
"Name": "Shulan Shi",
"Code": "2202",
"Places": [
{
"Name": "Shulan",
"PostCode": "132600",
"Location": {
"Latitude": 44.4113,
"Longitude": 126.9483
}
}
],
"PostCode": "132600"
}
]
},
{
"Name": "Yanbian Chaoxianzu Zizhizhou",
"Communities": [
{
"Places": [
{
"Name": "Yanbian Korean Autonomous Prefecture",
"PostCode": "133000",
"Location": {
"Latitude": 42.9742,
"Longitude": 129.495
}
}
],
"PostCode": "133000"
},
{
"Name": "Tumen Shi",
"Code": "2224",
"Places": [
{
"Name": "Tumen",
"PostCode": "133100",
"Location": {
"Latitude": 43.1463,
"Longitude": 129.0607
}
}
],
"PostCode": "133100"
},
{
"Name": "Wangqing Xian",
"Code": "2224",
"Places": [
{
"Name": "Wangqing County",
"PostCode": "133200",
"Location": {
"Latitude": 42.9742,
"Longitude": 129.495
}
}
],
"PostCode": "133200"
},
{
"Name": "Hunchun Shi",
"Code": "2224",
"Places": [
{
"Name": "Hunchun",
"PostCode": "133300",
"Location": {
"Latitude": 42.8675,
"Longitude": 130.3581
}
}
],
"PostCode": "133300"
},
{
"Name": "Longjing Shi",
"Code": "2224",
"Places": [
{
"Name": "Longjing",
"PostCode": "133400",
"Location": {
"Latitude": 42.7713,
"Longitude": 129.4231
}
}
],
"PostCode": "133400"
},
{
"Name": "Helong Shi",
"Code": "2224",
"Places": [
{
"Name": "Helong",
"PostCode": "133500",
"Location": {
"Latitude": 42.8973,
"Longitude": 129.6231
}
}
],
"PostCode": "133500"
},
{
"Name": "Antu Xian",
"Code": "2224",
"Places": [
{
"Name": "Antu County",
"PostCode": "133600",
"Location": {
"Latitude": 42.9742,
"Longitude": 129.495
}
}
],
"PostCode": "133600"
},
{
"Name": "Dunhua Shi",
"Code": "2224",
"Places": [
{
"Name": "Dunhua",
"PostCode": "133700",
"Location": {
"Latitude": 43.3695,
"Longitude": 128.2286
}
}
],
"PostCode": "133700"
}
]
},
{
"Name": "Siping Shi",
"Communities": [
{
"Places": [
{
"Name": "Siping",
"PostCode": "136000",
"Location": {
"Latitude": 43.1614,
"Longitude": 124.3778
}
}
],
"PostCode": "136000"
},
{
"Name": "Yitong Manzu Zizhixian",
"Code": "2203",
"Places": [
{
"Name": "Yitong Manchu Autonomous County",
"PostCode": "130700",
"Location": {
"Latitude": 43.975,
"Longitude": 126.383
}
}
],
"PostCode": "130700"
},
{
"Name": "Gongzhuling Shi",
"Code": "2203",
"Places": [
{
"Name": "Gongzhuling",
"PostCode": "136100",
"Location": {
"Latitude": 43.5008,
"Longitude": 124.8198
}
}
],
"PostCode": "136100"
},
{
"Name": "Shuangliao Shi",
"Code": "2203",
"Places": [
{
"Name": "Shuangliao",
"PostCode": "136400",
"Location": {
"Latitude": 43.5107,
"Longitude": 123.5007
}
}
],
"PostCode": "136400"
},
{
"Name": "Lishu Xian",
"Code": "2203",
"Places": [
{
"Name": "Lishu County",
"PostCode": "136500",
"Location": {
"Latitude": 43.2646,
"Longitude": 124.4588
}
}
],
"PostCode": "136500"
}
]
},
{
"Name": "Liaoyuan Shi",
"Communities": [
{
"Places": [
{
"Name": "Liaoyuan",
"PostCode": "136200",
"Location": {
"Latitude": 42.8854,
"Longitude": 125.1367
}
}
],
"PostCode": "136200"
},
{
"Name": "Dongfeng Xian",
"Code": "2204",
"Places": [
{
"Name": "Dongfeng County",
"PostCode": "136300",
"Location": {
"Latitude": 43.2646,
"Longitude": 124.4588
}
}
],
"PostCode": "136300"
},
{
"Name": "Dongliao Xian",
"Code": "2204",
"Places": [
{
"Name": "Dongliao County",
"PostCode": "136600",
"Location": {
"Latitude": 43.2646,
"Longitude": 124.4588
}
}
],
"PostCode": "136600"
}
]
},
{
"Name": "Baicheng Shi",
"Communities": [
{
"Places": [
{
"Name": "Baicheng",
"PostCode": "137000",
"Location": {
"Latitude": 45.6175,
"Longitude": 122.833
}
}
],
"PostCode": "137000"
},
{
"Name": "Da’an Shi",
"Code": "2208",
"Places": [
{
"Name": "Da'an",
"PostCode": "131300",
"Location": {
"Latitude": 45.5,
"Longitude": 124.3
}
}
],
"PostCode": "131300"
},
{
"Name": "Taonan Shi",
"Code": "2208",
"Places": [
{
"Name": "Taonan",
"PostCode": "137100",
"Location": {
"Latitude": 45.3332,
"Longitude": 122.7846
}
}
],
"PostCode": "137100"
},
{
"Name": "Tongyu Xian",
"Code": "2208",
"Places": [
{
"Name": "Tongyu County",
"PostCode": "137200",
"Location": {
"Latitude": 45.4754,
"Longitude": 122.8088
}
}
],
"PostCode": "137200"
},
{
"Name": "Zhenlai Xian",
"Code": "2208",
"Places": [
{
"Name": "Zhenlai County",
"PostCode": "137300",
"Location": {
"Latitude": 45.4754,
"Longitude": 122.8088
}
}
],
"PostCode": "137300"
}
]
},
{
"Name": "Songyuan Shi",
"Communities": [
{
"Places": [
{
"Name": "Songyuan",
"PostCode": "138000",
"Location": {
"Latitude": 45.129,
"Longitude": 124.8277
}
}
],
"PostCode": "138000"
},
{
"Name": "Qian Gorlos Mongol Zu Zizhixian",
"Code": "2207",
"Places": [
{
"Name": "Qian Gorlos Mongol Autonomous County",
"PostCode": "131100",
"Location": {
"Latitude": 45.3417,
"Longitude": 124.5583
}
}
],
"PostCode": "131100"
},
{
"Name": "Fuyu Xian",
"Code": "2207",
"Places": [
{
"Name": "Fuyu",
"PostCode": "131200",
"Location": {
"Latitude": 45.1833,
"Longitude": 124.8167
}
}
],
"PostCode": "131200"
},
{
"Name": "Qian’an Xian",
"Code": "2207",
"Places": [
{
"Name": "Qian'an County",
"PostCode": "131400",
"Location": {
"Latitude": 45.3417,
"Longitude": 124.5583
}
}
],
"PostCode": "131400"
},
{
"Name": "Changling Xian",
"Code": "2207",
"Places": [
{
"Name": "Changling County",
"PostCode": "131500",
"Location": {
"Latitude": 45.3417,
"Longitude": 124.5583
}
}
],
"PostCode": "131500"
}
]
},
{
"Name": "Hinggan Meng",
"Code": "1522",
"Communities": [
{
"Name": "Ulanhot Shi",
"Code": "1522",
"Places": [
{
"Name": "Ulan Hot, Horqin Right Middle Banner",
"PostCode": "137400",
"Location": {
"Latitude": 45.4754,
"Longitude": 122.8088
}
}
],
"PostCode": "137400"
},
{
"Name": "Tuquan Xian",
"Code": "1522",
"Places": [
{
"Name": "Tuquan County, Horqin Right Front Banner",
"PostCode": "137500",
"Location": {
"Latitude": 45.4754,
"Longitude": 122.8088
}
}
],
"PostCode": "137500"
},
{
"Name": "Jalaid Qi",
"Code": "1522",
"Places": [
{
"Name": "Jalaid Banner",
"PostCode": "137600",
"Location": {
"Latitude": 45.4754,
"Longitude": 122.8088
}
}
],
"PostCode": "137600"
},
{
"Name": "Arxan Shi",
"Code": "1522",
"Places": [
{
"Name": "Arxan",
"PostCode": "137800",
"Location": {
"Latitude": 45.4754,
"Longitude": 122.8088
}
}
],
"PostCode": "137800"
}
]
},
{
"Name": "Tonghua Shi",
"Code": "2205",
"Communities": [
{
"Name": "Tonghua Xian",
"Code": "2205",
"Places": [
{
"Name": "Tonghua",
"PostCode": "134000",
"Location": {
"Latitude": 41.7197,
"Longitude": 125.9264
}
},
{
"Name": "Tonghua County",
"PostCode": "134100",
"Location": {
"Latitude": 41.5516,
"Longitude": 126.3429
}
}
]
},
{
"Name": "Ji’an Shi",
"Code": "2205",
"Places": [
{
"Name": "Ji'an",
"PostCode": "134200",
"Location": {
"Latitude": 41.1282,
"Longitude": 126.1945
}
}
],
"PostCode": "134200"
},
{
"Name": "Meihekou Shi",
"Code": "2205",
"Places": [
{
"Name": "Meihekou",
"PostCode": "135000",
"Location": {
"Latitude": 42.5272,
"Longitude": 125.6753
}
}
],
"PostCode": "135000"
},
{
"Name": "Huinan Xian",
"Code": "2205",
"Places": [
{
"Name": "Huinan County",
"PostCode": "135100",
"Location": {
"Latitude": 42.5272,
"Longitude": 125.6753
}
}
],
"PostCode": "135100"
}
]
},
{
"Name": "Baishan Shi",
"Code": "2206",
"Communities": [
{
"Name": "Hunjiang Qu",
"Code": "2206",
"Places": [
{
"Name": "Hunjiang District",
"PostCode": "134300",
"Location": {
"Latitude": 41.5516,
"Longitude": 126.3429
}
}
],
"PostCode": "134300"
},
{
"Name": "Changbai Chaoxianzu Zizhixian",
"Code": "2206",
"Places": [
{
"Name": "Changbai Korean Autonomous County",
"PostCode": "134400",
"Location": {
"Latitude": 41.5516,
"Longitude": 126.3429
}
}
],
"PostCode": "134400"
},
{
"Name": "Fusong Xian",
"Code": "2206",
"Places": [
{
"Name": "Fusong County",
"PostCode": "134500",
"Location": {
"Latitude": 41.5516,
"Longitude": 126.3429
}
}
],
"PostCode": "134500"
},
{
"Name": "Linjiang Shi",
"Code": "2206",
"Places": [
{
"Name": "Linjiang",
"PostCode": "134600",
"Location": {
"Latitude": 41.8069,
"Longitude": 126.9078
}
}
],
"PostCode": "134600"
},
{
"Name": "Jingyu Xian",
"Code": "2206",
"Places": [
{
"Name": "Jingyu County",
"PostCode": "135200",
"Location": {
"Latitude": 42.5272,
"Longitude": 125.6753
}
}
],
"PostCode": "135200"
}
]
}
]
},
{
"Name": "Qinghai",
"Code": "06",
"Provinces": [
{
"Name": "Xining Shi",
"Communities": [
{
"Places": [
{
"Name": "Xining",
"PostCode": "810000",
"Location": {
"Latitude": 37.7106,
"Longitude": 93.8238
}
}
],
"PostCode": "810000"
},
{
"Name": "Datong Huizu Tuzu Zizhixian",
"Code": "6301",
"Places": [
{
"Name": "Datong Hui and Tu Autonomous County",
"PostCode": "810100",
"Location": {
"Latitude": 37.7106,
"Longitude": 93.8238
}
}
],
"PostCode": "810100"
},
{
"Name": "Ping’an Xian",
"Code": "6301",
"Places": [
{
"Name": "Ping'an District",
"PostCode": "810600",
"Location": {
"Latitude": 37.7106,
"Longitude": 93.8238
}
}
],
"PostCode": "810600"
},
{
"Name": "Ledu Xian",
"Code": "6301",
"Places": [
{
"Name": "Ledu District",
"PostCode": "810700",
"Location": {
"Latitude": 37.7106,
"Longitude": 93.8238
}
}
],
"PostCode": "810700"
},
{
"Name": "Huangzhong Xian",
"Code": "6301",
"Places": [
{
"Name": "Huangzhong County",
"PostCode": "811600",
"Location": {
"Latitude": 37.7106,
"Longitude": 93.8238
}
}
],
"PostCode": "811600"
},
{
"Name": "Huangyuan Xian",
"Code": "6301",
"Places": [
{
"Name": "Huangyuan County",
"PostCode": "812100",
"Location": {
"Latitude": 37.7106,
"Longitude": 93.8238
}
}
],
"PostCode": "812100"
}
]
},
{
"Name": "Hainan Zangzu Zizhizhou",
"Communities": [
{
"Places": [
{
"Name": "Hainan Tibetan Autonomous Prefecture",
"PostCode": "813000",
"Location": {
"Latitude": 37.7106,
"Longitude": 93.8238
}
}
],
"PostCode": "813000"
},
{
"Name": "Guide Xian",
"Code": "6325",
"Places": [
{
"Name": "Guide County",
"PostCode": "811800",
"Location": {
"Latitude": 37.7106,
"Longitude": 93.8238
}
}
],
"PostCode": "811800"
},
{
"Name": "Tongde Xian",
"Code": "6325",
"Places": [
{
"Name": "Tongde County",
"PostCode": "813200",
"Location": {
"Latitude": 37.7106,
"Longitude": 93.8238
}
}
],
"PostCode": "813200"
},
{
"Name": "Xinghai Xian",
"Code": "6325",
"Places": [
{
"Name": "Xinghai County",
"PostCode": "813300",
"Location": {
"Latitude": 37.7106,
"Longitude": 93.8238
}
}
],
"PostCode": "813300"
}
]
},
{
"Name": "Golog Tibetan Autonomous Prefecture",
"Communities": [
{
"Places": [
{
"Name": "Golog Tibetan Autonomous Prefecture",
"PostCode": "814000",
"Location": {
"Latitude": 37.7106,
"Longitude": 93.8238
}
}
],
"PostCode": "814000"
},
{
"Name": "Jigzhi Xian",
"Code": "6326",
"Places": [
{
"Name": "Jigzhi County",
"PostCode": "624700",
"Location": {
"Latitude": 32.3194,
"Longitude": 102.3111
}
}
],
"PostCode": "624700"
},
{
"Name": "Madoi Xian",
"Code": "6326",
"Places": [
{
"Name": "Madoi County",
"PostCode": "813500",
"Location": {
"Latitude": 37.7106,
"Longitude": 93.8238
}
}
],
"PostCode": "813500"
},
{
"Name": "Gande Xian",
"Code": "6326",
"Places": [
{
"Name": "Gadê County",
"PostCode": "814100",
"Location": {
"Latitude": 37.7106,
"Longitude": 93.8238
}
}
],
"PostCode": "814100"
},
{
"Name": "Darlag Xian",
"Code": "6326",
"Places": [
{
"Name": "Darlag County",
"PostCode": "814200",
"Location": {
"Latitude": 37.7106,
"Longitude": 93.8238
}
}
],
"PostCode": "814200"
},
{
"Name": "Baima Xian",
"Code": "6326",
"Places": [
{
"Name": "Baima County",
"PostCode": "814300",
"Location": {
"Latitude": 37.7106,
"Longitude": 93.8238
}
}
],
"PostCode": "814300"
}
]
},
{
"Name": "Yushu Zangzu Zizhizhou",
"Communities": [
{
"Places": [
{
"Name": "Yushu Tibetan Autonomous Prefecture",
"PostCode": "815000",
"Location": {
"Latitude": 37.7106,
"Longitude": 93.8238
}
}
],
"PostCode": "815000"
},
{
"Name": "Chindu Xian",
"Code": "6327",
"Places": [
{
"Name": "Chindu County",
"PostCode": "815100",
"Location": {
"Latitude": 37.7106,
"Longitude": 93.8238
}
}
],
"PostCode": "815100"
},
{
"Name": "Nangqian Xian",
"Code": "6327",
"Places": [
{
"Name": "Nangchen County",
"PostCode": "815200",
"Location": {
"Latitude": 37.7106,
"Longitude": 93.8238
}
}
],
"PostCode": "815200"
},
{
"Name": "Zadoi Xian",
"Code": "6327",
"Places": [
{
"Name": "Zadoi County",
"PostCode": "815300",
"Location": {
"Latitude": 37.7106,
"Longitude": 93.8238
}
}
],
"PostCode": "815300"
},
{
"Name": "Zhiduo Xian",
"Code": "6327",
"Places": [
{
"Name": "Zhidoi County",
"PostCode": "815400",
"Location": {
"Latitude": 37.7106,
"Longitude": 93.8238
}
}
],
"PostCode": "815400"
},
{
"Name": "Qumalai Xian",
"Code": "6327",
"Places": [
{
"Name": "Qumarlêb County",
"PostCode": "815500",
"Location": {
"Latitude": 37.7106,
"Longitude": 93.8238
}
}
],
"PostCode": "815500"
}
]
},
{
"Name": "Haidong Diqu",
"Code": "6302",
"Communities": [
{
"Name": "Huzhu Tuzu Zizhixian",
"Code": "6302",
"Places": [
{
"Name": "Huzhu Tu Autonomous County",
"PostCode": "810500",
"Location": {
"Latitude": 37.7106,
"Longitude": 93.8238
}
}
],
"PostCode": "810500"
},
{
"Name": "Minhe Huizu Tuzu Zizhixian",
"Code": "6302",
"Places": [
{
"Name": "Minhe Hui and Tu Autonomous County",
"PostCode": "810800",
"Location": {
"Latitude": 37.7106,
"Longitude": 93.8238
}
}
],
"PostCode": "810800"
},
{
"Name": "Hualong Huizu Zizhixian",
"Code": "6302",
"Places": [
{
"Name": "Hualong Hui Autonomous County",
"PostCode": "810900",
"Location": {
"Latitude": 37.7106,
"Longitude": 93.8238
}
}
],
"PostCode": "810900"
},
{
"Name": "Xunhua Salarzu Zizhixian",
"Code": "6302",
"Places": [
{
"Name": "Xunhua Salar Autonomous County",
"PostCode": "811100",
"Location": {
"Latitude": 37.7106,
"Longitude": 93.8238
}
}
],
"PostCode": "811100"
}
]
},
{
"Name": "Haibei",
"Code": "6322",
"Communities": [
{
"Name": "Menyuan Huizu Zizhixian",
"Code": "6322",
"Places": [
{
"Name": "Menyuan Hui Autonomous County",
"PostCode": "810300",
"Location": {
"Latitude": 37.7106,
"Longitude": 93.8238
}
}
],
"PostCode": "810300"
},
{
"Name": "Qilian County",
"Code": "6322",
"Places": [
{
"Name": "Qilian County",
"PostCode": "810400",
"Location": {
"Latitude": 37.7106,
"Longitude": 93.8238
}
}
],
"PostCode": "810400"
},
{
"Name": "Haiyan County",
"Code": "6322",
"Places": [
{
"Name": "Haiyan County",
"PostCode": "812200",
"Location": {
"Latitude": 37.7106,
"Longitude": 93.8238
}
}
],
"PostCode": "812200"
}
]
},
{
"Name": "Huangnan Zangzu Zizhizhou",
"Code": "6323",
"Communities": [
{
"Name": "Jainca Xian",
"Code": "6323",
"Places": [
{
"Name": "Jainca County",
"PostCode": "811200",
"Location": {
"Latitude": 37.7106,
"Longitude": 93.8238
}
}
],
"PostCode": "811200"
},
{
"Name": "Tongren Xian",
"Code": "6323",
"Places": [
{
"Name": "Tongren County",
"PostCode": "811300",
"Location": {
"Latitude": 37.7106,
"Longitude": 93.8238
}
}
],
"PostCode": "811300"
},
{
"Name": "Zeku Xian",
"Code": "6323",
"Places": [
{
"Name": "Zêkog County",
"PostCode": "811400",
"Location": {
"Latitude": 37.7106,
"Longitude": 93.8238
}
}
],
"PostCode": "811400"
},
{
"Name": "Henan Mongolzu Zizhixian",
"Code": "6323",
"Places": [
{
"Name": "Henan Mongol Autonomous County",
"PostCode": "811500",
"Location": {
"Latitude": 37.7106,
"Longitude": 93.8238
}
}
],
"PostCode": "811500"
}
]
},
{
"Name": "Haixi",
"Code": "6328",
"Communities": [
{
"Name": "Golmud Shi",
"Code": "6328",
"Places": [
{
"Name": "Golmud",
"PostCode": "816000",
"Location": {
"Latitude": 36.4067,
"Longitude": 94.9006
}
}
],
"PostCode": "816000"
},
{
"Name": "Dulan Xian",
"Code": "6328",
"Places": [
{
"Name": "Dulan County",
"PostCode": "816100",
"Location": {
"Latitude": 36.4067,
"Longitude": 94.9006
}
}
],
"PostCode": "816100"
},
{
"Name": "Haixi",
"Code": "6328",
"Places": [
{
"Name": "Haixi Mongol and Tibetan Autonomous Prefecture",
"PostCode": "817000",
"Location": {
"Latitude": 38.1452,
"Longitude": 93.4649
}
}
],
"PostCode": "817000"
},
{
"Name": "Ulan Xian",
"Code": "6328",
"Places": [
{
"Name": "Ulan County",
"PostCode": "817100",
"Location": {
"Latitude": 38.1452,
"Longitude": 93.4649
}
}
],
"PostCode": "817100"
},
{
"Name": "Tianjun Xian",
"Code": "6328",
"Places": [
{
"Name": "Tianjun County",
"PostCode": "817200",
"Location": {
"Latitude": 38.1452,
"Longitude": 93.4649
}
}
],
"PostCode": "817200"
},
{
"Name": "Lenghu Xingwei",
"Code": "6328",
"Places": [
{
"Name": "Lenghu",
"PostCode": "817400",
"Location": {
"Latitude": 38.7374,
"Longitude": 93.332
}
}
],
"PostCode": "817400"
},
{
"Name": "Mang’ai Xingwei",
"Code": "6328",
"Places": [
{
"Name": "Mangnai",
"PostCode": "817500",
"Location": {
"Latitude": 37.8648,
"Longitude": 91.7626
}
}
],
"PostCode": "817500"
}
]
},
{
"Name": "Bortala Mongol Zizhizhou",
"Code": "6527",
"PostCode": "817300",
"Communities": [
{
"Name": "Bole Shi",
"Code": "6527",
"Places": [
{
"Name": "Da Qaidam",
"PostCode": "817300",
"Location": {
"Latitude": 44.7048,
"Longitude": 82.1231
}
}
],
"PostCode": "817300"
}
]
}
]
},
{
"Name": "Fujian",
"Code": "07",
"Provinces": [
{
"Name": "Fuzhou Shi",
"Communities": [
{
"Places": [
{
"Name": "Fuzhou",
"PostCode": "350000",
"Location": {
"Latitude": 26.0614,
"Longitude": 119.3061
}
}
],
"PostCode": "350000"
},
{
"Name": "Minhou Xian",
"Code": "3501",
"Places": [
{
"Name": "Minhou County",
"PostCode": "350100",
"Location": {
"Latitude": 25.9189,
"Longitude": 119.3988
}
}
],
"PostCode": "350100"
},
{
"Name": "Changle Shi",
"Code": "3501",
"Places": [
{
"Name": "Changle",
"PostCode": "350200",
"Location": {
"Latitude": 25.9658,
"Longitude": 119.5156
}
}
],
"PostCode": "350200"
},
{
"Name": "Fuqing Shi",
"Code": "3501",
"Places": [
{
"Name": "Fuqing",
"PostCode": "350300",
"Location": {
"Latitude": 25.7294,
"Longitude": 119.3747
}
}
],
"PostCode": "350300"
},
{
"Name": "Pingtan Xian",
"Code": "3501",
"Places": [
{
"Name": "Pingtan County",
"PostCode": "350400",
"Location": {
"Latitude": 25.9189,
"Longitude": 119.3988
}
}
],
"PostCode": "350400"
},
{
"Name": "Lianjiang Xian",
"Code": "3501",
"Places": [
{
"Name": "Lianjiang County",
"PostCode": "350500",
"Location": {
"Latitude": 25.9189,
"Longitude": 119.3988
}
}
],
"PostCode": "350500"
},
{
"Name": "Luoyuan Xian",
"Code": "3501",
"Places": [
{
"Name": "Luoyuan County",
"PostCode": "350600",
"Location": {
"Latitude": 25.9189,
"Longitude": 119.3988
}
}
],
"PostCode": "350600"
},
{
"Name": "Yongtai Xian",
"Code": "3501",
"Places": [
{
"Name": "Yongtai County",
"PostCode": "350700",
"Location": {
"Latitude": 25.9189,
"Longitude": 119.3988
}
}
],
"PostCode": "350700"
},
{
"Name": "Minqing Xian",
"Code": "3501",
"Places": [
{
"Name": "Minqing County",
"PostCode": "350800",
"Location": {
"Latitude": 25.9189,
"Longitude": 119.3988
}
}
],
"PostCode": "350800"
}
]
},
{
"Name": "Putian Shi",
"Communities": [
{
"Places": [
{
"Name": "Putian",
"PostCode": "351100",
"Location": {
"Latitude": 25.4394,
"Longitude": 119.0103
}
}
],
"PostCode": "351100"
},
{
"Name": "Xianyou Xian",
"Code": "3503",
"Places": [
{
"Name": "Xianyou County",
"PostCode": "351200",
"Location": {
"Latitude": 25.4394,
"Longitude": 119.0103
}
}
],
"PostCode": "351200"
}
]
},
{
"Name": "Ningde Shi",
"Communities": [
{
"Places": [
{
"Name": "Ningde",
"PostCode": "352100",
"Location": {
"Latitude": 26.6617,
"Longitude": 119.5228
}
}
],
"PostCode": "352100"
},
{
"Name": "Gutian Xian",
"Code": "3509",
"Places": [
{
"Name": "Gutian County",
"PostCode": "352200",
"Location": {
"Latitude": 26.6617,
"Longitude": 119.5228
}
}
],
"PostCode": "352200"
},
{
"Name": "Pingnan Xian",
"Code": "3509",
"Places": [
{
"Name": "Pingnan County",
"PostCode": "352300",
"Location": {
"Latitude": 26.6617,
"Longitude": 119.5228
}
}
],
"PostCode": "352300"
},
{
"Name": "Fu’an Shi",
"Code": "3509",
"Places": [
{
"Name": "Fu'an",
"PostCode": "355000",
"Location": {
"Latitude": 27.0913,
"Longitude": 119.6445
}
}
],
"PostCode": "355000"
},
{
"Name": "Xiapu Xian",
"Code": "3509",
"Places": [
{
"Name": "Xiapu County",
"PostCode": "355100",
"Location": {
"Latitude": 27.2093,
"Longitude": 119.9292
}
}
],
"PostCode": "355100"
},
{
"Name": "Fuding Shi",
"Code": "3509",
"Places": [
{
"Name": "Fuding",
"PostCode": "355200",
"Location": {
"Latitude": 27.3273,
"Longitude": 120.214
}
}
],
"PostCode": "355200"
},
{
"Name": "Zherong Xian",
"Code": "3509",
"Places": [
{
"Name": "Zherong County",
"PostCode": "355300",
"Location": {
"Latitude": 27.2093,
"Longitude": 119.9292
}
}
],
"PostCode": "355300"
},
{
"Name": "Zhouning Xian",
"Code": "3509",
"Places": [
{
"Name": "Zhouning County",
"PostCode": "355400",
"Location": {
"Latitude": 27.2093,
"Longitude": 119.9292
}
}
],
"PostCode": "355400"
},
{
"Name": "Shouning Xian",
"Code": "3509",
"Places": [
{
"Name": "Shouning County",
"PostCode": "355500",
"Location": {
"Latitude": 27.2093,
"Longitude": 119.9292
}
}
],
"PostCode": "355500"
}
]
},
{
"Name": "Nanping Shi",
"Communities": [
{
"Places": [
{
"Name": "Nanping",
"PostCode": "353000",
"Location": {
"Latitude": 26.645,
"Longitude": 118.1736
}
}
],
"PostCode": "353000"
},
{
"Name": "Jian’ou Shi",
"Code": "3507",
"Places": [
{
"Name": "Jian'ou",
"PostCode": "353100",
"Location": {
"Latitude": 27.0415,
"Longitude": 118.319
}
}
],
"PostCode": "353100"
},
{
"Name": "Shunchang Xian",
"Code": "3507",
"Places": [
{
"Name": "Shunchang County",
"PostCode": "353200",
"Location": {
"Latitude": 26.8432,
"Longitude": 118.2463
}
}
],
"PostCode": "353200"
},
{
"Name": "Pucheng Xian",
"Code": "3507",
"Places": [
{
"Name": "Pucheng County",
"PostCode": "353400",
"Location": {
"Latitude": 26.8432,
"Longitude": 118.2463
}
}
],
"PostCode": "353400"
},
{
"Name": "Songxi Xian",
"Code": "3507",
"Places": [
{
"Name": "Songxi County",
"PostCode": "353500",
"Location": {
"Latitude": 26.8432,
"Longitude": 118.2463
}
}
],
"PostCode": "353500"
},
{
"Name": "Zhenghe Xian",
"Code": "3507",
"Places": [
{
"Name": "Zhenghe County",
"PostCode": "353600",
"Location": {
"Latitude": 26.8432,
"Longitude": 118.2463
}
}
],
"PostCode": "353600"
},
{
"Name": "Shaowu Shi",
"Code": "3507",
"Places": [
{
"Name": "Shaowu",
"PostCode": "354000",
"Location": {
"Latitude": 27.3409,
"Longitude": 117.4831
}
}
],
"PostCode": "354000"
},
{
"Name": "Guangze Xian",
"Code": "3507",
"Places": [
{
"Name": "Guangze County",
"PostCode": "354100",
"Location": {
"Latitude": 27.5504,
"Longitude": 117.7569
}
}
],
"PostCode": "354100"
},
{
"Name": "Jianyang",
"Code": "3507",
"Places": [
{
"Name": "Jianyang District",
"PostCode": "354200",
"Location": {
"Latitude": 27.5504,
"Longitude": 117.7569
}
}
],
"PostCode": "354200"
},
{
"Name": "Wuyishan Shi",
"Code": "3507",
"Places": [
{
"Name": "Wuyishan City",
"PostCode": "354300",
"Location": {
"Latitude": 27.7599,
"Longitude": 118.0307
}
}
],
"PostCode": "354300"
}
]
},
{
"Name": "Xiamen Shi",
"Communities": [
{
"Places": [
{
"Name": "Xiamen",
"PostCode": "361000",
"Location": {
"Latitude": 25.2174,
"Longitude": 117.8854
}
}
],
"PostCode": "361000"
},
{
"Name": "Tong’an Qu",
"Code": "3502",
"Places": [
{
"Name": "Tong'an District",
"PostCode": "361100",
"Location": {
"Latitude": 25.2174,
"Longitude": 117.8854
}
}
],
"PostCode": "361100"
}
]
},
{
"Name": "Quanzhou Shi",
"Communities": [
{
"Places": [
{
"Name": "Quanzhou",
"PostCode": "362000",
"Location": {
"Latitude": 24.9139,
"Longitude": 118.5858
}
}
],
"PostCode": "362000"
},
{
"Name": "Hui’an Xian",
"Code": "3505",
"Places": [
{
"Name": "Hui'an County",
"PostCode": "362100",
"Location": {
"Latitude": 24.9071,
"Longitude": 118.5153
}
}
],
"PostCode": "362100"
},
{
"Name": "Jinjiang Shi",
"Code": "3505",
"Places": [
{
"Name": "Jinjiang",
"PostCode": "362200",
"Location": {
"Latitude": 24.8198,
"Longitude": 118.5741
}
}
],
"PostCode": "362200"
},
{
"Name": "Nan’an Shi",
"Code": "3505",
"Places": [
{
"Name": "Nan'an",
"PostCode": "362300",
"Location": {
"Latitude": 24.9877,
"Longitude": 118.3858
}
}
],
"PostCode": "362300"
},
{
"Name": "Anxi Xian",
"Code": "3505",
"Places": [
{
"Name": "Anxi County",
"PostCode": "362400",
"Location": {
"Latitude": 24.9071,
"Longitude": 118.5153
}
}
],
"PostCode": "362400"
},
{
"Name": "Dehua Xian",
"Code": "3505",
"Places": [
{
"Name": "Dehua County",
"PostCode": "362500",
"Location": {
"Latitude": 24.9071,
"Longitude": 118.5153
}
}
],
"PostCode": "362500"
},
{
"Name": "Yongchun Xian",
"Code": "3505",
"Places": [
{
"Name": "Yongchun County",
"PostCode": "362600",
"Location": {
"Latitude": 24.9071,
"Longitude": 118.5153
}
}
],
"PostCode": "362600"
}
]
},
{
"Name": "Zhangzhou Shi",
"Communities": [
{
"Places": [
{
"Name": "Zhangzhou",
"PostCode": "363000",
"Location": {
"Latitude": 24.5133,
"Longitude": 117.6556
}
}
],
"PostCode": "363000"
},
{
"Name": "Longhai Shi",
"Code": "3506",
"Places": [
{
"Name": "Longhai City",
"PostCode": "363100",
"Location": {
"Latitude": 24.5133,
"Longitude": 117.6556
}
}
],
"PostCode": "363100"
},
{
"Name": "Zhangpu Xian",
"Code": "3506",
"Places": [
{
"Name": "Zhangpu County",
"PostCode": "363200",
"Location": {
"Latitude": 24.5133,
"Longitude": 117.6556
}
}
],
"PostCode": "363200"
},
{
"Name": "Yunxiao Xian",
"Code": "3506",
"Places": [
{
"Name": "Yunxiao County",
"PostCode": "363300",
"Location": {
"Latitude": 24.5133,
"Longitude": 117.6556
}
}
],
"PostCode": "363300"
},
{
"Name": "Dongshan Xian",
"Code": "3506",
"Places": [
{
"Name": "Dongshan County",
"PostCode": "363400",
"Location": {
"Latitude": 24.5133,
"Longitude": 117.6556
}
}
],
"PostCode": "363400"
},
{
"Name": "Zhao’an Xian",
"Code": "3506",
"Places": [
{
"Name": "Zhao'an County",
"PostCode": "363500",
"Location": {
"Latitude": 24.5133,
"Longitude": 117.6556
}
}
],
"PostCode": "363500"
},
{
"Name": "Nanjing Xian",
"Code": "3506",
"Places": [
{
"Name": "Nanjing County",
"PostCode": "363600",
"Location": {
"Latitude": 24.5133,
"Longitude": 117.6556
}
}
],
"PostCode": "363600"
},
{
"Name": "Pinghe Xian",
"Code": "3506",
"Places": [
{
"Name": "Pinghe County",
"PostCode": "363700",
"Location": {
"Latitude": 24.5133,
"Longitude": 117.6556
}
}
],
"PostCode": "363700"
},
{
"Name": "Hua’an Xian",
"Code": "3506",
"Places": [
{
"Name": "Hua'an County",
"PostCode": "363800",
"Location": {
"Latitude": 24.5133,
"Longitude": 117.6556
}
}
],
"PostCode": "363800"
},
{
"Name": "Changtai Xian",
"Code": "3506",
"Places": [
{
"Name": "Changtai County",
"PostCode": "363900",
"Location": {
"Latitude": 24.5133,
"Longitude": 117.6556
}
}
],
"PostCode": "363900"
}
]
},
{
"Name": "Longyan Shi",
"Communities": [
{
"Name": "Longyan Shi",
"Places": [
{
"Name": "Longyan",
"PostCode": "364000",
"Location": {
"Latitude": 25.0749,
"Longitude": 117.0178
}
}
],
"PostCode": "364000"
},
{
"Name": "Yongding qu",
"Code": "3508",
"Places": [
{
"Name": "Yongding District",
"PostCode": "364100",
"Location": {
"Latitude": 25.0749,
"Longitude": 117.0178
}
}
],
"PostCode": "364100"
},
{
"Name": "Shanghang Xian",
"Code": "3508",
"Places": [
{
"Name": "Shanghang County",
"PostCode": "364200",
"Location": {
"Latitude": 25.0749,
"Longitude": 117.0178
}
}
],
"PostCode": "364200"
},
{
"Name": "Wuping Xian",
"Code": "3508",
"Places": [
{
"Name": "Wuping County",
"PostCode": "364300",
"Location": {
"Latitude": 25.0749,
"Longitude": 117.0178
}
}
],
"PostCode": "364300"
},
{
"Name": "Zhangping Shi",
"Code": "3508",
"Places": [
{
"Name": "Zhangping City",
"PostCode": "364400",
"Location": {
"Latitude": 25.0749,
"Longitude": 117.0178
}
}
],
"PostCode": "364400"
},
{
"Name": "Liancheng Xian",
"Code": "3508",
"Places": [
{
"Name": "Liancheng County",
"PostCode": "366200",
"Location": {
"Latitude": 25.9637,
"Longitude": 117.3602
}
}
],
"PostCode": "366200"
},
{
"Name": "Changting Xian",
"Code": "3508",
"Places": [
{
"Name": "Changting County",
"PostCode": "366300",
"Location": {
"Latitude": 25.9637,
"Longitude": 117.3602
}
}
],
"PostCode": "366300"
}
]
},
{
"Name": "Sanming Shi",
"Communities": [
{
"Places": [
{
"Name": "Sanming",
"PostCode": "365000",
"Location": {
"Latitude": 26.2486,
"Longitude": 117.6186
}
}
],
"PostCode": "365000"
},
{
"Name": "Jiangle Xian",
"Code": "3504",
"Places": [
{
"Name": "Jiangle County",
"PostCode": "353300",
"Location": {
"Latitude": 26.8432,
"Longitude": 118.2463
}
}
],
"PostCode": "353300"
},
{
"Name": "Taining Xian",
"Code": "3504",
"Places": [
{
"Name": "Taining County",
"PostCode": "354400",
"Location": {
"Latitude": 27.5504,
"Longitude": 117.7569
}
}
],
"PostCode": "354400"
},
{
"Name": "Jianning Xian",
"Code": "3504",
"Places": [
{
"Name": "Jianning County",
"PostCode": "354500",
"Location": {
"Latitude": 27.5504,
"Longitude": 117.7569
}
}
],
"PostCode": "354500"
},
{
"Name": "Youxi Xian",
"Code": "3504",
"Places": [
{
"Name": "Youxi County",
"PostCode": "365100",
"Location": {
"Latitude": 26.2486,
"Longitude": 117.6186
}
}
],
"PostCode": "365100"
},
{
"Name": "Mingxi Xian",
"Code": "3504",
"Places": [
{
"Name": "Mingxi County",
"PostCode": "365200",
"Location": {
"Latitude": 26.2486,
"Longitude": 117.6186
}
}
],
"PostCode": "365200"
},
{
"Name": "Qingliu Xian",
"Code": "3504",
"Places": [
{
"Name": "Qingliu County",
"PostCode": "365300",
"Location": {
"Latitude": 26.2486,
"Longitude": 117.6186
}
}
],
"PostCode": "365300"
},
{
"Name": "Ninghua Xian",
"Code": "3504",
"Places": [
{
"Name": "Ninghua County",
"PostCode": "365400",
"Location": {
"Latitude": 26.2486,
"Longitude": 117.6186
}
}
],
"PostCode": "365400"
},
{
"Name": "Shaxian",
"Code": "3504",
"Places": [
{
"Name": "Sha County",
"PostCode": "365500",
"Location": {
"Latitude": 26.2486,
"Longitude": 117.6186
}
}
],
"PostCode": "365500"
},
{
"Name": "Yong’an Shi",
"Code": "3504",
"Places": [
{
"Name": "Yong'an",
"PostCode": "366000",
"Location": {
"Latitude": 25.9637,
"Longitude": 117.3602
}
}
],
"PostCode": "366000"
},
{
"Name": "Datian Xian",
"Code": "3504",
"Places": [
{
"Name": "Datian County",
"PostCode": "366100",
"Location": {
"Latitude": 25.9637,
"Longitude": 117.3602
}
}
],
"PostCode": "366100"
}
]
}
]
},
{
"Name": "Heilongjiang",
"Code": "08",
"Provinces": [
{
"Name": "Harbin Shi",
"Communities": [
{
"Places": [
{
"Name": "Harbin",
"PostCode": "150000",
"Location": {
"Latitude": 45.75,
"Longitude": 126.65
}
}
],
"PostCode": "150000"
},
{
"Name": "Shuangcheng",
"Code": "2301",
"Places": [
{
"Name": "Shuangcheng District",
"PostCode": "150100",
"Location": {
"Latitude": 45.2944,
"Longitude": 127.2709
}
}
],
"PostCode": "150100"
},
{
"Name": "Wuchang Shi",
"Code": "2301",
"Places": [
{
"Name": "Wuchang",
"PostCode": "150200",
"Location": {
"Latitude": 44.9275,
"Longitude": 127.1604
}
}
],
"PostCode": "150200"
},
{
"Name": "Acheng",
"Code": "2301",
"Places": [
{
"Name": "Acheng District",
"PostCode": "150300",
"Location": {
"Latitude": 45.2944,
"Longitude": 127.2709
}
}
],
"PostCode": "150300"
},
{
"Name": "Bin Xian",
"Code": "2301",
"Places": [
{
"Name": "Bin County",
"PostCode": "150400",
"Location": {
"Latitude": 45.2944,
"Longitude": 127.2709
}
}
],
"PostCode": "150400"
},
{
"Name": "Hulan Qu",
"Code": "2301",
"Places": [
{
"Name": "Hulan District",
"PostCode": "150500",
"Location": {
"Latitude": 45.2944,
"Longitude": 127.2709
}
}
],
"PostCode": "150500"
},
{
"Name": "Shangzhi Shi",
"Code": "2301",
"Places": [
{
"Name": "Shangzhi",
"PostCode": "150600",
"Location": {
"Latitude": 45.2056,
"Longitude": 128.0024
}
}
],
"PostCode": "150600"
},
{
"Name": "Yanshou Xian",
"Code": "2301",
"Places": [
{
"Name": "Yanshou County",
"PostCode": "150700",
"Location": {
"Latitude": 45.2944,
"Longitude": 127.2709
}
}
],
"PostCode": "150700"
},
{
"Name": "Fangzheng Xian",
"Code": "2301",
"Places": [
{
"Name": "Fangzheng County",
"PostCode": "150800",
"Location": {
"Latitude": 45.2944,
"Longitude": 127.2709
}
}
],
"PostCode": "150800"
},
{
"Name": "Tonghe Xian",
"Code": "2301",
"Places": [
{
"Name": "Tonghe County",
"PostCode": "150900",
"Location": {
"Latitude": 45.2944,
"Longitude": 127.2709
}
}
],
"PostCode": "150900"
},
{
"Name": "Bayan Xian",
"Code": "2301",
"Places": [
{
"Name": "Bayan County",
"PostCode": "151800",
"Location": {
"Latitude": 46.2505,
"Longitude": 125.6284
}
}
],
"PostCode": "151800"
},
{
"Name": "Mulan Xian",
"Code": "2301",
"Places": [
{
"Name": "Mulan County",
"PostCode": "151900",
"Location": {
"Latitude": 46.2505,
"Longitude": 125.6284
}
}
],
"PostCode": "151900"
},
{
"Name": "Yilan Xian",
"Code": "2301",
"Places": [
{
"Name": "Yilan County",
"PostCode": "154800",
"Location": {
"Latitude": 46.6375,
"Longitude": 130.5323
}
}
],
"PostCode": "154800"
}
]
},
{
"Name": "Jiamusi Shi",
"Communities": [
{
"Places": [
{
"Name": "Jiamusi",
"PostCode": "154000",
"Location": {
"Latitude": 46.7971,
"Longitude": 130.3112
}
}
],
"PostCode": "154000"
},
{
"Name": "Huachuan Xian",
"Code": "2308",
"Places": [
{
"Name": "Huachuan County",
"PostCode": "154300",
"Location": {
"Latitude": 46.6375,
"Longitude": 130.5323
}
}
],
"PostCode": "154300"
},
{
"Name": "Huanan Xian",
"Code": "2308",
"Places": [
{
"Name": "Huanan County",
"PostCode": "154400",
"Location": {
"Latitude": 46.6375,
"Longitude": 130.5323
}
}
],
"PostCode": "154400"
},
{
"Name": "Tangyuan Xian",
"Code": "2308",
"Places": [
{
"Name": "Tangyuan County",
"PostCode": "154700",
"Location": {
"Latitude": 46.6375,
"Longitude": 130.5323
}
}
],
"PostCode": "154700"
},
{
"Name": "Fujin District",
"Code": "2308",
"Places": [
{
"Name": "Fujin",
"PostCode": "156100",
"Location": {
"Latitude": 47.2472,
"Longitude": 132.0296
}
}
],
"PostCode": "156100"
},
{
"Name": "Jiansanjiang",
"Code": "2308",
"Places": [
{
"Name": "Jiansanjiang",
"PostCode": "156300",
"Location": {
"Latitude": 47.2538,
"Longitude": 132.6335
}
}
],
"PostCode": "156300"
},
{
"Name": "Tongjiang Shi",
"Code": "2308",
"Places": [
{
"Name": "Tongjiang",
"PostCode": "156400",
"Location": {
"Latitude": 47.6464,
"Longitude": 132.5017
}
}
],
"PostCode": "156400"
},
{
"Name": "Fuyuan",
"Code": "2308",
"Places": [
{
"Name": "Fuyuan",
"PostCode": "156500",
"Location": {
"Latitude": 48.3635,
"Longitude": 134.2984
}
}
],
"PostCode": "156500"
}
]
},
{
"Name": "Hegang Shi",
"Communities": [
{
"Places": [
{
"Name": "Hegang",
"PostCode": "154100",
"Location": {
"Latitude": 47.3473,
"Longitude": 130.2903
}
}
],
"PostCode": "154100"
},
{
"Name": "Luobei Xian",
"Code": "2304",
"Places": [
{
"Name": "Luobei County",
"PostCode": "154200",
"Location": {
"Latitude": 46.6375,
"Longitude": 130.5323
}
}
],
"PostCode": "154200"
},
{
"Name": "Suibin Xian",
"Code": "2304",
"Places": [
{
"Name": "Suibin County",
"PostCode": "156200",
"Location": {
"Latitude": 47.6277,
"Longitude": 132.8658
}
}
],
"PostCode": "156200"
}
]
},
{
"Name": "Qitaihe Shi",
"Communities": [
{
"Places": [
{
"Name": "Qitaihe",
"PostCode": "154600",
"Location": {
"Latitude": 45.768,
"Longitude": 130.9953
}
}
],
"PostCode": "154600"
},
{
"Name": "Boli Xian",
"Code": "2309",
"Places": [
{
"Name": "Boli County",
"PostCode": "154500",
"Location": {
"Latitude": 46.6375,
"Longitude": 130.5323
}
}
],
"PostCode": "154500"
}
]
},
{
"Name": "Shuangyashan Shi",
"Communities": [
{
"Places": [
{
"Name": "Shuangyashan",
"PostCode": "155000",
"Location": {
"Latitude": 46.6769,
"Longitude": 131.1327
}
}
],
"PostCode": "155000"
},
{
"Name": "Jianshan Qu",
"Code": "2305",
"Places": [
{
"Name": "Jianshan District",
"PostCode": "155100",
"Location": {
"Latitude": 46.6769,
"Longitude": 131.1327
}
}
],
"PostCode": "155100"
},
{
"Name": "Baoqing Xian",
"Code": "2305",
"Places": [
{
"Name": "Baoqing County",
"PostCode": "155600",
"Location": {
"Latitude": 46.6769,
"Longitude": 131.1327
}
}
],
"PostCode": "155600"
},
{
"Name": "Raohe Xian",
"Code": "2305",
"Places": [
{
"Name": "Raohe County",
"PostCode": "155700",
"Location": {
"Latitude": 46.6769,
"Longitude": 131.1327
}
}
],
"PostCode": "155700"
},
{
"Name": "Youyi Xian",
"Code": "2305",
"Places": [
{
"Name": "Youyi County",
"PostCode": "155800",
"Location": {
"Latitude": 46.6769,
"Longitude": 131.1327
}
}
],
"PostCode": "155800"
},
{
"Name": "Jixian Xian",
"Code": "2305",
"Places": [
{
"Name": "Jixian County",
"PostCode": "155900",
"Location": {
"Latitude": 46.6769,
"Longitude": 131.1327
}
}
],
"PostCode": "155900"
}
]
},
{
"Name": "Mudanjiang Shi",
"Communities": [
{
"Places": [
{
"Name": "Mudanjiang",
"PostCode": "157000",
"Location": {
"Latitude": 44.548,
"Longitude": 129.6259
}
}
],
"PostCode": "157000"
},
{
"Name": "Hailin Shi",
"Code": "2310",
"Places": [
{
"Name": "Hailin",
"PostCode": "157100",
"Location": {
"Latitude": 44.5715,
"Longitude": 129.3854
}
}
],
"PostCode": "157100"
},
{
"Name": "Dongning",
"Code": "2310",
"Places": [
{
"Name": "Dongning",
"PostCode": "157200",
"Location": {
"Latitude": 44.0844,
"Longitude": 131.1184
}
}
],
"PostCode": "157200"
},
{
"Name": "Suifenhe Shi",
"Code": "2310",
"Places": [
{
"Name": "Suifenhe",
"PostCode": "157300",
"Location": {
"Latitude": 44.6048,
"Longitude": 129.8305
}
}
],
"PostCode": "157300"
},
{
"Name": "Ning’an Shi",
"Code": "2310",
"Places": [
{
"Name": "Ning'an",
"PostCode": "157400",
"Location": {
"Latitude": 44.3381,
"Longitude": 129.4743
}
}
],
"PostCode": "157400"
},
{
"Name": "Muling Shi",
"Code": "2310",
"Places": [
{
"Name": "Muling",
"PostCode": "157500",
"Location": {
"Latitude": 44.5202,
"Longitude": 130.2513
}
}
],
"PostCode": "157500"
},
{
"Name": "Linkou Xian",
"Code": "2310",
"Places": [
{
"Name": "Linkou County",
"PostCode": "157600",
"Location": {
"Latitude": 44.4103,
"Longitude": 130.1672
}
}
],
"PostCode": "157600"
}
]
},
{
"Name": "Qiqihar Shi",
"Communities": [
{
"Places": [
{
"Name": "Qiqihar",
"PostCode": "161000",
"Location": {
"Latitude": 47.3392,
"Longitude": 123.9615
}
}
],
"PostCode": "161000"
},
{
"Name": "Longjiang Xian",
"Code": "2302",
"Places": [
{
"Name": "Longjiang County",
"PostCode": "161100",
"Location": {
"Latitude": 48.3309,
"Longitude": 124.6838
}
}
],
"PostCode": "161100"
},