[
{
"Name": "Hlavní město Praha",
"Code": "52",
"Provinces": [
{
"Name": "Hlavní město Praha",
"Code": "3100",
"Communities": [
{
"Places": [
{
"Name": "Běchovice",
"PostCode": "190 11",
"Location": {
"Latitude": 50.0833,
"Longitude": 14.6167
}
},
{
"Name": "Benice",
"PostCode": "103 00",
"Location": {
"Latitude": 50.0167,
"Longitude": 14.6
}
},
{
"Name": "Bohnice",
"PostCode": "181 00",
"Location": {
"Latitude": 50.1333,
"Longitude": 14.4167
}
},
{
"Name": "Braník",
"PostCode": "142 00",
"Location": {
"Latitude": 49.9667,
"Longitude": 14.3778
}
},
{
"Name": "Braník",
"PostCode": "147 00",
"Location": {
"Latitude": 50.0333,
"Longitude": 14.4167
}
},
{
"Name": "Břevnov",
"PostCode": "162 00",
"Location": {
"Latitude": 50.1,
"Longitude": 14.35
}
},
{
"Name": "Břevnov",
"PostCode": "169 00",
"Location": {
"Latitude": 50.1133,
"Longitude": 14.35
}
},
{
"Name": "Březiněves",
"PostCode": "182 00",
"Location": {
"Latitude": 50.1667,
"Longitude": 14.4833
}
},
{
"Name": "Bubeneč",
"PostCode": "160 00",
"Location": {
"Latitude": 50.1278,
"Longitude": 14.3889
}
},
{
"Name": "Bubeneč",
"PostCode": "170 00",
"Location": {
"Latitude": 50.1019,
"Longitude": 14.4001
}
},
{
"Name": "Čakovice",
"PostCode": "196 00",
"Location": {
"Latitude": 50.15,
"Longitude": 14.5167
}
},
{
"Name": "Černý Most",
"PostCode": "198 00",
"Location": {
"Latitude": 50.1,
"Longitude": 14.55
}
},
{
"Name": "Chodov",
"PostCode": "141 00",
"Location": {
"Latitude": 50.0712,
"Longitude": 14.2758
}
},
{
"Name": "Chodov",
"PostCode": "148 00",
"Location": {
"Latitude": 50.8167,
"Longitude": 14.4167
}
},
{
"Name": "Chodov",
"PostCode": "149 00",
"Location": {
"Latitude": 49.85,
"Longitude": 14.2056
}
},
{
"Name": "Cholupice",
"PostCode": "143 00",
"Location": {
"Latitude": 49.9833,
"Longitude": 14.45
}
},
{
"Name": "Čimice",
"PostCode": "181 00",
"Location": {
"Latitude": 50.1333,
"Longitude": 14.4333
}
},
{
"Name": "Ďáblice",
"PostCode": "182 00",
"Location": {
"Latitude": 50.15,
"Longitude": 14.5
}
},
{
"Name": "Dejvice",
"PostCode": "160 00",
"Location": {
"Latitude": 50.1,
"Longitude": 14.3667
}
},
{
"Name": "Dolní Chabry",
"PostCode": "184 00",
"Location": {
"Latitude": 50.15,
"Longitude": 14.45
}
},
{
"Name": "Dolní Měcholupy",
"PostCode": "109 00",
"Location": {
"Latitude": 50.05,
"Longitude": 14.5667
}
},
{
"Name": "Dolní Počernice",
"PostCode": "190 12",
"Location": {
"Latitude": 50.0833,
"Longitude": 14.5833
}
},
{
"Name": "Dubeč",
"PostCode": "107 00",
"Location": {
"Latitude": 49.6333,
"Longitude": 12.7167
}
},
{
"Name": "Háje",
"PostCode": "149 00",
"Location": {
"Latitude": 49.7,
"Longitude": 14.2667
}
},
{
"Name": "Hájek",
"PostCode": "104 00",
"Location": {
"Latitude": 50.05,
"Longitude": 14.6333
}
},
{
"Name": "Hloubětín",
"PostCode": "198 00",
"Location": {
"Latitude": 50.1,
"Longitude": 14.5333
}
},
{
"Name": "Hlubočepy",
"PostCode": "152 00",
"Location": {
"Latitude": 50.0333,
"Longitude": 14.4
}
},
{
"Name": "Hodkovičky",
"PostCode": "147 00",
"Location": {
"Latitude": 50.0333,
"Longitude": 14.4167
}
},
{
"Name": "Holešovice",
"PostCode": "118 00",
"Location": {
"Latitude": 50.3667,
"Longitude": 16.0417
}
},
{
"Name": "Holešovice",
"PostCode": "170 00",
"Location": {
"Latitude": 50.1013,
"Longitude": 14.45
}
},
{
"Name": "Holyně",
"PostCode": "154 00",
"Location": {
"Latitude": 50.0333,
"Longitude": 14.3667
}
},
{
"Name": "Horní Měcholupy",
"PostCode": "109 00",
"Location": {
"Latitude": 50.05,
"Longitude": 14.5667
}
},
{
"Name": "Horní Počernice",
"PostCode": "193 00",
"Location": {
"Latitude": 50.1167,
"Longitude": 14.6333
}
},
{
"Name": "Hostavice",
"PostCode": "198 00",
"Location": {
"Latitude": 50.1,
"Longitude": 14.5667
}
},
{
"Name": "Hostivař",
"PostCode": "102 00",
"Location": {
"Latitude": 50.0667,
"Longitude": 14.55
}
},
{
"Name": "Hostivař",
"PostCode": "149 00",
"Location": {
"Latitude": 49.85,
"Longitude": 14.2056
}
},
{
"Name": "Hradčany",
"PostCode": "118 00",
"Location": {
"Latitude": 50.3667,
"Longitude": 16.0417
}
},
{
"Name": "Hradčany",
"PostCode": "119 00",
"Location": {
"Latitude": 50.3667,
"Longitude": 16.0417
}
},
{
"Name": "Hradčany",
"PostCode": "160 00",
"Location": {
"Latitude": 50.1278,
"Longitude": 14.3889
}
},
{
"Name": "Hrdlořezy",
"PostCode": "108 00",
"Location": {
"Latitude": 50.0036,
"Longitude": 14.4619
}
},
{
"Name": "Hrdlořezy",
"PostCode": "190 00",
"Location": {
"Latitude": 50.1167,
"Longitude": 14.5
}
},
{
"Name": "Jinonice",
"PostCode": "158 00",
"Location": {
"Latitude": 50.05,
"Longitude": 14.3667
}
},
{
"Name": "Josefov",
"PostCode": "110 00",
"Location": {
"Latitude": 50.3333,
"Longitude": 15.9167
}
},
{
"Name": "Kamýk",
"PostCode": "142 00",
"Location": {
"Latitude": 49.9667,
"Longitude": 14.3778
}
},
{
"Name": "Kamýk",
"PostCode": "143 00",
"Location": {
"Latitude": 50.1611,
"Longitude": 14.15
}
},
{
"Name": "Karlín",
"PostCode": "186 00",
"Location": {
"Latitude": 48.9667,
"Longitude": 16.9833
}
},
{
"Name": "Kbely",
"PostCode": "197 00",
"Location": {
"Latitude": 49.5667,
"Longitude": 13.6333
}
},
{
"Name": "Klánovice",
"PostCode": "190 14",
"Location": {
"Latitude": 50.1,
"Longitude": 14.6667
}
},
{
"Name": "Kobylisy",
"PostCode": "182 00",
"Location": {
"Latitude": 50.1167,
"Longitude": 14.4667
}
},
{
"Name": "Koloděje",
"PostCode": "190 16",
"Location": {
"Latitude": 50.0667,
"Longitude": 14.65
}
},
{
"Name": "Kolovraty",
"PostCode": "103 00",
"Location": {
"Latitude": 50.0167,
"Longitude": 14.6333
}
},
{
"Name": "Komořany",
"PostCode": "143 00",
"Location": {
"Latitude": 50.5333,
"Longitude": 13.5667
}
},
{
"Name": "Košíře",
"PostCode": "150 00",
"Location": {
"Latitude": 50.0667,
"Longitude": 14.3833
}
},
{
"Name": "Královice",
"PostCode": "104 00",
"Location": {
"Latitude": 50.0333,
"Longitude": 14.6333
}
},
{
"Name": "Krč",
"PostCode": "140 00",
"Location": {
"Latitude": 50.0712,
"Longitude": 14.2758
}
},
{
"Name": "Krč",
"PostCode": "142 00",
"Location": {
"Latitude": 49.9667,
"Longitude": 14.3778
}
},
{
"Name": "Křeslice",
"PostCode": "104 00",
"Location": {
"Latitude": 50.0333,
"Longitude": 14.5667
}
},
{
"Name": "Kunratice",
"PostCode": "148 00",
"Location": {
"Latitude": 50.8167,
"Longitude": 14.4167
}
},
{
"Name": "Kyje",
"PostCode": "198 00",
"Location": {
"Latitude": 50.1,
"Longitude": 14.55
}
},
{
"Name": "Lahovice",
"PostCode": "159 00",
"Location": {
"Latitude": 49.9833,
"Longitude": 14.4
}
},
{
"Name": "Letňany",
"PostCode": "199 00",
"Location": {
"Latitude": 50.1333,
"Longitude": 14.5167
}
},
{
"Name": "Lhotka",
"PostCode": "142 00",
"Location": {
"Latitude": 49.9,
"Longitude": 14.2
}
},
{
"Name": "Libeň",
"PostCode": "171 00",
"Location": {
"Latitude": 50.1179,
"Longitude": 14.417
}
},
{
"Name": "Libeň",
"PostCode": "180 00",
"Location": {
"Latitude": 49.9738,
"Longitude": 14.819
}
},
{
"Name": "Libeň",
"PostCode": "182 00",
"Location": {
"Latitude": 50.1444,
"Longitude": 14.4833
}
},
{
"Name": "Libeň",
"PostCode": "190 00",
"Location": {
"Latitude": 50.1167,
"Longitude": 14.5
}
},
{
"Name": "Liboc",
"PostCode": "161 00",
"Location": {
"Latitude": 50.0833,
"Longitude": 14.3167
}
},
{
"Name": "Liboc",
"PostCode": "162 00",
"Location": {
"Latitude": 50.1,
"Longitude": 14.35
}
},
{
"Name": "Libuš",
"PostCode": "142 00",
"Location": {
"Latitude": 50.0167,
"Longitude": 14.4667
}
},
{
"Name": "Lipany",
"PostCode": "103 00",
"Location": {
"Latitude": 50.0,
"Longitude": 14.6167
}
},
{
"Name": "Lipence",
"PostCode": "155 31",
"Location": {
"Latitude": 49.95,
"Longitude": 14.3833
}
},
{
"Name": "Lochkov",
"PostCode": "154 00",
"Location": {
"Latitude": 50.0,
"Longitude": 14.35
}
},
{
"Name": "Lysolaje",
"PostCode": "165 00",
"Location": {
"Latitude": 50.1333,
"Longitude": 14.3667
}
},
{
"Name": "Malá Chuchle",
"PostCode": "152 00",
"Location": {
"Latitude": 50.0333,
"Longitude": 14.4
}
},
{
"Name": "Malá Chuchle",
"PostCode": "159 00",
"Location": {
"Latitude": 50.0,
"Longitude": 14.3917
}
},
{
"Name": "Malá Strana",
"PostCode": "118 00",
"Location": {
"Latitude": 50.3667,
"Longitude": 16.0417
}
},
{
"Name": "Malá Strana",
"PostCode": "150 00",
"Location": {
"Latitude": 50.0583,
"Longitude": 14.3917
}
},
{
"Name": "Malešice",
"PostCode": "100 00",
"Location": {
"Latitude": 50.0036,
"Longitude": 14.4619
}
},
{
"Name": "Malešice",
"PostCode": "108 00",
"Location": {
"Latitude": 50.0036,
"Longitude": 14.4619
}
},
{
"Name": "Malešice",
"PostCode": "130 00",
"Location": {
"Latitude": 50.0877,
"Longitude": 14.5212
}
},
{
"Name": "Malešice",
"PostCode": "190 00",
"Location": {
"Latitude": 50.1167,
"Longitude": 14.5
}
},
{
"Name": "Michle",
"PostCode": "101 00",
"Location": {
"Latitude": 50.0036,
"Longitude": 14.4619
}
},
{
"Name": "Michle",
"PostCode": "140 00",
"Location": {
"Latitude": 50.0712,
"Longitude": 14.2758
}
},
{
"Name": "Michle",
"PostCode": "141 00",
"Location": {
"Latitude": 50.0712,
"Longitude": 14.2758
}
},
{
"Name": "Miškovice",
"PostCode": "196 00",
"Location": {
"Latitude": 50.15,
"Longitude": 14.55
}
},
{
"Name": "Modřany",
"PostCode": "142 00",
"Location": {
"Latitude": 49.9667,
"Longitude": 14.3778
}
},
{
"Name": "Modřany",
"PostCode": "143 00",
"Location": {
"Latitude": 50.1611,
"Longitude": 14.15
}
},
{
"Name": "Motol",
"PostCode": "150 00",
"Location": {
"Latitude": 50.0583,
"Longitude": 14.3917
}
},
{
"Name": "Motol",
"PostCode": "169 00",
"Location": {
"Latitude": 50.1133,
"Longitude": 14.35
}
},
{
"Name": "Nebušice",
"PostCode": "164 00",
"Location": {
"Latitude": 50.1167,
"Longitude": 14.3167
}
},
{
"Name": "Nedvězí",
"PostCode": "103 00",
"Location": {
"Latitude": 50.0167,
"Longitude": 14.65
}
},
{
"Name": "Nové Město",
"PostCode": "110 00",
"Location": {
"Latitude": 50.3667,
"Longitude": 16.0417
}
},
{
"Name": "Nové Město",
"PostCode": "120 00",
"Location": {
"Latitude": 50.0783,
"Longitude": 14.4209
}
},
{
"Name": "Nové Město",
"PostCode": "128 00",
"Location": {
"Latitude": 50.0734,
"Longitude": 14.4153
}
},
{
"Name": "Nové Město",
"PostCode": "186 00",
"Location": {
"Latitude": 48.9667,
"Longitude": 16.9833
}
},
{
"Name": "Nusle",
"PostCode": "128 00",
"Location": {
"Latitude": 50.0646,
"Longitude": 14.4399
}
},
{
"Name": "Nusle",
"PostCode": "140 00",
"Location": {
"Latitude": 50.0712,
"Longitude": 14.2758
}
},
{
"Name": "Petrovice",
"PostCode": "109 00",
"Location": {
"Latitude": 50.0333,
"Longitude": 14.55
}
},
{
"Name": "Písnice",
"PostCode": "142 00",
"Location": {
"Latitude": 49.9833,
"Longitude": 14.4667
}
},
{
"Name": "Pitkovice",
"PostCode": "104 00",
"Location": {
"Latitude": 50.0167,
"Longitude": 14.5833
}
},
{
"Name": "Podolí",
"PostCode": "140 00",
"Location": {
"Latitude": 50.0712,
"Longitude": 14.2758
}
},
{
"Name": "Podolí",
"PostCode": "147 00",
"Location": {
"Latitude": 50.0333,
"Longitude": 14.4167
}
},
{
"Name": "Praha 1-Holešovice",
"PostCode": "118 00",
"Location": {
"Latitude": 50.3667,
"Longitude": 16.0417
}
},
{
"Name": "Praha 1-Hradčany",
"PostCode": "118 00",
"Location": {
"Latitude": 50.3667,
"Longitude": 16.0417
}
},
{
"Name": "Praha 1-Hradčany",
"PostCode": "119 00",
"Location": {
"Latitude": 50.3667,
"Longitude": 16.0417
}
},
{
"Name": "Praha 1-Josefov",
"PostCode": "110 00",
"Location": {
"Latitude": 50.3667,
"Longitude": 16.0417
}
},
{
"Name": "Praha 1-Malá Strana",
"PostCode": "118 00",
"Location": {
"Latitude": 50.3667,
"Longitude": 16.0417
}
},
{
"Name": "Praha 1-Nové Město",
"PostCode": "110 00",
"Location": {
"Latitude": 50.3667,
"Longitude": 16.0417
}
},
{
"Name": "Praha 1-Staré Město",
"PostCode": "110 00",
"Location": {
"Latitude": 50.3667,
"Longitude": 16.0417
}
},
{
"Name": "Praha 1-Vinohrady",
"PostCode": "110 00",
"Location": {
"Latitude": 50.3667,
"Longitude": 16.0417
}
},
{
"Name": "Praha 10-Benice",
"PostCode": "103 00",
"Location": {
"Latitude": 50.0125,
"Longitude": 14.625
}
},
{
"Name": "Praha 10-Dolní Měcholupy",
"PostCode": "109 00",
"Location": {
"Latitude": 50.0444,
"Longitude": 14.5611
}
},
{
"Name": "Praha 10-Dubeč",
"PostCode": "107 00",
"Location": {
"Latitude": 49.6333,
"Longitude": 12.7167
}
},
{
"Name": "Praha 10-Hájek",
"PostCode": "104 00",
"Location": {
"Latitude": 50.0333,
"Longitude": 14.6033
}
},
{
"Name": "Praha 10-Horní Měcholupy",
"PostCode": "109 00",
"Location": {
"Latitude": 50.0444,
"Longitude": 14.5611
}
},
{
"Name": "Praha 10-Hostivař",
"PostCode": "102 00",
"Location": {
"Latitude": 50.0667,
"Longitude": 14.55
}
},
{
"Name": "Praha 10-Hostivař",
"PostCode": "149 00",
"Location": {
"Latitude": 49.85,
"Longitude": 14.2056
}
},
{
"Name": "Praha 10-Kolovraty",
"PostCode": "103 00",
"Location": {
"Latitude": 50.0125,
"Longitude": 14.625
}
},
{
"Name": "Praha 10-Královice",
"PostCode": "104 00",
"Location": {
"Latitude": 50.0333,
"Longitude": 14.6033
}
},
{
"Name": "Praha 10-Křeslice",
"PostCode": "104 00",
"Location": {
"Latitude": 50.0333,
"Longitude": 14.6033
}
},
{
"Name": "Praha 10-Lipany",
"PostCode": "103 00",
"Location": {
"Latitude": 50.0125,
"Longitude": 14.625
}
},
{
"Name": "Praha 10-Malešice",
"PostCode": "100 00",
"Location": {
"Latitude": 50.0036,
"Longitude": 14.4619
}
},
{
"Name": "Praha 10-Malešice",
"PostCode": "108 00",
"Location": {
"Latitude": 50.0036,
"Longitude": 14.4619
}
},
{
"Name": "Praha 10-Malešice",
"PostCode": "130 00",
"Location": {
"Latitude": 50.0877,
"Longitude": 14.5212
}
},
{
"Name": "Praha 10-Malešice",
"PostCode": "190 00",
"Location": {
"Latitude": 50.1167,
"Longitude": 14.5
}
},
{
"Name": "Praha 10-Michle",
"PostCode": "101 00",
"Location": {
"Latitude": 50.0036,
"Longitude": 14.4619
}
},
{
"Name": "Praha 10-Nedvězí",
"PostCode": "103 00",
"Location": {
"Latitude": 50.0125,
"Longitude": 14.625
}
},
{
"Name": "Praha 10-Petrovice",
"PostCode": "109 00",
"Location": {
"Latitude": 50.0444,
"Longitude": 14.5611
}
},
{
"Name": "Praha 10-Pitkovice",
"PostCode": "104 00",
"Location": {
"Latitude": 50.0333,
"Longitude": 14.6033
}
},
{
"Name": "Praha 10-Štěrboholy",
"PostCode": "102 00",
"Location": {
"Latitude": 50.0667,
"Longitude": 14.55
}
},
{
"Name": "Praha 10-Strašnice",
"PostCode": "100 00",
"Location": {
"Latitude": 50.0036,
"Longitude": 14.4619
}
},
{
"Name": "Praha 10-Strašnice",
"PostCode": "108 00",
"Location": {
"Latitude": 50.0036,
"Longitude": 14.4619
}
},
{
"Name": "Praha 10-Uhříněves",
"PostCode": "104 00",
"Location": {
"Latitude": 50.0333,
"Longitude": 14.6033
}
},
{
"Name": "Praha 10-Vinohrady",
"PostCode": "100 00",
"Location": {
"Latitude": 50.0036,
"Longitude": 14.4619
}
},
{
"Name": "Praha 10-Vinohrady",
"PostCode": "101 00",
"Location": {
"Latitude": 50.0036,
"Longitude": 14.4619
}
},
{
"Name": "Praha 10-Vršovice",
"PostCode": "100 00",
"Location": {
"Latitude": 50.0036,
"Longitude": 14.4619
}
},
{
"Name": "Praha 10-Vršovice",
"PostCode": "101 00",
"Location": {
"Latitude": 50.0036,
"Longitude": 14.4619
}
},
{
"Name": "Praha 10-Záběhlice",
"PostCode": "101 00",
"Location": {
"Latitude": 50.0036,
"Longitude": 14.4619
}
},
{
"Name": "Praha 10-Záběhlice",
"PostCode": "106 00",
"Location": {
"Latitude": 50.0036,
"Longitude": 14.4619
}
},
{
"Name": "Praha 10-Žižkov",
"PostCode": "100 00",
"Location": {
"Latitude": 50.0036,
"Longitude": 14.4619
}
},
{
"Name": "Praha 2-Nové Město",
"PostCode": "120 00",
"Location": {
"Latitude": 50.0785,
"Longitude": 14.4205
}
},
{
"Name": "Praha 2-Nové Město",
"PostCode": "128 00",
"Location": {
"Latitude": 50.0734,
"Longitude": 14.4153
}
},
{
"Name": "Praha 2-Nusle",
"PostCode": "128 00",
"Location": {
"Latitude": 50.0646,
"Longitude": 14.4399
}
},
{
"Name": "Praha 2-Vinohrady",
"PostCode": "120 00",
"Location": {
"Latitude": 50.0761,
"Longitude": 14.4477
}
},
{
"Name": "Praha 2-Vyšehrad",
"PostCode": "128 00",
"Location": {
"Latitude": 50.0644,
"Longitude": 14.42
}
},
{
"Name": "Praha 3-Strašnice",
"PostCode": "130 00",
"Location": {
"Latitude": 50.0765,
"Longitude": 14.5104
}
},
{
"Name": "Praha 3-Vinohrady",
"PostCode": "130 00",
"Location": {
"Latitude": 50.0777,
"Longitude": 14.4528
}
},
{
"Name": "Praha 3-Vysočany",
"PostCode": "130 00",
"Location": {
"Latitude": 50.0854,
"Longitude": 14.454
}
},
{
"Name": "Praha 3-Žižkov",
"PostCode": "130 00",
"Location": {
"Latitude": 50.0815,
"Longitude": 14.4565
}
},
{
"Name": "Praha 4-Braník",
"PostCode": "142 00",
"Location": {
"Latitude": 49.9667,
"Longitude": 14.3778
}
},
{
"Name": "Praha 4-Braník",
"PostCode": "147 00",
"Location": {
"Latitude": 50.0333,
"Longitude": 14.4167
}
},
{
"Name": "Praha 4-Chodov",
"PostCode": "141 00",
"Location": {
"Latitude": 50.0712,
"Longitude": 14.2758
}
},
{
"Name": "Praha 4-Chodov",
"PostCode": "148 00",
"Location": {
"Latitude": 50.8167,
"Longitude": 14.4167
}
},
{
"Name": "Praha 4-Chodov",
"PostCode": "149 00",
"Location": {
"Latitude": 49.85,
"Longitude": 14.2056
}
},
{
"Name": "Praha 4-Cholupice",
"PostCode": "143 00",
"Location": {
"Latitude": 50.1611,
"Longitude": 14.15
}
},
{
"Name": "Praha 4-Háje",
"PostCode": "149 00",
"Location": {
"Latitude": 49.85,
"Longitude": 14.2056
}
},
{
"Name": "Praha 4-Hodkovičky",
"PostCode": "147 00",
"Location": {
"Latitude": 50.0333,
"Longitude": 14.4167
}
},
{
"Name": "Praha 4-Kamýk",
"PostCode": "142 00",
"Location": {
"Latitude": 49.9667,
"Longitude": 14.3778
}
},
{
"Name": "Praha 4-Kamýk",
"PostCode": "143 00",
"Location": {
"Latitude": 50.1611,
"Longitude": 14.15
}
},
{
"Name": "Praha 4-Komořany",
"PostCode": "143 00",
"Location": {
"Latitude": 50.1611,
"Longitude": 14.15
}
},
{
"Name": "Praha 4-Krč",
"PostCode": "140 00",
"Location": {
"Latitude": 50.0712,
"Longitude": 14.2758
}
},
{
"Name": "Praha 4-Krč",
"PostCode": "142 00",
"Location": {
"Latitude": 49.9667,
"Longitude": 14.3778
}
},
{
"Name": "Praha 4-Kunratice",
"PostCode": "148 00",
"Location": {
"Latitude": 50.8167,
"Longitude": 14.4167
}
},
{
"Name": "Praha 4-Lhotka",
"PostCode": "142 00",
"Location": {
"Latitude": 49.9667,
"Longitude": 14.3778
}
},
{
"Name": "Praha 4-Libuš",
"PostCode": "142 00",
"Location": {
"Latitude": 49.9667,
"Longitude": 14.3778
}
},
{
"Name": "Praha 4-Michle",
"PostCode": "140 00",
"Location": {
"Latitude": 50.0712,
"Longitude": 14.2758
}
},
{
"Name": "Praha 4-Michle",
"PostCode": "141 00",
"Location": {
"Latitude": 50.0712,
"Longitude": 14.2758
}
},
{
"Name": "Praha 4-Modřany",
"PostCode": "142 00",
"Location": {
"Latitude": 49.9667,
"Longitude": 14.3778
}
},
{
"Name": "Praha 4-Modřany",
"PostCode": "143 00",
"Location": {
"Latitude": 50.1611,
"Longitude": 14.15
}
},
{
"Name": "Praha 4-Nusle",
"PostCode": "140 00",
"Location": {
"Latitude": 50.0712,
"Longitude": 14.2758
}
},
{
"Name": "Praha 4-Písnice",
"PostCode": "142 00",
"Location": {
"Latitude": 49.9667,
"Longitude": 14.3778
}
},
{
"Name": "Praha 4-Podolí",
"PostCode": "140 00",
"Location": {
"Latitude": 50.0712,
"Longitude": 14.2758
}
},
{
"Name": "Praha 4-Podolí",
"PostCode": "147 00",
"Location": {
"Latitude": 50.0333,
"Longitude": 14.4167
}
},
{
"Name": "Praha 4-Šeberov",
"PostCode": "149 00",
"Location": {
"Latitude": 49.85,
"Longitude": 14.2056
}
},
{
"Name": "Praha 4-Točná",
"PostCode": "143 00",
"Location": {
"Latitude": 50.1611,
"Longitude": 14.15
}
},
{
"Name": "Praha 4-Újezd",
"PostCode": "149 00",
"Location": {
"Latitude": 49.85,
"Longitude": 14.2056
}
},
{
"Name": "Praha 4-Vinohrady",
"PostCode": "140 00",
"Location": {
"Latitude": 50.0712,
"Longitude": 14.2758
}
},
{
"Name": "Praha 4-Záběhlice",
"PostCode": "141 00",
"Location": {
"Latitude": 50.0712,
"Longitude": 14.2758
}
},
{
"Name": "Praha 5-Hlubočepy",
"PostCode": "152 00",
"Location": {
"Latitude": 50.0333,
"Longitude": 14.4
}
},
{
"Name": "Praha 5-Holyně",
"PostCode": "154 00",
"Location": {
"Latitude": 50.0167,
"Longitude": 14.3611
}
},
{
"Name": "Praha 5-Jinonice",
"PostCode": "158 00",
"Location": {
"Latitude": 50.05,
"Longitude": 14.3667
}
},
{
"Name": "Praha 5-Košíře",
"PostCode": "150 00",
"Location": {
"Latitude": 50.0583,
"Longitude": 14.3917
}
},
{
"Name": "Praha 5-Lahovice",
"PostCode": "159 00",
"Location": {
"Latitude": 50.0,
"Longitude": 14.3917
}
},
{
"Name": "Praha 5-Lipence",
"PostCode": "155 31",
"Location": {
"Latitude": 49.95,
"Longitude": 14.3833
}
},
{
"Name": "Praha 5-Lochkov",
"PostCode": "154 00",
"Location": {
"Latitude": 50.0167,
"Longitude": 14.3611
}
},
{
"Name": "Praha 5-Malá Chuchle",
"PostCode": "152 00",
"Location": {
"Latitude": 50.0333,
"Longitude": 14.4
}
},
{
"Name": "Praha 5-Malá Chuchle",
"PostCode": "159 00",
"Location": {
"Latitude": 50.0,
"Longitude": 14.3917
}
},
{
"Name": "Praha 5-Malá Strana",
"PostCode": "150 00",
"Location": {
"Latitude": 50.0583,
"Longitude": 14.3917
}
},
{
"Name": "Praha 5-Motol",
"PostCode": "150 00",
"Location": {
"Latitude": 50.0583,
"Longitude": 14.3917
}
},
{
"Name": "Praha 5-Motol",
"PostCode": "169 00",
"Location": {
"Latitude": 50.1133,
"Longitude": 14.35
}
},
{
"Name": "Praha 5-Radlice",
"PostCode": "150 00",
"Location": {
"Latitude": 50.0583,
"Longitude": 14.3917
}
},
{
"Name": "Praha 5-Radotín",
"PostCode": "153 00",
"Location": {
"Latitude": 49.65,
"Longitude": 14.6
}
},
{
"Name": "Praha 5-Řeporyje",
"PostCode": "155 00",
"Location": {
"Latitude": 50.0333,
"Longitude": 14.3083
}
},
{
"Name": "Praha 5-Slivenec",
"PostCode": "154 00",
"Location": {
"Latitude": 50.0167,
"Longitude": 14.3611
}
},
{
"Name": "Praha 5-Smíchov",
"PostCode": "150 00",
"Location": {
"Latitude": 50.0583,
"Longitude": 14.3917
}
},
{
"Name": "Praha 5-Smíchov",
"PostCode": "160 00",
"Location": {
"Latitude": 50.1278,
"Longitude": 14.3889
}
},
{
"Name": "Praha 5-Sobín",
"PostCode": "155 21",
"Location": {
"Latitude": 50.0667,
"Longitude": 14.275
}
},
{
"Name": "Praha 5-Stodůlky",
"PostCode": "155 00",
"Location": {
"Latitude": 50.0333,
"Longitude": 14.3083
}
},
{
"Name": "Praha 5-Třebonice",
"PostCode": "155 00",
"Location": {
"Latitude": 50.0333,
"Longitude": 14.3083
}
},
{
"Name": "Praha 5-Velká Chuchle",
"PostCode": "159 00",
"Location": {
"Latitude": 50.0,
"Longitude": 14.3917
}
},
{
"Name": "Praha 5-Zadní Kopanina",
"PostCode": "155 00",
"Location": {
"Latitude": 50.0333,
"Longitude": 14.3083
}
},
{
"Name": "Praha 5-Zbraslav",
"PostCode": "156 00",
"Location": {
"Latitude": 48.6333,
"Longitude": 14.4333
}
},
{
"Name": "Praha 5-Zličín",
"PostCode": "155 21",
"Location": {
"Latitude": 50.0667,
"Longitude": 14.275
}
},
{
"Name": "Praha 6-Břevnov",
"PostCode": "162 00",
"Location": {
"Latitude": 50.1,
"Longitude": 14.35
}
},
{
"Name": "Praha 6-Břevnov",
"PostCode": "169 00",
"Location": {
"Latitude": 50.1133,
"Longitude": 14.35
}
},
{
"Name": "Praha 6-Bubeneč",
"PostCode": "160 00",
"Location": {
"Latitude": 50.1278,
"Longitude": 14.3889
}
},
{
"Name": "Praha 6-Dejvice",
"PostCode": "160 00",
"Location": {
"Latitude": 50.1278,
"Longitude": 14.3889
}
},
{
"Name": "Praha 6-Hradčany",
"PostCode": "160 00",
"Location": {
"Latitude": 50.1278,
"Longitude": 14.3889
}
},
{
"Name": "Praha 6-Liboc",
"PostCode": "161 00",
"Location": {
"Latitude": 50.0833,
"Longitude": 14.3167
}
},
{
"Name": "Praha 6-Liboc",
"PostCode": "162 00",
"Location": {
"Latitude": 50.1,
"Longitude": 14.35
}
},
{
"Name": "Praha 6-Lysolaje",
"PostCode": "165 00",
"Location": {
"Latitude": 50.1333,
"Longitude": 14.375
}
},
{
"Name": "Praha 6-Nebušice",
"PostCode": "164 00",
"Location": {
"Latitude": 50.1167,
"Longitude": 14.3083
}
},
{
"Name": "Praha 6-Přední Kopanina",
"PostCode": "164 00",
"Location": {
"Latitude": 50.1167,
"Longitude": 14.3083
}
},
{
"Name": "Praha 6-Řepy",
"PostCode": "163 00",
"Location": {
"Latitude": 50.0667,
"Longitude": 14.3
}
},
{
"Name": "Praha 6-Ruzyně",
"PostCode": "161 00",
"Location": {
"Latitude": 50.0833,
"Longitude": 14.3167
}
},
{
"Name": "Praha 6-Sedlec",
"PostCode": "160 00",
"Location": {
"Latitude": 50.1278,
"Longitude": 14.3889
}
},
{
"Name": "Praha 6-Střešovice",
"PostCode": "162 00",
"Location": {
"Latitude": 50.1,
"Longitude": 14.35
}
},
{
"Name": "Praha 6-Střešovice",
"PostCode": "169 00",
"Location": {
"Latitude": 50.1133,
"Longitude": 14.35
}
},
{
"Name": "Praha 6-Suchdol",
"PostCode": "165 00",
"Location": {
"Latitude": 50.1333,
"Longitude": 14.375
}
},
{
"Name": "Praha 6-Veleslavín",
"PostCode": "162 00",
"Location": {
"Latitude": 50.1,
"Longitude": 14.35
}
},
{
"Name": "Praha 6-Vokovice",
"PostCode": "160 00",
"Location": {
"Latitude": 50.1278,
"Longitude": 14.3889
}
},
{
"Name": "Praha 7-Bubeneč",
"PostCode": "170 00",
"Location": {
"Latitude": 50.1019,
"Longitude": 14.4001
}
},
{
"Name": "Praha 7-Holešovice",
"PostCode": "170 00",
"Location": {
"Latitude": 50.1013,
"Longitude": 14.45
}
},
{
"Name": "Praha 7-Libeň",
"PostCode": "171 00",
"Location": {
"Latitude": 50.1179,
"Longitude": 14.417
}
},
{
"Name": "Praha 7-Troja",
"PostCode": "171 00",
"Location": {
"Latitude": 50.1167,
"Longitude": 14.4127
}
},
{
"Name": "Praha 8-Bohnice",
"PostCode": "181 00",
"Location": {
"Latitude": 50.1333,
"Longitude": 14.425
}
},
{
"Name": "Praha 8-Březiněves",
"PostCode": "182 00",
"Location": {
"Latitude": 50.1444,
"Longitude": 14.4833
}
},
{
"Name": "Praha 8-Čimice",
"PostCode": "181 00",
"Location": {
"Latitude": 50.1333,
"Longitude": 14.425
}
},
{
"Name": "Praha 8-Ďáblice",
"PostCode": "182 00",
"Location": {
"Latitude": 50.1444,
"Longitude": 14.4833
}
},
{
"Name": "Praha 8-Dolní Chabry",
"PostCode": "184 00",
"Location": {
"Latitude": 50.15,
"Longitude": 14.45
}
},
{
"Name": "Praha 8-Karlín",
"PostCode": "186 00",
"Location": {
"Latitude": 48.9667,
"Longitude": 16.9833
}
},
{
"Name": "Praha 8-Kobylisy",
"PostCode": "182 00",
"Location": {
"Latitude": 50.1444,
"Longitude": 14.4833
}
},
{
"Name": "Praha 8-Libeň",
"PostCode": "180 00",
"Location": {
"Latitude": 49.9738,
"Longitude": 14.819
}
},
{
"Name": "Praha 8-Libeň",
"PostCode": "182 00",
"Location": {
"Latitude": 50.1444,
"Longitude": 14.4833
}
},
{
"Name": "Praha 8-Nové Město",
"PostCode": "186 00",
"Location": {
"Latitude": 48.9667,
"Longitude": 16.9833
}
},
{
"Name": "Praha 8-Střížkov",
"PostCode": "182 00",
"Location": {
"Latitude": 50.1444,
"Longitude": 14.4833
}
},
{
"Name": "Praha 8-Troja",
"PostCode": "180 00",
"Location": {
"Latitude": 49.9738,
"Longitude": 14.819
}
},
{
"Name": "Praha 8-Troja",
"PostCode": "181 00",
"Location": {
"Latitude": 50.1333,
"Longitude": 14.425
}
},
{
"Name": "Praha 8-Žižkov",
"PostCode": "180 00",
"Location": {
"Latitude": 49.9738,
"Longitude": 14.819
}
},
{
"Name": "Praha 9-Běchovice",
"PostCode": "190 11",
"Location": {
"Latitude": 50.0833,
"Longitude": 14.6167
}
},
{
"Name": "Praha 9-Čakovice",
"PostCode": "196 00",
"Location": {
"Latitude": 50.1556,
"Longitude": 14.5333
}
},
{
"Name": "Praha 9-Černý Most",
"PostCode": "198 00",
"Location": {
"Latitude": 50.1,
"Longitude": 14.55
}
},
{
"Name": "Praha 9-Dolní Počernice",
"PostCode": "190 12",
"Location": {
"Latitude": 50.0833,
"Longitude": 14.5833
}
},
{
"Name": "Praha 9-Hloubětín",
"PostCode": "198 00",
"Location": {
"Latitude": 50.1,
"Longitude": 14.55
}
},
{
"Name": "Praha 9-Horní Počernice",
"PostCode": "193 00",
"Location": {
"Latitude": 50.1167,
"Longitude": 14.6333
}
},
{
"Name": "Praha 9-Hostavice",
"PostCode": "198 00",
"Location": {
"Latitude": 50.1,
"Longitude": 14.55
}
},
{
"Name": "Praha 9-Hrdlořezy",
"PostCode": "108 00",
"Location": {
"Latitude": 50.0036,
"Longitude": 14.4619
}
},
{
"Name": "Praha 9-Hrdlořezy",
"PostCode": "190 00",
"Location": {
"Latitude": 50.1167,
"Longitude": 14.5
}
},
{
"Name": "Praha 9-Kbely",
"PostCode": "197 00",
"Location": {
"Latitude": 49.5667,
"Longitude": 13.6333
}
},
{
"Name": "Praha 9-Klánovice",
"PostCode": "190 14",
"Location": {
"Latitude": 50.1,
"Longitude": 14.6667
}
},
{
"Name": "Praha 9-Koloděje",
"PostCode": "190 16",
"Location": {
"Latitude": 50.075,
"Longitude": 14.6583
}
},
{
"Name": "Praha 9-Kyje",
"PostCode": "198 00",
"Location": {
"Latitude": 50.1,
"Longitude": 14.55
}
},
{
"Name": "Praha 9-Letňany",
"PostCode": "199 00",
"Location": {
"Latitude": 50.1333,
"Longitude": 14.5167
}
},
{
"Name": "Praha 9-Libeň",
"PostCode": "190 00",
"Location": {
"Latitude": 50.1167,
"Longitude": 14.5
}
},
{
"Name": "Praha 9-Miškovice",
"PostCode": "196 00",
"Location": {
"Latitude": 50.1556,
"Longitude": 14.5333
}
},
{
"Name": "Praha 9-Prosek",
"PostCode": "190 00",
"Location": {
"Latitude": 50.1167,
"Longitude": 14.5
}
},
{
"Name": "Praha 9-Satalice",
"PostCode": "190 15",
"Location": {
"Latitude": 50.1167,
"Longitude": 14.5833
}
},
{
"Name": "Praha 9-Střížkov",
"PostCode": "190 00",
"Location": {
"Latitude": 50.1167,
"Longitude": 14.5
}
},
{
"Name": "Praha 9-Třeboradice",
"PostCode": "196 00",
"Location": {
"Latitude": 50.1556,
"Longitude": 14.5333
}
},
{
"Name": "Praha 9-Újezd nad Lesy",
"PostCode": "190 16",
"Location": {
"Latitude": 50.075,
"Longitude": 14.6583
}
},
{
"Name": "Praha 9-Vinoř",
"PostCode": "190 17",
"Location": {
"Latitude": 50.15,
"Longitude": 14.6
}
},
{
"Name": "Praha 9-Vysočany",
"PostCode": "190 00",
"Location": {
"Latitude": 50.1167,
"Longitude": 14.5
}
},
{
"Name": "Přední Kopanina",
"PostCode": "164 00",
"Location": {
"Latitude": 50.1167,
"Longitude": 14.3
}
},
{
"Name": "Prosek",
"PostCode": "190 00",
"Location": {
"Latitude": 50.1167,
"Longitude": 14.5
}
},
{
"Name": "Radlice",
"PostCode": "150 00",
"Location": {
"Latitude": 50.05,
"Longitude": 14.4
}
},
{
"Name": "Radotín",
"PostCode": "153 00",
"Location": {
"Latitude": 49.65,
"Longitude": 14.6
}
},
{
"Name": "Řeporyje",
"PostCode": "155 00",
"Location": {
"Latitude": 50.0333,
"Longitude": 14.3167
}
},
{
"Name": "Řepy",
"PostCode": "163 00",
"Location": {
"Latitude": 50.0667,
"Longitude": 14.3
}
},
{
"Name": "Ruzyně",
"PostCode": "161 00",
"Location": {
"Latitude": 50.0833,
"Longitude": 14.3167
}
},
{
"Name": "Satalice",
"PostCode": "190 15",
"Location": {
"Latitude": 50.1167,
"Longitude": 14.5833
}
},
{
"Name": "Šeberov",
"PostCode": "149 00",
"Location": {
"Latitude": 50.0167,
"Longitude": 14.5167
}
},
{
"Name": "Sedlec",
"PostCode": "160 00",
"Location": {
"Latitude": 50.0953,
"Longitude": 14.3668
}
},
{
"Name": "Slivenec",
"PostCode": "154 00",
"Location": {
"Latitude": 50.0167,
"Longitude": 14.3667
}
},
{
"Name": "Smíchov",
"PostCode": "150 00",
"Location": {
"Latitude": 50.0583,
"Longitude": 14.3917
}
},
{
"Name": "Smíchov",
"PostCode": "160 00",
"Location": {
"Latitude": 50.1278,
"Longitude": 14.3889
}
},
{
"Name": "Sobín",
"PostCode": "155 21",
"Location": {
"Latitude": 50.0667,
"Longitude": 14.2667
}
},
{
"Name": "Staré Město",
"PostCode": "110 00",
"Location": {
"Latitude": 50.4,
"Longitude": 16.1667
}
},
{
"Name": "Štěrboholy",
"PostCode": "102 00",
"Location": {
"Latitude": 50.0667,
"Longitude": 14.55
}
},
{
"Name": "Stodůlky",
"PostCode": "155 00",
"Location": {
"Latitude": 50.05,
"Longitude": 14.3167
}
},
{
"Name": "Strašnice",
"PostCode": "100 00",
"Location": {
"Latitude": 50.0036,
"Longitude": 14.4619
}
},
{
"Name": "Strašnice",
"PostCode": "108 00",
"Location": {
"Latitude": 50.0036,
"Longitude": 14.4619
}
},
{
"Name": "Strašnice",
"PostCode": "130 00",
"Location": {
"Latitude": 50.0765,
"Longitude": 14.5104
}
},
{
"Name": "Střešovice",
"PostCode": "162 00",
"Location": {
"Latitude": 50.1,
"Longitude": 14.35
}
},
{
"Name": "Střešovice",
"PostCode": "169 00",
"Location": {
"Latitude": 50.1133,
"Longitude": 14.35
}
},
{
"Name": "Střížkov",
"PostCode": "182 00",
"Location": {
"Latitude": 50.1444,
"Longitude": 14.4833
}
},
{
"Name": "Střížkov",
"PostCode": "190 00",
"Location": {
"Latitude": 50.1167,
"Longitude": 14.5
}
},
{
"Name": "Suchdol",
"PostCode": "165 00",
"Location": {
"Latitude": 50.1333,
"Longitude": 14.3833
}
},
{
"Name": "Točná",
"PostCode": "143 00",
"Location": {
"Latitude": 49.9667,
"Longitude": 14.4333
}
},
{
"Name": "Třebonice",
"PostCode": "155 00",
"Location": {
"Latitude": 50.05,
"Longitude": 14.2833
}
},
{
"Name": "Třeboradice",
"PostCode": "196 00",
"Location": {
"Latitude": 50.1667,
"Longitude": 14.5333
}
},
{
"Name": "Troja",
"PostCode": "171 00",
"Location": {
"Latitude": 50.1167,
"Longitude": 14.4127
}
},
{
"Name": "Troja",
"PostCode": "180 00",
"Location": {
"Latitude": 49.9738,
"Longitude": 14.819
}
},
{
"Name": "Troja",
"PostCode": "181 00",
"Location": {
"Latitude": 50.1333,
"Longitude": 14.425
}
},
{
"Name": "Uhříněves",
"PostCode": "104 00",
"Location": {
"Latitude": 50.0333,
"Longitude": 14.6
}
},
{
"Name": "Újezd",
"PostCode": "149 00",
"Location": {
"Latitude": 49.8333,
"Longitude": 13.8333
}
},
{
"Name": "Újezd nad Lesy",
"PostCode": "190 16",
"Location": {
"Latitude": 50.0833,
"Longitude": 14.6667
}
},
{
"Name": "Veleslavín",
"PostCode": "162 00",
"Location": {
"Latitude": 50.1,
"Longitude": 14.35
}
},
{
"Name": "Velká Chuchle",
"PostCode": "159 00",
"Location": {
"Latitude": 50.0167,
"Longitude": 14.3833
}
},
{
"Name": "Vinohrady",
"PostCode": "100 00",
"Location": {
"Latitude": 50.0036,
"Longitude": 14.4619
}
},
{
"Name": "Vinohrady",
"PostCode": "101 00",
"Location": {
"Latitude": 50.0036,
"Longitude": 14.4619
}
},
{
"Name": "Vinohrady",
"PostCode": "110 00",
"Location": {
"Latitude": 50.3667,
"Longitude": 16.0417
}
},
{
"Name": "Vinohrady",
"PostCode": "120 00",
"Location": {
"Latitude": 50.0761,
"Longitude": 14.4477
}
},
{
"Name": "Vinohrady",
"PostCode": "130 00",
"Location": {
"Latitude": 50.0777,
"Longitude": 14.4528
}
},
{
"Name": "Vinohrady",
"PostCode": "140 00",
"Location": {
"Latitude": 50.0712,
"Longitude": 14.2758
}
},
{
"Name": "Vinoř",
"PostCode": "190 17",
"Location": {
"Latitude": 50.15,
"Longitude": 14.6
}
},
{
"Name": "Vokovice",
"PostCode": "160 00",
"Location": {
"Latitude": 50.1,
"Longitude": 14.3333
}
},
{
"Name": "Vršovice",
"PostCode": "100 00",
"Location": {
"Latitude": 50.0036,
"Longitude": 14.4619
}
},
{
"Name": "Vršovice",
"PostCode": "101 00",
"Location": {
"Latitude": 50.0036,
"Longitude": 14.4619
}
},
{
"Name": "Vyšehrad",
"PostCode": "128 00",
"Location": {
"Latitude": 50.0644,
"Longitude": 14.42
}
},
{
"Name": "Vysočany",
"PostCode": "130 00",
"Location": {
"Latitude": 50.0854,
"Longitude": 14.454
}
},
{
"Name": "Vysočany",
"PostCode": "190 00",
"Location": {
"Latitude": 50.1167,
"Longitude": 14.5
}
},
{
"Name": "Záběhlice",
"PostCode": "101 00",
"Location": {
"Latitude": 50.0036,
"Longitude": 14.4619
}
},
{
"Name": "Záběhlice",
"PostCode": "106 00",
"Location": {
"Latitude": 50.0036,
"Longitude": 14.4619
}
},
{
"Name": "Záběhlice",
"PostCode": "141 00",
"Location": {
"Latitude": 50.0712,
"Longitude": 14.2758
}
},
{
"Name": "Zadní Kopanina",
"PostCode": "155 00",
"Location": {
"Latitude": 50.0,
"Longitude": 14.3167
}
},
{
"Name": "Zbraslav",
"PostCode": "156 00",
"Location": {
"Latitude": 48.6333,
"Longitude": 14.4333
}
},
{
"Name": "Žižkov",
"PostCode": "100 00",
"Location": {
"Latitude": 50.0036,
"Longitude": 14.4619
}
},
{
"Name": "Žižkov",
"PostCode": "130 00",
"Location": {
"Latitude": 50.0815,
"Longitude": 14.4565
}
},
{
"Name": "Žižkov",
"PostCode": "180 00",
"Location": {
"Latitude": 49.9738,
"Longitude": 14.819
}
},
{
"Name": "Zličín",
"PostCode": "155 21",
"Location": {
"Latitude": 50.0667,
"Longitude": 14.2833
}
}
]
}
]
}
]
},
{
"Name": "Jihomoravský kraj",
"Code": "78",
"Provinces": [
{
"Name": "Blansko",
"Code": "3701",
"Communities": [
{
"Places": [
{
"Name": "Adamov",
"PostCode": "679 04",
"Location": {
"Latitude": 49.3167,
"Longitude": 16.6667
}
},
{
"Name": "Babolky",
"PostCode": "679 61",
"Location": {
"Latitude": 49.5833,
"Longitude": 16.5833
}
},
{
"Name": "Bačov",
"PostCode": "680 01",
"Location": {
"Latitude": 49.5333,
"Longitude": 16.6333
}
},
{
"Name": "Bedřichov",
"PostCode": "679 71",
"Location": {
"Latitude": 49.4667,
"Longitude": 16.4667
}
},
{
"Name": "Běleč",
"PostCode": "679 23",
"Location": {
"Latitude": 49.4333,
"Longitude": 16.3833
}
},
{
"Name": "Benešov",
"PostCode": "679 53",
"Location": {
"Latitude": 49.5,
"Longitude": 16.7667
}
},
{
"Name": "Bezděčí",
"PostCode": "679 61",
"Location": {
"Latitude": 49.5673,
"Longitude": 16.5687
}
},
{
"Name": "Blansko",
"PostCode": "678 01",
"Location": {
"Latitude": 49.3667,
"Longitude": 16.6667
}
},
{
"Name": "Bořitov",
"PostCode": "679 21",
"Location": {
"Latitude": 49.4167,
"Longitude": 16.6
}
},
{
"Name": "Borotín",
"PostCode": "679 37",
"Location": {
"Latitude": 49.5833,
"Longitude": 16.6667
}
},
{
"Name": "Boskovice",
"PostCode": "680 01",
"Location": {
"Latitude": 49.4833,
"Longitude": 16.6667
}
},
{
"Name": "Březina",
"PostCode": "679 05",
"Location": {
"Latitude": 49.2833,
"Longitude": 16.75
}
},
{
"Name": "Brťov",
"PostCode": "679 63",
"Location": {
"Latitude": 49.6167,
"Longitude": 16.6333
}
},
{
"Name": "Brťov u Černé Hory",
"PostCode": "679 21",
"Location": {
"Latitude": 49.4056,
"Longitude": 16.5528
}
},
{
"Name": "Brumov",
"PostCode": "679 23",
"Location": {
"Latitude": 49.4667,
"Longitude": 16.4333
}
},
{
"Name": "Brusná",
"PostCode": "679 23",
"Location": {
"Latitude": 49.4,
"Longitude": 16.4
}
},
{
"Name": "Bukovice",
"PostCode": "679 23",
"Location": {
"Latitude": 49.4167,
"Longitude": 16.4833
}
},
{
"Name": "Bukovina",
"PostCode": "679 05",
"Location": {
"Latitude": 49.3,
"Longitude": 16.7667
}
},
{
"Name": "Bukovinka",
"PostCode": "679 05",
"Location": {
"Latitude": 49.3,
"Longitude": 16.8
}
},
{
"Name": "Býkovice",
"PostCode": "679 71",
"Location": {
"Latitude": 49.4333,
"Longitude": 16.5333
}
},
{
"Name": "Černá Hora",
"PostCode": "679 21",
"Location": {
"Latitude": 49.4167,
"Longitude": 16.5833
}
},
{
"Name": "Černovice",
"PostCode": "679 75",
"Location": {
"Latitude": 49.4833,
"Longitude": 16.4333
}
},
{
"Name": "Cetkovice",
"PostCode": "679 38",
"Location": {
"Latitude": 49.5833,
"Longitude": 16.7167
}
},
{
"Name": "Chlum",
"PostCode": "679 61",
"Location": {
"Latitude": 49.6,
"Longitude": 16.6
}
},
{
"Name": "Chrudichromy",
"PostCode": "680 01",
"Location": {
"Latitude": 49.5,
"Longitude": 16.6333
}
},
{
"Name": "Crhov",
"PostCode": "679 74",
"Location": {
"Latitude": 49.55,
"Longitude": 16.4333
}
},
{
"Name": "Deštná",
"PostCode": "679 61",
"Location": {
"Latitude": 49.6167,
"Longitude": 16.5667
}
},
{
"Name": "Dlouhá Lhota",
"PostCode": "679 71",
"Location": {
"Latitude": 49.4333,
"Longitude": 16.5167
}
},
{
"Name": "Dolní Lhota",
"PostCode": "678 01",
"Location": {
"Latitude": 49.3833,
"Longitude": 16.6333
}
},
{
"Name": "Dolní Poříčí",
"PostCode": "679 62",
"Location": {
"Latitude": 49.5667,
"Longitude": 16.5
}
},
{
"Name": "Dolní Smržov",
"PostCode": "679 61",
"Location": {
"Latitude": 49.6,
"Longitude": 16.5667
}
},
{
"Name": "Doubravice nad Svitavou",
"PostCode": "679 11",
"Location": {
"Latitude": 49.4333,
"Longitude": 16.6333
}
},
{
"Name": "Drnovice",
"PostCode": "679 76",
"Location": {
"Latitude": 49.4667,
"Longitude": 16.55
}
},
{
"Name": "Drvalovice",
"PostCode": "679 61",
"Location": {
"Latitude": 49.5667,
"Longitude": 16.65
}
},
{
"Name": "Habrůvka",
"PostCode": "679 05",
"Location": {
"Latitude": 49.3,
"Longitude": 16.7167
}
},
{
"Name": "Hluboké Dvory",
"PostCode": "679 23",
"Location": {
"Latitude": 49.4211,
"Longitude": 16.4256
}
},
{
"Name": "Hluboké u Kunštátu",
"PostCode": "679 72",
"Location": {
"Latitude": 49.5,
"Longitude": 16.5312
}
},
{
"Name": "Hodonín",
"PostCode": "679 71",
"Location": {
"Latitude": 49.5,
"Longitude": 16.4167
}
},
{
"Name": "Holešín",
"PostCode": "679 02",
"Location": {
"Latitude": 49.4333,
"Longitude": 16.6667
}
},
{
"Name": "Holštejn",
"PostCode": "679 06",
"Location": {
"Latitude": 49.4,
"Longitude": 16.7833
}
},
{
"Name": "Hořice",
"PostCode": "678 01",
"Location": {
"Latitude": 49.3667,
"Longitude": 16.6333
}
},
{
"Name": "Horní Lhota",
"PostCode": "678 01",
"Location": {
"Latitude": 49.3833,
"Longitude": 16.65
}
},
{
"Name": "Horní Poříčí",
"PostCode": "679 62",
"Location": {
"Latitude": 49.5833,
"Longitude": 16.4833
}
},
{
"Name": "Horní Smržov",
"PostCode": "679 61",
"Location": {
"Latitude": 49.6167,
"Longitude": 16.5833
}
},
{
"Name": "Housko",
"PostCode": "679 13",
"Location": {
"Latitude": 49.4333,
"Longitude": 16.8
}
},
{
"Name": "Hrádkov",
"PostCode": "680 01",
"Location": {
"Latitude": 49.4833,
"Longitude": 16.7
}
},
{
"Name": "Jabloňany",
"PostCode": "679 01",
"Location": {
"Latitude": 49.4667,
"Longitude": 16.6
}
},
{
"Name": "Jasinov",
"PostCode": "679 61",
"Location": {
"Latitude": 49.5333,
"Longitude": 16.5333
}
},
{
"Name": "Jedovnice",
"PostCode": "679 06",
"Location": {
"Latitude": 49.35,
"Longitude": 16.7667
}
},
{
"Name": "Jeneč",
"PostCode": "679 21",
"Location": {
"Latitude": 49.4167,
"Longitude": 16.5
}
},
{
"Name": "Jestřebí",
"PostCode": "679 02",
"Location": {
"Latitude": 49.4167,
"Longitude": 16.6167
}
},
{
"Name": "Jobova Lhota",
"PostCode": "679 74",
"Location": {
"Latitude": 49.5833,
"Longitude": 16.45
}
},
{
"Name": "Karolín",
"PostCode": "679 02",
"Location": {
"Latitude": 49.4167,
"Longitude": 16.6667
}
},
{
"Name": "Kladoruby",
"PostCode": "679 61",
"Location": {
"Latitude": 49.55,
"Longitude": 16.6167
}
},
{
"Name": "Klepačov",
"PostCode": "678 01",
"Location": {
"Latitude": 49.35,
"Longitude": 16.6667
}
},
{
"Name": "Klevetov",
"PostCode": "679 61",
"Location": {
"Latitude": 49.5333,
"Longitude": 16.5833
}
},
{
"Name": "Kněževes",
"PostCode": "679 74",
"Location": {
"Latitude": 49.5833,
"Longitude": 16.4167
}
},
{
"Name": "Kněževísko",
"PostCode": "679 61",
"Location": {
"Latitude": 49.55,
"Longitude": 16.55
}
},
{
"Name": "Knínice u Boskovic",
"PostCode": "679 34",
"Location": {
"Latitude": 49.5333,
"Longitude": 16.7
}
},
{
"Name": "Kochov",
"PostCode": "679 61",
"Location": {
"Latitude": 49.5667,
"Longitude": 16.6167
}
},
{
"Name": "Korbelova Lhota",
"PostCode": "679 63",
"Location": {
"Latitude": 49.6,
"Longitude": 16.6667
}
},
{
"Name": "Kořenec",
"PostCode": "680 01",
"Location": {
"Latitude": 49.5333,
"Longitude": 16.75
}
},
{
"Name": "Kotvrdovice",
"PostCode": "679 07",
"Location": {
"Latitude": 49.3667,
"Longitude": 16.8
}
},
{
"Name": "Kozárov",
"PostCode": "679 71",
"Location": {
"Latitude": 49.4333,
"Longitude": 16.4667
}
},
{
"Name": "Krasová",
"PostCode": "679 06",
"Location": {
"Latitude": 49.3667,
"Longitude": 16.7667
}
},
{
"Name": "Křeptov",
"PostCode": "679 23",
"Location": {
"Latitude": 49.4333,
"Longitude": 16.3833
}
},
{
"Name": "Křetín",
"PostCode": "679 62",
"Location": {
"Latitude": 49.5667,
"Longitude": 16.5
}
},
{
"Name": "Krhov",
"PostCode": "679 01",
"Location": {
"Latitude": 49.4667,
"Longitude": 16.5833
}
},
{
"Name": "Křtěnov",
"PostCode": "679 74",
"Location": {
"Latitude": 49.55,
"Longitude": 16.4167
}
},
{
"Name": "Křtiny",
"PostCode": "679 05",
"Location": {
"Latitude": 49.3,
"Longitude": 16.75
}
},
{
"Name": "Kulířov",
"PostCode": "679 06",
"Location": {
"Latitude": 49.3833,
"Longitude": 16.85
}
},
{
"Name": "Kunčina Ves",
"PostCode": "679 71",
"Location": {
"Latitude": 49.45,
"Longitude": 16.4667
}
},
{
"Name": "Kunice",
"PostCode": "679 71",
"Location": {
"Latitude": 49.4833,
"Longitude": 16.5
}
},
{
"Name": "Kuničky",
"PostCode": "679 02",
"Location": {
"Latitude": 49.4333,
"Longitude": 16.6833
}
},
{
"Name": "Kunštát",
"PostCode": "679 72",
"Location": {
"Latitude": 49.5,
"Longitude": 16.5167
}
},
{
"Name": "Lačnov",
"PostCode": "679 71",
"Location": {
"Latitude": 49.45,
"Longitude": 16.5
}
},
{
"Name": "Lažánky",
"PostCode": "678 01",
"Location": {
"Latitude": 49.35,
"Longitude": 16.7167
}
},
{
"Name": "Lažany",
"PostCode": "679 22",
"Location": {
"Latitude": 49.35,
"Longitude": 16.55
}
},
{
"Name": "Lazinov",
"PostCode": "679 62",
"Location": {
"Latitude": 49.5667,
"Longitude": 16.5167
}
},
{
"Name": "Letovice",
"PostCode": "679 61",
"Location": {
"Latitude": 49.55,
"Longitude": 16.5833
}
},
{
"Name": "Lhota",
"PostCode": "679 61",
"Location": {
"Latitude": 49.5833,
"Longitude": 16.1833
}
},
{
"Name": "Lhota Rapotina",
"PostCode": "679 01",
"Location": {
"Latitude": 49.4667,
"Longitude": 16.6333
}
},
{
"Name": "Lhota u Lysic",
"PostCode": "679 71",
"Location": {
"Latitude": 49.4667,
"Longitude": 16.5
}
},
{
"Name": "Lhota u Olešnice",
"PostCode": "679 74",
"Location": {
"Latitude": 49.55,
"Longitude": 16.3833
}
},
{
"Name": "Lipovec",
"PostCode": "679 15",
"Location": {
"Latitude": 49.4,
"Longitude": 16.8
}
},
{
"Name": "Lipůvka",
"PostCode": "679 22",
"Location": {
"Latitude": 49.3333,
"Longitude": 16.5667
}
},
{
"Name": "Lomnice",
"PostCode": "679 23",
"Location": {
"Latitude": 49.4167,
"Longitude": 16.4167
}
},
{
"Name": "Louka",
"PostCode": "679 74",
"Location": {
"Latitude": 49.5333,
"Longitude": 16.4333
}
},
{
"Name": "Lubě",
"PostCode": "679 21",
"Location": {
"Latitude": 49.4,
"Longitude": 16.5333
}
},
{
"Name": "Ludíkov",
"PostCode": "680 01",
"Location": {
"Latitude": 49.45,
"Longitude": 16.7333
}
},
{
"Name": "Lysice",
"PostCode": "679 71",
"Location": {
"Latitude": 49.45,
"Longitude": 16.5333
}
},
{
"Name": "Makov",
"PostCode": "679 72",
"Location": {
"Latitude": 49.5167,
"Longitude": 16.4833
}
},
{
"Name": "Malá Lhota",
"PostCode": "679 21",
"Location": {
"Latitude": 49.3833,
"Longitude": 16.55
}
},
{
"Name": "Malá Roudka",
"PostCode": "679 63",
"Location": {
"Latitude": 49.6,
"Longitude": 16.65
}
},
{
"Name": "Marianín",
"PostCode": "679 06",
"Location": {
"Latitude": 49.3833,
"Longitude": 16.8333
}
},
{
"Name": "Meziříčko",
"PostCode": "679 61",
"Location": {
"Latitude": 49.5667,
"Longitude": 16.55
}
},
{
"Name": "Míchov",
"PostCode": "679 61",
"Location": {
"Latitude": 49.5167,
"Longitude": 16.6167
}
},
{
"Name": "Milonice",
"PostCode": "679 22",
"Location": {
"Latitude": 49.3667,
"Longitude": 16.5667
}
},
{
"Name": "Mladkov",
"PostCode": "679 01",
"Location": {
"Latitude": 49.4833,
"Longitude": 16.6167
}
},
{
"Name": "Molenburk",
"PostCode": "679 13",
"Location": {
"Latitude": 49.4333,
"Longitude": 16.8167
}
},
{
"Name": "Němčice",
"PostCode": "679 51",
"Location": {
"Latitude": 49.45,
"Longitude": 16.7167
}
},
{
"Name": "Novičí",
"PostCode": "679 61",
"Location": {
"Latitude": 49.5833,
"Longitude": 16.6
}
},
{
"Name": "Nýrov",
"PostCode": "679 72",
"Location": {
"Latitude": 49.5333,
"Longitude": 16.55
}
},
{
"Name": "Obora",
"PostCode": "679 01",
"Location": {
"Latitude": 49.45,
"Longitude": 16.6
}
},
{
"Name": "Obůrka",
"PostCode": "678 01",
"Location": {
"Latitude": 49.3611,
"Longitude": 16.6574
}
},
{
"Name": "Ochoz u Tišnova",
"PostCode": "679 23",
"Location": {
"Latitude": 49.4333,
"Longitude": 16.4
}
},
{
"Name": "Okrouhlá",
"PostCode": "680 01",
"Location": {
"Latitude": 49.5167,
"Longitude": 16.7333
}
},
{
"Name": "Olešná",
"PostCode": "678 01",
"Location": {
"Latitude": 49.3333,
"Longitude": 16.6333
}
},
{
"Name": "Olešnice",
"PostCode": "679 74",
"Location": {
"Latitude": 49.5667,
"Longitude": 16.4167
}
},
{
"Name": "Olomučany",
"PostCode": "679 03",
"Location": {
"Latitude": 49.3333,
"Longitude": 16.6667
}
},
{
"Name": "Osiky",
"PostCode": "679 23",
"Location": {
"Latitude": 49.45,
"Longitude": 16.4167
}
},
{
"Name": "Ostrov u Macochy",
"PostCode": "679 14",
"Location": {
"Latitude": 49.3833,
"Longitude": 16.7667
}
},
{
"Name": "Pamětice",
"PostCode": "679 61",
"Location": {
"Latitude": 49.55,
"Longitude": 16.65
}
},
{
"Name": "Petrov",
"PostCode": "679 62",
"Location": {
"Latitude": 49.5333,
"Longitude": 16.4833
}
},
{
"Name": "Petrovice",
"PostCode": "679 02",
"Location": {
"Latitude": 49.4167,
"Longitude": 16.7
}
},
{
"Name": "Podolí",
"PostCode": "679 61",
"Location": {
"Latitude": 49.5333,
"Longitude": 16.6167
}
},
{
"Name": "Prostřední Poříčí",
"PostCode": "679 62",
"Location": {
"Latitude": 49.5833,
"Longitude": 16.4833
}
},
{
"Name": "Rájec",
"PostCode": "679 02",
"Location": {
"Latitude": 49.4167,
"Longitude": 16.6333
}
},
{
"Name": "Ráječko",
"PostCode": "679 02",
"Location": {
"Latitude": 49.4,
"Longitude": 16.65
}
},
{
"Name": "Rašov",
"PostCode": "679 23",
"Location": {
"Latitude": 49.4167,
"Longitude": 16.45
}
},
{
"Name": "Řepka",
"PostCode": "679 23",
"Location": {
"Latitude": 49.3833,
"Longitude": 16.4167
}
},
{
"Name": "Rohozec",
"PostCode": "679 23",
"Location": {
"Latitude": 49.3833,
"Longitude": 16.4833
}
},
{
"Name": "Roubanina",
"PostCode": "679 61",
"Location": {
"Latitude": 49.6167,
"Longitude": 16.6
}
},
{
"Name": "Rozseč nad Kunštátem",
"PostCode": "679 73",
"Location": {
"Latitude": 49.5333,
"Longitude": 16.4667
}
},
{
"Name": "Rozsíčka",
"PostCode": "679 74",
"Location": {
"Latitude": 49.5667,
"Longitude": 16.4667
}
},
{
"Name": "Rudice",
"PostCode": "679 06",
"Location": {
"Latitude": 49.3333,
"Longitude": 16.7333
}
},
{
"Name": "Rudka",
"PostCode": "679 72",
"Location": {
"Latitude": 49.5167,
"Longitude": 16.5167
}
},
{
"Name": "Rumberk",
"PostCode": "679 61",
"Location": {
"Latitude": 49.5673,
"Longitude": 16.5687
}
},
{
"Name": "Sasina",
"PostCode": "679 32",
"Location": {
"Latitude": 49.5167,
"Longitude": 16.5833
}
},
{
"Name": "Šebetov",
"PostCode": "679 35",
"Location": {
"Latitude": 49.55,
"Longitude": 16.7167
}
},
{
"Name": "Sebranice",
"PostCode": "679 31",
"Location": {
"Latitude": 49.5,
"Longitude": 16.5833
}
},
{
"Name": "Šebrov",
"PostCode": "679 22",
"Location": {
"Latitude": 49.3333,
"Longitude": 16.6
}
},
{
"Name": "Senetářov",
"PostCode": "679 06",
"Location": {
"Latitude": 49.35,
"Longitude": 16.8
}
},
{
"Name": "Skalice nad Svitavou",
"PostCode": "679 01",
"Location": {
"Latitude": 49.4833,
"Longitude": 16.6
}
},
{
"Name": "Skočova Lhota",
"PostCode": "679 63",
"Location": {
"Latitude": 49.6167,
"Longitude": 16.65
}
},
{
"Name": "Skrchov",
"PostCode": "679 65",
"Location": {
"Latitude": 49.5833,
"Longitude": 16.55
}
},
{
"Name": "Skřib",
"PostCode": "679 61",
"Location": {
"Latitude": 49.5833,
"Longitude": 16.55
}
},
{
"Name": "Slatinka",
"PostCode": "679 61",
"Location": {
"Latitude": 49.5667,
"Longitude": 16.5667
}
},
{
"Name": "Sloup",
"PostCode": "679 13",
"Location": {
"Latitude": 49.4167,
"Longitude": 16.75
}
},
{
"Name": "Šošůvka",
"PostCode": "679 13",
"Location": {
"Latitude": 49.4167,
"Longitude": 16.7667
}
},
{
"Name": "Spešov",
"PostCode": "679 02",
"Location": {
"Latitude": 49.3833,
"Longitude": 16.6333
}
},
{
"Name": "Štěchov",
"PostCode": "679 71",
"Location": {
"Latitude": 49.45,
"Longitude": 16.5
}
},
{
"Name": "Strhaře",
"PostCode": "679 23",
"Location": {
"Latitude": 49.4333,
"Longitude": 16.4333
}
},
{
"Name": "Stvolová",
"PostCode": "679 61",
"Location": {
"Latitude": 49.5673,
"Longitude": 16.5687
}
},
{
"Name": "Suchdol",
"PostCode": "679 13",
"Location": {
"Latitude": 49.3833,
"Longitude": 16.7167
}
},
{
"Name": "Suchý",
"PostCode": "680 01",
"Location": {
"Latitude": 49.4833,
"Longitude": 16.7667
}
},
{
"Name": "Sudice",
"PostCode": "680 01",
"Location": {
"Latitude": 49.5333,
"Longitude": 16.6667
}
},
{
"Name": "Sulíkov",
"PostCode": "679 62",
"Location": {
"Latitude": 49.55,
"Longitude": 16.4833
}
},
{
"Name": "Svárov",
"PostCode": "679 63",
"Location": {
"Latitude": 49.6,
"Longitude": 16.6167
}
},
{
"Name": "Svatá Kateřina",
"PostCode": "678 01",
"Location": {
"Latitude": 49.3333,
"Longitude": 16.6167
}
},
{
"Name": "Světlá",
"PostCode": "679 63",
"Location": {
"Latitude": 49.5667,
"Longitude": 16.7167
}
},
{
"Name": "Svinošice",
"PostCode": "679 22",
"Location": {
"Latitude": 49.3333,
"Longitude": 16.5833
}
},
{
"Name": "Svitávka",
"PostCode": "679 32",
"Location": {
"Latitude": 49.5,
"Longitude": 16.6
}
},
{
"Name": "Sychotín",
"PostCode": "679 72",
"Location": {
"Latitude": 49.5,
"Longitude": 16.5
}
},
{
"Name": "Synalov",
"PostCode": "679 23",
"Location": {
"Latitude": 49.4333,
"Longitude": 16.4167
}
},
{
"Name": "Tasovice",
"PostCode": "679 71",
"Location": {
"Latitude": 49.5,
"Longitude": 16.4333
}
},
{
"Name": "Těchov",
"PostCode": "678 01",
"Location": {
"Latitude": 49.3833,
"Longitude": 16.7
}
},
{
"Name": "Touboř",
"PostCode": "679 72",
"Location": {
"Latitude": 49.4833,
"Longitude": 16.5
}
},
{
"Name": "Třebětín",
"PostCode": "679 61",
"Location": {
"Latitude": 49.5667,
"Longitude": 16.5833
}
},
{
"Name": "Uhřice",
"PostCode": "679 63",
"Location": {
"Latitude": 49.6,
"Longitude": 16.7333
}
},
{
"Name": "Újezd",
"PostCode": "679 72",
"Location": {
"Latitude": 49.4667,
"Longitude": 16.65
}
},
{
"Name": "Újezd u Boskovic",
"PostCode": "680 01",
"Location": {
"Latitude": 49.5013,
"Longitude": 16.7026
}
},
{
"Name": "Újezd u Černé Hory",
"PostCode": "679 22",
"Location": {
"Latitude": 49.3472,
"Longitude": 16.5722
}
},
{
"Name": "Unín",
"PostCode": "679 24",
"Location": {
"Latitude": 49.3833,
"Longitude": 16.5
}
},
{
"Name": "Úsobrno",
"PostCode": "679 39",
"Location": {
"Latitude": 49.6,
"Longitude": 16.7667
}
},
{
"Name": "Ústup",
"PostCode": "679 74",
"Location": {
"Latitude": 49.5667,
"Longitude": 16.4667
}
},
{
"Name": "Valchov",
"PostCode": "680 01",
"Location": {
"Latitude": 49.4667,
"Longitude": 16.7167
}
},
{
"Name": "Vanovice",
"PostCode": "679 36",
"Location": {
"Latitude": 49.5667,
"Longitude": 16.6667
}
},
{
"Name": "Vavřinec",
"PostCode": "679 13",
"Location": {
"Latitude": 49.4,
"Longitude": 16.7167
}
},
{
"Name": "Vážany",
"PostCode": "680 01",
"Location": {
"Latitude": 49.5333,
"Longitude": 16.6833
}
},
{
"Name": "Velenov",
"PostCode": "680 01",
"Location": {
"Latitude": 49.5,
"Longitude": 16.7333
}
},
{
"Name": "Velká Roudka",
"PostCode": "679 63",
"Location": {
"Latitude": 49.5833,
"Longitude": 16.6667
}
},
{
"Name": "Velké Opatovice",
"PostCode": "679 63",
"Location": {
"Latitude": 49.6167,
"Longitude": 16.6667
}
},
{
"Name": "Veselí",
"PostCode": "679 23",
"Location": {
"Latitude": 49.4,
"Longitude": 16.3833
}
},
{
"Name": "Veselice",
"PostCode": "679 13",
"Location": {
"Latitude": 49.4,
"Longitude": 16.7167
}
},
{
"Name": "Veselka",
"PostCode": "679 74",
"Location": {
"Latitude": 49.5833,
"Longitude": 16.45
}
},
{
"Name": "Vilémovice",
"PostCode": "679 06",
"Location": {
"Latitude": 49.3667,
"Longitude": 16.75
}
},
{
"Name": "Vísky",
"PostCode": "679 33",
"Location": {
"Latitude": 49.5333,
"Longitude": 16.6333
}
},
{
"Name": "Vlkov",
"PostCode": "679 61",
"Location": {
"Latitude": 49.5833,
"Longitude": 16.5333
}
},
{
"Name": "Voděrady",
"PostCode": "679 01",
"Location": {
"Latitude": 49.4833,
"Longitude": 16.55
}
},
{
"Name": "Vranová",
"PostCode": "679 62",
"Location": {
"Latitude": 49.55,
"Longitude": 16.5333
}
},
{
"Name": "Vratíkov",
"PostCode": "680 01",
"Location": {
"Latitude": 49.5,
"Longitude": 16.7167
}
},
{
"Name": "Vřesice",
"PostCode": "679 62",
"Location": {
"Latitude": 49.5625,
"Longitude": 16.4979
}
},
{
"Name": "Vysočany",
"PostCode": "679 13",
"Location": {
"Latitude": 49.4119,
"Longitude": 16.7548
}
},
{
"Name": "Zábludov",
"PostCode": "679 61",
"Location": {
"Latitude": 49.55,
"Longitude": 16.55
}
},
{
"Name": "Závist",
"PostCode": "679 22",
"Location": {
"Latitude": 49.3667,
"Longitude": 16.5667
}
},
{
"Name": "Zboněk",
"PostCode": "679 61",
"Location": {
"Latitude": 49.5167,
"Longitude": 16.5833
}
},
{
"Name": "Zbraslavec",
"PostCode": "679 72",
"Location": {
"Latitude": 49.4833,
"Longitude": 16.5333
}
},
{
"Name": "Žďár",
"PostCode": "679 02",
"Location": {
"Latitude": 49.4167,
"Longitude": 16.7
}
},
{
"Name": "Žďárná",
"PostCode": "679 52",
"Location": {
"Latitude": 49.4667,
"Longitude": 16.75
}
},
{
"Name": "Žernovník",
"PostCode": "679 21",
"Location": {
"Latitude": 49.4,
"Longitude": 16.55
}
},
{
"Name": "Žerůtky",
"PostCode": "679 71",
"Location": {
"Latitude": 49.4333,
"Longitude": 16.5333
}
},
{
"Name": "Zhoř",
"PostCode": "679 23",
"Location": {
"Latitude": 49.4167,
"Longitude": 16.4833
}
},
{
"Name": "Žleby",
"PostCode": "679 23",
"Location": {
"Latitude": 49.4211,
"Longitude": 16.4256
}
}
]
}
]
},
{
"Name": "Brno-město",
"Code": "3702",
"Communities": [
{
"Places": [
{
"Name": "Bohunice",
"PostCode": "625 00",
"Location": {
"Latitude": 49.1333,
"Longitude": 13.9667
}
},
{
"Name": "Bosonohy",
"PostCode": "642 00",
"Location": {
"Latitude": 49.1667,
"Longitude": 16.5333
}
},
{
"Name": "Brněnské Ivanovice",
"PostCode": "620 00",
"Location": {
"Latitude": 49.15,
"Longitude": 16.6667
}
},
{
"Name": "Brno-Bohunice",
"PostCode": "625 00",
"Location": {
"Latitude": 49.1333,
"Longitude": 13.9667
}
},
{
"Name": "Brno-Bosonohy",
"PostCode": "642 00",
"Location": {
"Latitude": 49.1667,
"Longitude": 16.5333
}
},
{
"Name": "Brno-Brněnské Ivanovice",
"PostCode": "620 00",
"Location": {
"Latitude": 49.1458,
"Longitude": 16.6708
}
},
{
"Name": "Brno-Brno Město",
"PostCode": "602 00",
"Location": {
"Latitude": 48.7667,
"Longitude": 14.7833
}
},
{
"Name": "Brno-Bystrc",
"PostCode": "635 00",
"Location": {
"Latitude": 49.2333,
"Longitude": 16.525
}
},
{
"Name": "Brno-Černá Pole",
"PostCode": "613 00",
"Location": {
"Latitude": 49.2931,
"Longitude": 15.8639
}
},
{
"Name": "Brno-Černovice",
"PostCode": "618 00",
"Location": {
"Latitude": 49.6167,
"Longitude": 13.0
}
},
{
"Name": "Brno-Chrlice",
"PostCode": "643 00",
"Location": {
"Latitude": 49.1333,
"Longitude": 16.6667
}
},
{
"Name": "Brno-Dolní Heršpice",
"PostCode": "619 00",
"Location": {
"Latitude": 49.1556,
"Longitude": 16.6222
}
},
{
"Name": "Brno-Dvorska",
"PostCode": "620 00",
"Location": {
"Latitude": 49.1458,
"Longitude": 16.6708
}
},
{
"Name": "Brno-Holásky",
"PostCode": "620 00",
"Location": {
"Latitude": 49.1458,
"Longitude": 16.6708
}
},
{
"Name": "Brno-Horní Heršpice",
"PostCode": "619 00",
"Location": {
"Latitude": 49.1556,
"Longitude": 16.6222
}
},
{
"Name": "Brno-Husovice",
"PostCode": "614 00",
"Location": {
"Latitude": 49.2222,
"Longitude": 16.6444
}
},
{
"Name": "Brno-Ivanovice",
"PostCode": "621 00",
"Location": {
"Latitude": 49.2639,
"Longitude": 16.5889
}
},
{
"Name": "Brno-Jehnice",
"PostCode": "621 00",
"Location": {
"Latitude": 49.2639,
"Longitude": 16.5889
}
},
{
"Name": "Brno-Jundrov",
"PostCode": "637 00",
"Location": {
"Latitude": 49.2,
"Longitude": 16.55
}
},
{
"Name": "Brno-Kníničky",
"PostCode": "635 00",
"Location": {
"Latitude": 49.2333,
"Longitude": 16.525
}
},
{
"Name": "Brno-Kohoutovice",
"PostCode": "623 00",
"Location": {
"Latitude": 49.2,
"Longitude": 16.5333
}
},
{
"Name": "Brno-Komárov",
"PostCode": "617 00",
"Location": {
"Latitude": 49.25,
"Longitude": 14.6
}
},
{
"Name": "Brno-Komín",
"PostCode": "624 00",
"Location": {
"Latitude": 49.2167,
"Longitude": 16.55
}
},
{
"Name": "Brno-Královo Pole",
"PostCode": "612 00",
"Location": {
"Latitude": 49.75,
"Longitude": 16.1333
}
},
{
"Name": "Brno-Lesná",
"PostCode": "638 00",
"Location": {
"Latitude": 48.9,
"Longitude": 15.8667
}
},
{
"Name": "Brno-Líšeň",
"PostCode": "628 00",
"Location": {
"Latitude": 49.6333,
"Longitude": 15.5833
}
},
{
"Name": "Brno-Maloměřice",
"PostCode": "614 00",
"Location": {
"Latitude": 49.2222,
"Longitude": 16.6444
}
},
{
"Name": "Brno-Medlánky",
"PostCode": "621 00",
"Location": {
"Latitude": 49.2639,
"Longitude": 16.5889
}
},
{
"Name": "Brno-Město",
"PostCode": "602 00",
"Location": {
"Latitude": 48.7667,
"Longitude": 14.7833
}
},
{
"Name": "Brno-Mokrá Hora",
"PostCode": "621 00",
"Location": {
"Latitude": 49.2639,
"Longitude": 16.5889
}
},
{
"Name": "Brno-Nový Lískovec",
"PostCode": "625 00",
"Location": {
"Latitude": 49.1333,
"Longitude": 13.9667
}
},
{
"Name": "Brno-Nový Lískovec",
"PostCode": "634 00",
"Location": {
"Latitude": 49.1417,
"Longitude": 16.3667
}
},
{
"Name": "Brno-Obřany",
"PostCode": "614 00",
"Location": {
"Latitude": 49.2222,
"Longitude": 16.6444
}
},
{
"Name": "Brno-Ořešín",
"PostCode": "621 00",
"Location": {
"Latitude": 49.2639,
"Longitude": 16.5889
}
},
{
"Name": "Brno-Pisárky",
"PostCode": "623 00",
"Location": {
"Latitude": 49.2,
"Longitude": 16.5333
}
},
{
"Name": "Brno-Ponava",
"PostCode": "602 00",
"Location": {
"Latitude": 48.7667,
"Longitude": 14.7833
}
},
{
"Name": "Brno-Přízřenice",
"PostCode": "619 00",
"Location": {
"Latitude": 49.1556,
"Longitude": 16.6222
}
},
{
"Name": "Brno-Řečkovice",
"PostCode": "621 00",
"Location": {
"Latitude": 49.2639,
"Longitude": 16.5889
}
},
{
"Name": "Brno-Sadová",
"PostCode": "612 00",
"Location": {
"Latitude": 49.75,
"Longitude": 16.1333
}
},
{
"Name": "Brno-Slatina",
"PostCode": "627 00",
"Location": {
"Latitude": 48.95,
"Longitude": 13.7167
}
},
{
"Name": "Brno-Soběšice",
"PostCode": "644 00",
"Location": {
"Latitude": 49.2667,
"Longitude": 16.6333
}
},
{
"Name": "Brno-Staré Brno",
"PostCode": "603 00",
"Location": {
"Latitude": 48.7667,
"Longitude": 14.7833
}
},
{
"Name": "Brno-Starý Lískovec",
"PostCode": "625 00",
"Location": {
"Latitude": 49.1333,
"Longitude": 13.9667
}
},
{
"Name": "Brno-Stránice",
"PostCode": "602 00",
"Location": {
"Latitude": 48.7667,
"Longitude": 14.7833
}
},
{
"Name": "Brno-Štýřice",
"PostCode": "639 00",
"Location": {
"Latitude": 49.1417,
"Longitude": 16.3667
}
},
{
"Name": "Brno-Trnitá",
"PostCode": "602 00",
"Location": {
"Latitude": 48.7667,
"Longitude": 14.7833
}
},
{
"Name": "Brno-Tuřany",
"PostCode": "620 00",
"Location": {
"Latitude": 49.1458,
"Longitude": 16.6708
}
},
{
"Name": "Brno-Útěchov",
"PostCode": "644 00",
"Location": {
"Latitude": 49.2667,
"Longitude": 16.6333
}
},
{
"Name": "Brno-Veveří",
"PostCode": "602 00",
"Location": {
"Latitude": 48.7667,
"Longitude": 14.7833
}
},
{
"Name": "Brno-Vinohrady",
"PostCode": "628 00",
"Location": {
"Latitude": 49.6333,
"Longitude": 15.5833
}
},
{
"Name": "Brno-Žabovřesky",
"PostCode": "616 00",
"Location": {
"Latitude": 49.0,
"Longitude": 14.3333
}
},
{
"Name": "Brno-Zábrdovice",
"PostCode": "615 00",
"Location": {
"Latitude": 49.0167,
"Longitude": 16.3667
}
},
{
"Name": "Brno-Žebětín",
"PostCode": "641 00",
"Location": {
"Latitude": 49.2,
"Longitude": 16.4833
}
},
{
"Name": "Brno-Židenice",
"PostCode": "615 00",
"Location": {
"Latitude": 49.0167,
"Longitude": 16.3667
}
},
{
"Name": "Brno-Židenice",
"PostCode": "636 00",
"Location": {
"Latitude": 49.1417,
"Longitude": 16.3667
}
},
{
"Name": "Bystrc",
"PostCode": "635 00",
"Location": {
"Latitude": 49.2333,
"Longitude": 16.5333
}
},
{
"Name": "Černá Pole",
"PostCode": "613 00",
"Location": {
"Latitude": 49.2931,
"Longitude": 15.8639
}
},
{
"Name": "Černovice",
"PostCode": "618 00",
"Location": {
"Latitude": 49.6167,
"Longitude": 13.0
}
},
{
"Name": "Chrlice",
"PostCode": "643 00",
"Location": {
"Latitude": 49.1333,
"Longitude": 16.6667
}
},
{
"Name": "Dolní Heršpice",
"PostCode": "619 00",
"Location": {
"Latitude": 49.15,
"Longitude": 16.6333
}
},
{
"Name": "Dvorska",
"PostCode": "620 00",
"Location": {
"Latitude": 49.1333,
"Longitude": 16.7
}
},
{
"Name": "Holásky",
"PostCode": "620 00",
"Location": {
"Latitude": 49.15,
"Longitude": 16.65
}
},
{
"Name": "Horní Heršpice",
"PostCode": "619 00",
"Location": {
"Latitude": 49.1667,
"Longitude": 16.6167
}
},
{
"Name": "Husovice",
"PostCode": "614 00",
"Location": {
"Latitude": 49.2167,
"Longitude": 16.6333
}
},
{
"Name": "Ivanovice",
"PostCode": "621 00",
"Location": {
"Latitude": 49.2667,
"Longitude": 16.5667
}
},
{
"Name": "Jehnice",
"PostCode": "621 00",
"Location": {
"Latitude": 49.2667,
"Longitude": 16.6
}
},
{
"Name": "Jundrov",
"PostCode": "637 00",
"Location": {
"Latitude": 49.2,
"Longitude": 16.55
}
},
{
"Name": "Kníničky",
"PostCode": "635 00",
"Location": {
"Latitude": 49.2333,
"Longitude": 16.5167
}
},
{
"Name": "Kohoutovice",
"PostCode": "623 00",
"Location": {
"Latitude": 49.2,
"Longitude": 16.5333
}
},
{
"Name": "Komárov",
"PostCode": "617 00",
"Location": {
"Latitude": 49.25,
"Longitude": 14.6
}
},
{
"Name": "Komín",
"PostCode": "624 00",
"Location": {
"Latitude": 49.2167,
"Longitude": 16.55
}
},
{
"Name": "Královo Pole",
"PostCode": "612 00",
"Location": {
"Latitude": 49.2167,
"Longitude": 16.5667
}
},
{
"Name": "Lesná",
"PostCode": "638 00",
"Location": {
"Latitude": 48.9,
"Longitude": 15.8667
}
},
{
"Name": "Líšeň",
"PostCode": "628 00",
"Location": {
"Latitude": 49.2,
"Longitude": 16.7
}
},
{
"Name": "Maloměřice",
"PostCode": "614 00",
"Location": {
"Latitude": 49.2167,
"Longitude": 16.65
}
},
{
"Name": "Medlánky",
"PostCode": "621 00",
"Location": {
"Latitude": 49.2333,
"Longitude": 16.5833
}
},
{
"Name": "Mokrá Hora",
"PostCode": "621 00",
"Location": {
"Latitude": 49.2667,
"Longitude": 16.6
}
},
{
"Name": "Nový Lískovec",
"PostCode": "625 00",
"Location": {
"Latitude": 49.1333,
"Longitude": 13.9667
}
},
{
"Name": "Nový Lískovec",
"PostCode": "634 00",
"Location": {
"Latitude": 49.1417,
"Longitude": 16.3667
}
},
{
"Name": "Obřany",
"PostCode": "614 00",
"Location": {
"Latitude": 49.2333,
"Longitude": 16.65
}
},
{
"Name": "Ořešín",
"PostCode": "621 00",
"Location": {
"Latitude": 49.2833,
"Longitude": 16.6
}
},
{
"Name": "Pisárky",
"PostCode": "623 00",
"Location": {
"Latitude": 49.2,
"Longitude": 16.5333
}
},
{
"Name": "Ponava",
"PostCode": "602 00",
"Location": {
"Latitude": 48.7667,
"Longitude": 14.7833
}
},
{
"Name": "Přízřenice",
"PostCode": "619 00",
"Location": {
"Latitude": 49.15,
"Longitude": 16.6167
}
},
{
"Name": "Řečkovice",
"PostCode": "621 00",
"Location": {
"Latitude": 49.2667,
"Longitude": 16.5833
}
},
{
"Name": "Sadová",
"PostCode": "612 00",
"Location": {
"Latitude": 50.2833,
"Longitude": 15.7
}
},
{
"Name": "Slatina",
"PostCode": "627 00",
"Location": {
"Latitude": 48.95,
"Longitude": 13.7167
}
},
{
"Name": "Soběšice",
"PostCode": "644 00",
"Location": {
"Latitude": 49.25,
"Longitude": 16.6333
}
},
{
"Name": "Staré Brno",
"PostCode": "603 00",
"Location": {
"Latitude": 48.7667,
"Longitude": 14.7833
}
},
{
"Name": "Starý Lískovec",
"PostCode": "625 00",
"Location": {
"Latitude": 49.1333,
"Longitude": 13.9667
}
},
{
"Name": "Stránice",
"PostCode": "602 00",
"Location": {
"Latitude": 48.7667,
"Longitude": 14.7833
}
},
{
"Name": "Štýřice",
"PostCode": "639 00",
"Location": {
"Latitude": 49.1417,
"Longitude": 16.3667
}
},
{
"Name": "Trnitá",
"PostCode": "602 00",
"Location": {
"Latitude": 48.7667,
"Longitude": 14.7833
}
},
{
"Name": "Tuřany",
"PostCode": "620 00",
"Location": {
"Latitude": 49.15,
"Longitude": 16.6667
}
},
{
"Name": "Útěchov",
"PostCode": "644 00",
"Location": {
"Latitude": 49.2833,
"Longitude": 16.6333
}
},
{
"Name": "Veveří",
"PostCode": "602 00",
"Location": {
"Latitude": 48.7667,
"Longitude": 14.7833
}
},
{
"Name": "Vinohrady",
"PostCode": "628 00",
"Location": {
"Latitude": 50.0667,
"Longitude": 14.4667
}
},
{
"Name": "Žabovřesky",
"PostCode": "616 00",
"Location": {
"Latitude": 49.0,
"Longitude": 14.3333
}
},
{
"Name": "Zábrdovice",
"PostCode": "615 00",
"Location": {
"Latitude": 49.0167,
"Longitude": 16.3667
}
},
{
"Name": "Žebětín",
"PostCode": "641 00",
"Location": {
"Latitude": 49.2,
"Longitude": 16.4833
}
},
{
"Name": "Židenice",
"PostCode": "615 00",
"Location": {
"Latitude": 49.0167,
"Longitude": 16.3667
}
},
{
"Name": "Židenice",
"PostCode": "636 00",
"Location": {
"Latitude": 49.1417,
"Longitude": 16.3667
}
}
]
}
]
},
{
"Name": "Brno-venkov",
"Code": "3703",
"Communities": [
{
"Places": [
{
"Name": "Alexovice",
"PostCode": "664 91",
"Location": {
"Latitude": 49.0833,
"Longitude": 16.35
}
},
{
"Name": "Babice nad Svitavou",
"PostCode": "664 01",
"Location": {
"Latitude": 49.2833,
"Longitude": 16.7
}
},
{
"Name": "Babice u Rosic",
"PostCode": "664 84",
"Location": {
"Latitude": 49.2042,
"Longitude": 16.3
}
},
{
"Name": "Bedřichovice",
"PostCode": "664 51",
"Location": {
"Latitude": 49.1833,
"Longitude": 16.7167
}
},
{
"Name": "Bílovice nad Svitavou",
"PostCode": "664 01",
"Location": {
"Latitude": 49.25,
"Longitude": 16.6667
}
},
{
"Name": "Biskoupky",
"PostCode": "664 12",
"Location": {
"Latitude": 49.1,
"Longitude": 16.2833
}
},
{
"Name": "Blažovice",
"PostCode": "664 08",
"Location": {
"Latitude": 49.1667,
"Longitude": 16.7833
}
},
{
"Name": "Blučina",
"PostCode": "664 56",
"Location": {
"Latitude": 49.0667,
"Longitude": 16.65
}
},
{
"Name": "Braníškov",
"PostCode": "664 71",
"Location": {
"Latitude": 49.3,
"Longitude": 16.35
}
},
{
"Name": "Bratčice",
"PostCode": "664 67",
"Location": {
"Latitude": 49.0667,
"Longitude": 16.5333
}
},
{
"Name": "Březina",
"PostCode": "666 01",
"Location": {
"Latitude": 49.3167,
"Longitude": 16.4167
}
},
{
"Name": "Budkovice",
"PostCode": "664 91",
"Location": {
"Latitude": 49.0667,
"Longitude": 16.35
}
},
{
"Name": "Čebín",
"PostCode": "664 23",
"Location": {
"Latitude": 49.3167,
"Longitude": 16.4833
}
},
{
"Name": "Česká",
"PostCode": "664 31",
"Location": {
"Latitude": 49.2833,
"Longitude": 16.5667
}
},
{
"Name": "Chudčice",
"PostCode": "664 71",
"Location": {
"Latitude": 49.3,
"Longitude": 16.4667
}
},
{
"Name": "Čížky",
"PostCode": "666 01",
"Location": {
"Latitude": 49.3333,
"Longitude": 16.3667
}
},
{
"Name": "Čučice",
"PostCode": "664 12",
"Location": {
"Latitude": 49.1333,
"Longitude": 16.2833
}
},
{
"Name": "Deblín",
"PostCode": "664 75",
"Location": {
"Latitude": 49.3167,
"Longitude": 16.35
}
},
{
"Name": "Dolní Kounice",
"PostCode": "664 64",
"Location": {
"Latitude": 49.0667,
"Longitude": 16.4667
}
},
{
"Name": "Domašov",
"PostCode": "664 83",
"Location": {
"Latitude": 49.25,
"Longitude": 16.3333
}
},
{
"Name": "Drásov",
"PostCode": "664 24",
"Location": {
"Latitude": 49.3333,
"Longitude": 16.4833
}
},
{
"Name": "Hajánky",
"PostCode": "666 01",
"Location": {
"Latitude": 49.3667,
"Longitude": 16.4667
}
},
{
"Name": "Hajany",
"PostCode": "664 43",
"Location": {
"Latitude": 49.1,
"Longitude": 16.5667
}
},
{
"Name": "Hájek",
"PostCode": "666 01",
"Location": {
"Latitude": 49.3667,
"Longitude": 16.4833
}
},
{
"Name": "Heroltice",
"PostCode": "666 01",
"Location": {
"Latitude": 49.3167,
"Longitude": 16.4167
}
},
{
"Name": "Hlína",
"PostCode": "664 91",
"Location": {
"Latitude": 49.1167,
"Longitude": 16.4333
}
},
{
"Name": "Holasice",
"PostCode": "664 61",
"Location": {
"Latitude": 49.0667,
"Longitude": 16.6167
}
},
{
"Name": "Holasice",
"PostCode": "664 71",
"Location": {
"Latitude": 49.2833,
"Longitude": 16.4
}
},
{
"Name": "Horákov",
"PostCode": "664 04",
"Location": {
"Latitude": 49.2167,
"Longitude": 16.75
}
},
{
"Name": "Hostěnice",
"PostCode": "664 02",
"Location": {
"Latitude": 49.2333,
"Longitude": 16.7833
}
},
{
"Name": "Hradčany",
"PostCode": "666 03",
"Location": {
"Latitude": 49.3333,
"Longitude": 16.45
}
},
{
"Name": "Hrubšice",
"PostCode": "664 91",
"Location": {
"Latitude": 49.0833,
"Longitude": 16.3
}
},
{
"Name": "Hrušovany u Brna",
"PostCode": "664 62",
"Location": {
"Latitude": 49.05,
"Longitude": 16.6
}
},
{
"Name": "Hvozdec",
"PostCode": "664 71",
"Location": {
"Latitude": 49.25,
"Longitude": 16.4333
}
},
{
"Name": "Ivančice",
"PostCode": "664 91",
"Location": {
"Latitude": 49.1,
"Longitude": 16.3833
}
},
{
"Name": "Jamné",
"PostCode": "666 01",
"Location": {
"Latitude": 49.3833,
"Longitude": 16.4667
}
},
{
"Name": "Javůrek",
"PostCode": "664 83",
"Location": {
"Latitude": 49.25,
"Longitude": 16.3667
}
},
{
"Name": "Jinačovice",
"PostCode": "664 34",
"Location": {
"Latitude": 49.2667,
"Longitude": 16.5333
}
},
{
"Name": "Jiříkovice",
"PostCode": "664 51",
"Location": {
"Latitude": 49.1667,
"Longitude": 16.7667
}
},
{
"Name": "Kanice",
"PostCode": "664 01",
"Location": {
"Latitude": 49.2667,
"Longitude": 16.7167
}
},
{
"Name": "Ketkovice",
"PostCode": "664 12",
"Location": {
"Latitude": 49.15,
"Longitude": 16.2667
}
},
{
"Name": "Kobylnice",
"PostCode": "664 51",
"Location": {
"Latitude": 49.1333,
"Longitude": 16.7333
}
},
{
"Name": "Kovalovice",
"PostCode": "664 06",
"Location": {
"Latitude": 49.2,
"Longitude": 16.8167
}
},
{
"Name": "Kratochvilka",
"PostCode": "664 91",
"Location": {
"Latitude": 49.15,
"Longitude": 16.3833
}
},
{
"Name": "Kupařovice",
"PostCode": "664 64",
"Location": {
"Latitude": 49.05,
"Longitude": 16.5
}
},
{
"Name": "Kuřim",
"PostCode": "664 34",
"Location": {
"Latitude": 49.3,
"Longitude": 16.5333
}
},
{
"Name": "Kývalka",
"PostCode": "665 01",
"Location": {
"Latitude": 49.3333,
"Longitude": 15.6167
}
},
{
"Name": "Lažánky",
"PostCode": "664 71",
"Location": {
"Latitude": 49.35,
"Longitude": 16.7167
}
},
{
"Name": "Ledce",
"PostCode": "664 62",
"Location": {
"Latitude": 49.05,
"Longitude": 16.5667
}
},
{
"Name": "Lelekovice",
"PostCode": "664 31",
"Location": {
"Latitude": 49.3,
"Longitude": 16.5833
}
},
{
"Name": "Lesní Hluboké",
"PostCode": "664 83",
"Location": {
"Latitude": 49.2167,
"Longitude": 16.2333
}
},
{
"Name": "Letkovice",
"PostCode": "664 91",
"Location": {
"Latitude": 49.1,
"Longitude": 16.35
}
},
{
"Name": "Lhotky",
"PostCode": "664 02",
"Location": {
"Latitude": 49.35,
"Longitude": 16.0667
}
},
{
"Name": "Litostrov",
"PostCode": "664 83",
"Location": {
"Latitude": 49.2333,
"Longitude": 16.3333
}
},
{
"Name": "Lomnička",
"PostCode": "666 01",
"Location": {
"Latitude": 49.3667,
"Longitude": 16.4333
}
},
{
"Name": "Lukovany",
"PostCode": "664 84",
"Location": {
"Latitude": 49.1667,
"Longitude": 16.2833
}
},
{
"Name": "Malešovice",
"PostCode": "664 65",
"Location": {
"Latitude": 49.0167,
"Longitude": 16.5
}
},
{
"Name": "Malhostovice",
"PostCode": "666 03",
"Location": {
"Latitude": 49.3333,
"Longitude": 16.5
}
},
{
"Name": "Maršov",
"PostCode": "664 71",
"Location": {
"Latitude": 49.2833,
"Longitude": 16.3667
}
},
{
"Name": "Medlov",
"PostCode": "664 66",
"Location": {
"Latitude": 49.0333,
"Longitude": 16.5333
}
},
{
"Name": "Mělčany",
"PostCode": "664 64",
"Location": {
"Latitude": 49.0667,
"Longitude": 16.5
}
},
{
"Name": "Měnín",
"PostCode": "664 57",
"Location": {
"Latitude": 49.0833,
"Longitude": 16.7167
}
},
{
"Name": "Modřice",
"PostCode": "664 42",
"Location": {
"Latitude": 49.1333,
"Longitude": 16.6167
}
},
{
"Name": "Mokrá",
"PostCode": "664 04",
"Location": {
"Latitude": 49.2333,
"Longitude": 16.75
}
},
{
"Name": "Mokrá-Horákov",
"PostCode": "664 04",
"Location": {
"Latitude": 49.225,
"Longitude": 16.75
}
},
{
"Name": "Moravany",
"PostCode": "664 48",
"Location": {
"Latitude": 49.15,
"Longitude": 16.5833
}
},
{
"Name": "Moravské Bránice",
"PostCode": "664 64",
"Location": {
"Latitude": 49.0833,
"Longitude": 16.45
}
},
{
"Name": "Moravské Knínice",
"PostCode": "664 34",
"Location": {
"Latitude": 49.3,
"Longitude": 16.5
}
},
{
"Name": "Moutnice",
"PostCode": "664 55",
"Location": {
"Latitude": 49.05,
"Longitude": 16.7333
}
},
{
"Name": "Nebovidy",
"PostCode": "664 48",
"Location": {
"Latitude": 49.1333,
"Longitude": 16.55
}
},
{
"Name": "Nelepeč",
"PostCode": "666 01",
"Location": {
"Latitude": 49.3333,
"Longitude": 16.3833
}
},
{
"Name": "Němčice",
"PostCode": "664 91",
"Location": {
"Latitude": 49.1,
"Longitude": 16.3667
}
},
{
"Name": "Němčičky",
"PostCode": "664 66",
"Location": {
"Latitude": 49.05,
"Longitude": 16.5
}
},
{
"Name": "Neslovice",
"PostCode": "664 91",
"Location": {
"Latitude": 49.15,
"Longitude": 16.3833
}
},
{
"Name": "Nesvačilka",
"PostCode": "664 54",
"Location": {
"Latitude": 49.0667,
"Longitude": 16.75
}
},
{
"Name": "Nová Ves",
"PostCode": "664 12",
"Location": {
"Latitude": 49.13,
"Longitude": 16.3033
}
},
{
"Name": "Nové Bránice",
"PostCode": "664 64",
"Location": {
"Latitude": 49.0667,
"Longitude": 16.45
}
},
{
"Name": "Nuzířov",
"PostCode": "666 03",
"Location": {
"Latitude": 49.3333,
"Longitude": 16.5167
}
},
{
"Name": "Ochoz u Brna",
"PostCode": "664 02",
"Location": {
"Latitude": 49.2917,
"Longitude": 16.425
}
},
{
"Name": "Odrovice",
"PostCode": "664 64",
"Location": {
"Latitude": 49.0167,
"Longitude": 16.5167
}
},
{
"Name": "Omice",
"PostCode": "664 41",
"Location": {
"Latitude": 49.1667,
"Longitude": 16.45
}
},
{
"Name": "Opatovice",
"PostCode": "664 61",
"Location": {
"Latitude": 49.0667,
"Longitude": 16.65
}
},
{
"Name": "Ořechov",
"PostCode": "664 44",
"Location": {
"Latitude": 49.1167,
"Longitude": 16.5333
}
},
{
"Name": "Oslavany",
"PostCode": "664 12",
"Location": {
"Latitude": 49.1333,
"Longitude": 16.3333
}
},
{
"Name": "Ostopovice",
"PostCode": "664 49",
"Location": {
"Latitude": 49.1667,
"Longitude": 16.55
}
},
{
"Name": "Ostrovačice",
"PostCode": "664 81",
"Location": {
"Latitude": 49.2167,
"Longitude": 16.4167
}
},
{
"Name": "Otmarov",
"PostCode": "664 57",
"Location": {
"Latitude": 49.1,
"Longitude": 16.6833
}
},
{
"Name": "Padochov",
"PostCode": "664 12",
"Location": {
"Latitude": 49.1333,
"Longitude": 16.35
}
},
{
"Name": "Pejškov",
"PostCode": "666 01",
"Location": {
"Latitude": 49.3167,
"Longitude": 16.3833
}
},
{
"Name": "Podolí",
"PostCode": "664 03",
"Location": {
"Latitude": 49.1833,
"Longitude": 16.7333
}
},
{
"Name": "Ponětovice",
"PostCode": "664 51",
"Location": {
"Latitude": 49.15,
"Longitude": 16.75
}
},
{
"Name": "Popovice",
"PostCode": "664 61",
"Location": {
"Latitude": 49.1,
"Longitude": 16.6167
}
},
{
"Name": "Popůvky",
"PostCode": "664 41",
"Location": {
"Latitude": 49.1833,
"Longitude": 16.4833
}
},
{
"Name": "Pozořice",
"PostCode": "664 07",
"Location": {
"Latitude": 49.2,
"Longitude": 16.7833
}
},
{
"Name": "Prace",
"PostCode": "664 58",
"Location": {
"Latitude": 49.1333,
"Longitude": 16.7667
}
},
{
"Name": "Pravlov",
"PostCode": "664 64",
"Location": {
"Latitude": 49.05,
"Longitude": 16.4833
}
},
{
"Name": "Předklášteří",
"PostCode": "666 02",
"Location": {
"Latitude": 49.35,
"Longitude": 16.4
}
},
{
"Name": "Příbram",
"PostCode": "664 84",
"Location": {
"Latitude": 49.2,
"Longitude": 16.3
}
},
{
"Name": "Přibyslavice",
"PostCode": "664 83",
"Location": {
"Latitude": 49.2833,
"Longitude": 16.2667
}
},
{
"Name": "Přísnotice",
"PostCode": "664 63",
"Location": {
"Latitude": 49.0,
"Longitude": 16.6167
}
},
{
"Name": "Prštice",
"PostCode": "664 46",
"Location": {
"Latitude": 49.1167,
"Longitude": 16.4833
}
},
{
"Name": "Radoškov",
"PostCode": "664 83",
"Location": {
"Latitude": 49.2833,
"Longitude": 16.3
}
},
{
"Name": "Radostice",
"PostCode": "664 46",
"Location": {
"Latitude": 49.1333,
"Longitude": 16.4833
}
},
{
"Name": "Rajhrad",
"PostCode": "664 61",
"Location": {
"Latitude": 49.0833,
"Longitude": 16.6
}
},
{
"Name": "Rajhradice",
"PostCode": "664 61",
"Location": {
"Latitude": 49.0833,
"Longitude": 16.6333
}
},
{
"Name": "Rebešovice",
"PostCode": "664 61",
"Location": {
"Latitude": 49.1,
"Longitude": 16.6333
}
},
{
"Name": "Řeznovice",
"PostCode": "664 91",
"Location": {
"Latitude": 49.0833,
"Longitude": 16.3167
}
},
{
"Name": "Říčany",
"PostCode": "664 82",
"Location": {
"Latitude": 49.2167,
"Longitude": 16.3833
}
},
{
"Name": "Říčky",
"PostCode": "664 83",
"Location": {
"Latitude": 49.2333,
"Longitude": 16.35
}
},
{
"Name": "Řícmanice",
"PostCode": "664 01",
"Location": {
"Latitude": 49.2667,
"Longitude": 16.7
}
},
{
"Name": "Rosice",
"PostCode": "665 01",
"Location": {
"Latitude": 49.3333,
"Longitude": 15.6167
}
},
{
"Name": "Rozdrojovice",
"PostCode": "664 34",
"Location": {
"Latitude": 49.25,
"Longitude": 16.5167
}
},
{
"Name": "Rudka",
"PostCode": "664 83",
"Location": {
"Latitude": 49.2333,
"Longitude": 16.3333
}
},
{
"Name": "Sentice",
"PostCode": "666 03",
"Location": {
"Latitude": 49.3167,
"Longitude": 16.45
}
},
{
"Name": "Šerkovice",
"PostCode": "666 01",
"Location": {
"Latitude": 49.3833,
"Longitude": 16.4333
}
},
{
"Name": "Silůvky",
"PostCode": "664 46",
"Location": {
"Latitude": 49.1,
"Longitude": 16.4667
}
},
{
"Name": "Sivice",
"PostCode": "664 07",
"Location": {
"Latitude": 49.2,
"Longitude": 16.7833
}
},
{
"Name": "Skalička",
"PostCode": "666 03",
"Location": {
"Latitude": 49.35,
"Longitude": 16.5167
}
},
{
"Name": "Šlapanice",
"PostCode": "664 51",
"Location": {
"Latitude": 49.1667,
"Longitude": 16.7333
}
},
{
"Name": "Sobotovice",
"PostCode": "664 67",
"Location": {
"Latitude": 49.0667,
"Longitude": 16.55
}
},
{
"Name": "Sokolnice",
"PostCode": "664 52",
"Location": {
"Latitude": 49.1167,
"Longitude": 16.7333
}
},
{
"Name": "Stanoviště",
"PostCode": "664 84",
"Location": {
"Latitude": 49.25,
"Longitude": 16.25
}
},
{
"Name": "Štěpánovice",
"PostCode": "666 02",
"Location": {
"Latitude": 49.3667,
"Longitude": 16.3833
}
},
{
"Name": "Střelice",
"PostCode": "664 47",
"Location": {
"Latitude": 49.15,
"Longitude": 16.5
}
},
{
"Name": "Svatoslav",
"PostCode": "666 01",
"Location": {
"Latitude": 49.3,
"Longitude": 16.3167
}
},
{
"Name": "Syrovice",
"PostCode": "664 67",
"Location": {
"Latitude": 49.0833,
"Longitude": 16.55
}
},
{
"Name": "Telnice",
"PostCode": "664 59",
"Location": {
"Latitude": 49.1,
"Longitude": 16.7333
}
},
{
"Name": "Těšany",
"PostCode": "664 54",
"Location": {
"Latitude": 49.05,
"Longitude": 16.7667
}
},
{
"Name": "Tetčice",
"PostCode": "664 17",
"Location": {
"Latitude": 49.1667,
"Longitude": 16.3833
}
},
{
"Name": "Tišnov",
"PostCode": "666 01",
"Location": {
"Latitude": 49.35,
"Longitude": 16.4333
}
},
{
"Name": "Trboušany",
"PostCode": "664 64",
"Location": {
"Latitude": 49.05,
"Longitude": 16.4667
}
},
{
"Name": "Troubsko",
"PostCode": "664 41",
"Location": {
"Latitude": 49.1667,
"Longitude": 16.5167
}
},
{
"Name": "Tvarožná",
"PostCode": "664 05",
"Location": {
"Latitude": 49.2,
"Longitude": 16.7667
}
},
{
"Name": "Újezd u Brna",
"PostCode": "664 53",
"Location": {
"Latitude": 49.0833,
"Longitude": 16.7333
}
},
{
"Name": "Újezd u Rosic",
"PostCode": "664 84",
"Location": {
"Latitude": 49.2042,
"Longitude": 16.3
}
},
{
"Name": "Unkovice",
"PostCode": "664 63",
"Location": {
"Latitude": 49.0333,
"Longitude": 16.6167
}
},
{
"Name": "Úsuší",
"PostCode": "666 01",
"Location": {
"Latitude": 49.3333,
"Longitude": 16.35
}
},
{
"Name": "Velatice",
"PostCode": "664 05",
"Location": {
"Latitude": 49.2,
"Longitude": 16.75
}
},
{
"Name": "Veverská Bítýška",
"PostCode": "664 71",
"Location": {
"Latitude": 49.2667,
"Longitude": 16.4333
}
},
{
"Name": "Veverské Knínice",
"PostCode": "664 81",
"Location": {
"Latitude": 49.2333,
"Longitude": 16.4167
}
},
{
"Name": "Viničné Šumice",
"PostCode": "664 06",
"Location": {
"Latitude": 49.2167,
"Longitude": 16.8167
}
},
{
"Name": "Vohančice",
"PostCode": "666 01",
"Location": {
"Latitude": 49.3167,
"Longitude": 16.4
}
},
{
"Name": "Vojkovice",
"PostCode": "667 01",
"Location": {
"Latitude": 49.05,
"Longitude": 16.6167
}
},
{
"Name": "Vranov",
"PostCode": "664 32",
"Location": {
"Latitude": 49.3167,
"Longitude": 16.6167
}
},
{
"Name": "Všechovice",
"PostCode": "666 03",
"Location": {
"Latitude": 49.3667,
"Longitude": 16.4833
}
},
{
"Name": "Vysoké Popovice",
"PostCode": "664 84",
"Location": {
"Latitude": 49.1833,
"Longitude": 16.2833
}
},
{
"Name": "Žabčice",
"PostCode": "664 63",
"Location": {
"Latitude": 49.0167,
"Longitude": 16.6
}
},
{
"Name": "Zakřany",
"PostCode": "664 84",
"Location": {
"Latitude": 49.1667,
"Longitude": 16.3333
}
},
{
"Name": "Zálesná Zhoř",
"PostCode": "664 84",
"Location": {
"Latitude": 49.25,
"Longitude": 16.2833
}
},
{
"Name": "Zastávka",
"PostCode": "664 84",
"Location": {
"Latitude": 49.2,
"Longitude": 16.3667
}
},
{
"Name": "Žatčany",
"PostCode": "664 53",
"Location": {
"Latitude": 49.0833,
"Longitude": 16.7333
}
},
{
"Name": "Závist",
"PostCode": "666 01",
"Location": {
"Latitude": 49.3667,
"Longitude": 16.5667
}
},
{
"Name": "Zbraslav",
"PostCode": "664 84",
"Location": {
"Latitude": 49.2167,
"Longitude": 16.3
}
},
{
"Name": "Zbýšov",
"PostCode": "664 11",
"Location": {
"Latitude": 49.15,
"Longitude": 16.35
}
},
{
"Name": "Želešice",
"PostCode": "664 43",
"Location": {
"Latitude": 49.1167,
"Longitude": 16.5833
}
},
{
"Name": "Železné",
"PostCode": "666 01",
"Location": {
"Latitude": 49.3667,
"Longitude": 16.45
}
},
{
"Name": "Žernůvka",
"PostCode": "666 01",
"Location": {
"Latitude": 49.3333,
"Longitude": 16.3833
}
},
{
"Name": "Židlochovice",
"PostCode": "667 01",
"Location": {
"Latitude": 49.0333,
"Longitude": 16.6167
}
}
]
}
]
},
{
"Name": "Břeclav",
"Code": "3704",
"Communities": [
{
"Places": [
{
"Name": "Bavory",
"PostCode": "692 01",
"Location": {
"Latitude": 48.8333,
"Longitude": 16.6167
}
},
{
"Name": "Bohumilice",
"PostCode": "691 72",
"Location": {
"Latitude": 49.0167,
"Longitude": 16.9
}
},
{
"Name": "Boleradice",
"PostCode": "691 12",
"Location": {
"Latitude": 48.9667,
"Longitude": 16.8167
}
},
{
"Name": "Bořetice",
"PostCode": "691 08",
"Location": {
"Latitude": 48.9167,
"Longitude": 16.85
}
},
{
"Name": "Borkovany",
"PostCode": "691 75",
"Location": {
"Latitude": 49.0333,
"Longitude": 16.8167
}
},
{
"Name": "Břeclav",
"PostCode": "690 02",
"Location": {
"Latitude": 48.7667,
"Longitude": 16.85
}
},
{
"Name": "Břeclav (Stará Břeclav)",
"PostCode": "690 03",
"Location": {
"Latitude": 48.7667,
"Longitude": 16.85
}
},
{
"Name": "Březí",
"PostCode": "691 81",
"Location": {
"Latitude": 48.8167,
"Longitude": 16.5667
}
},
{
"Name": "Brod nad Dyjí",
"PostCode": "692 01",
"Location": {
"Latitude": 48.8833,
"Longitude": 16.5333
}
},
{
"Name": "Brumovice",
"PostCode": "691 11",
"Location": {
"Latitude": 48.95,
"Longitude": 16.8833
}
},
{
"Name": "Bulhary",
"PostCode": "691 89",
"Location": {
"Latitude": 48.8333,
"Longitude": 16.75
}
},
{
"Name": "Charvátská Nová Ves",
"PostCode": "690 06",
"Location": {
"Latitude": 48.7667,
"Longitude": 16.85
}
},
{
"Name": "Cvrčovice",
"PostCode": "691 23",
"Location": {
"Latitude": 48.9833,
"Longitude": 16.5167
}
},
{
"Name": "Diváky",
"PostCode": "691 71",
"Location": {
"Latitude": 48.9833,
"Longitude": 16.7833
}
},
{
"Name": "Dobré Pole",
"PostCode": "691 81",
"Location": {
"Latitude": 48.8167,
"Longitude": 16.5333
}
},
{
"Name": "Dolní Dunajovice",
"PostCode": "691 85",
"Location": {
"Latitude": 48.85,
"Longitude": 16.6
}
},
{
"Name": "Dolní Věstonice",
"PostCode": "691 29",
"Location": {
"Latitude": 48.8833,
"Longitude": 16.65
}
},
{
"Name": "Drnholec",
"PostCode": "691 83",
"Location": {
"Latitude": 48.85,
"Longitude": 16.5
}
},
{
"Name": "Hlohovec",
"PostCode": "691 43",
"Location": {
"Latitude": 48.7833,
"Longitude": 16.7667
}
},
{
"Name": "Horní Bojanovice",
"PostCode": "693 01",
"Location": {
"Latitude": 48.95,
"Longitude": 16.8
}
},
{
"Name": "Horní Věstonice",
"PostCode": "692 01",
"Location": {
"Latitude": 48.8667,
"Longitude": 16.6333
}
},
{
"Name": "Hrušky",
"PostCode": "691 56",
"Location": {
"Latitude": 48.7833,
"Longitude": 16.9833
}
},
{
"Name": "Hustopeče",
"PostCode": "693 01",
"Location": {
"Latitude": 48.9333,
"Longitude": 16.7333
}
},
{
"Name": "Ivaň",
"PostCode": "691 23",
"Location": {
"Latitude": 48.9167,
"Longitude": 16.5833
}
},
{
"Name": "Jevišovka",
"PostCode": "691 83",
"Location": {
"Latitude": 48.8333,
"Longitude": 16.4667
}
},
{
"Name": "Kašnice",
"PostCode": "691 72",
"Location": {
"Latitude": 49.0,
"Longitude": 16.8833
}
},
{
"Name": "Klentnice",
"PostCode": "692 01",
"Location": {
"Latitude": 48.85,
"Longitude": 16.65
}
},
{
"Name": "Klobouky u Brna",
"PostCode": "691 72",
"Location": {
"Latitude": 48.9944,
"Longitude": 16.8833
}
},
{
"Name": "Kobylí",
"PostCode": "691 10",
"Location": {
"Latitude": 48.9333,
"Longitude": 16.9
}
},
{
"Name": "Kostice",
"PostCode": "691 52",
"Location": {
"Latitude": 48.75,
"Longitude": 16.9833
}
},
{
"Name": "Křepice",
"PostCode": "691 65",
"Location": {
"Latitude": 49.0,
"Longitude": 16.7167
}
},
{
"Name": "Krumvíř",
"PostCode": "691 73",
"Location": {
"Latitude": 48.9833,
"Longitude": 16.9167
}
},
{
"Name": "Kurdějov",
"PostCode": "693 01",
"Location": {
"Latitude": 48.95,
"Longitude": 16.7667
}
},
{
"Name": "Ladná",
"PostCode": "691 46",
"Location": {
"Latitude": 48.8,
"Longitude": 16.8667
}
},
{
"Name": "Lanžhot",
"PostCode": "691 51",
"Location": {
"Latitude": 48.7333,
"Longitude": 16.9667
}
},
{
"Name": "Lednice",
"PostCode": "691 44",
"Location": {
"Latitude": 48.8,
"Longitude": 16.8
}
},
{
"Name": "Mikulov",
"PostCode": "692 01",
"Location": {
"Latitude": 48.8,
"Longitude": 16.6333
}
},
{
"Name": "Milovice",
"PostCode": "691 88",
"Location": {
"Latitude": 48.85,
"Longitude": 16.7
}
},
{
"Name": "Moravská Nová Ves",
"PostCode": "691 55",
"Location": {
"Latitude": 48.8,
"Longitude": 17.0167
}
},
{
"Name": "Moravský Žižkov",
"PostCode": "691 01",
"Location": {
"Latitude": 48.8333,
"Longitude": 16.9333
}
},
{
"Name": "Morkůvky",
"PostCode": "691 72",
"Location": {
"Latitude": 48.9667,
"Longitude": 16.8667
}
},
{
"Name": "Nejdek",
"PostCode": "691 44",
"Location": {
"Latitude": 48.8167,
"Longitude": 16.7667
}
},
{
"Name": "Němčičky",
"PostCode": "691 07",
"Location": {
"Latitude": 48.9333,
"Longitude": 16.8167
}
},
{
"Name": "Nikolčice",
"PostCode": "693 01",
"Location": {
"Latitude": 48.9833,
"Longitude": 16.75
}
},
{
"Name": "Nosislav",
"PostCode": "691 64",
"Location": {
"Latitude": 49.0167,
"Longitude": 16.6667
}
},
{
"Name": "Nová Ves",
"PostCode": "691 23",
"Location": {
"Latitude": 48.9708,
"Longitude": 16.5375
}
},
{
"Name": "Nové Mlýny",
"PostCode": "692 01",
"Location": {
"Latitude": 48.8667,
"Longitude": 16.7333
}
},
{
"Name": "Novosedly",
"PostCode": "691 82",
"Location": {
"Latitude": 48.8333,
"Longitude": 16.5
}
},
{
"Name": "Nový Přerov",
"PostCode": "691 82",
"Location": {
"Latitude": 48.8167,
"Longitude": 16.5
}
},
{
"Name": "Pasohlávky",
"PostCode": "691 22",
"Location": {
"Latitude": 48.9,
"Longitude": 16.55
}
},
{
"Name": "Pavlov",
"PostCode": "692 01",
"Location": {
"Latitude": 48.8667,
"Longitude": 16.6667
}
},
{
"Name": "Perná",
"PostCode": "691 86",
"Location": {
"Latitude": 48.85,
"Longitude": 16.6333
}
},
{
"Name": "Podivín",
"PostCode": "691 45",
"Location": {
"Latitude": 48.8333,
"Longitude": 16.85
}
},
{
"Name": "Pohořelice",
"PostCode": "691 23",
"Location": {
"Latitude": 48.9833,
"Longitude": 16.5167
}
},
{
"Name": "Popice",
"PostCode": "691 27",
"Location": {
"Latitude": 48.9333,
"Longitude": 16.6667
}
},
{
"Name": "Poštorná",
"PostCode": "691 41",
"Location": {
"Latitude": 48.75,
"Longitude": 16.8667
}
},
{
"Name": "Pouzdřany",
"PostCode": "691 26",
"Location": {
"Latitude": 48.9333,
"Longitude": 16.6167
}
},
{
"Name": "Přibice",
"PostCode": "691 24",
"Location": {
"Latitude": 48.9667,
"Longitude": 16.5833
}
},
{
"Name": "Přítluky",
"PostCode": "691 04",
"Location": {
"Latitude": 48.85,
"Longitude": 16.7667
}
},
{
"Name": "Rakvice",
"PostCode": "691 03",
"Location": {
"Latitude": 48.85,
"Longitude": 16.8167
}
},
{
"Name": "Šakvice",
"PostCode": "691 67",
"Location": {
"Latitude": 48.9,
"Longitude": 16.7
}
},
{
"Name": "Sedlec",
"PostCode": "691 21",
"Location": {
"Latitude": 48.7833,
"Longitude": 16.7
}
},
{
"Name": "Šitbořice",
"PostCode": "691 76",
"Location": {
"Latitude": 49.0167,
"Longitude": 16.7833
}
},
{
"Name": "Smolín",
"PostCode": "691 23",
"Location": {
"Latitude": 49.0,
"Longitude": 16.5333
}
},
{
"Name": "Starovice",
"PostCode": "693 01",
"Location": {
"Latitude": 48.95,
"Longitude": 16.7167
}
},
{
"Name": "Starovičky",
"PostCode": "693 01",
"Location": {
"Latitude": 48.9167,
"Longitude": 16.7667
}
},
{
"Name": "Strachotín",
"PostCode": "692 01",
"Location": {
"Latitude": 48.9,
"Longitude": 16.65
}
},
{
"Name": "Tvrdonice",
"PostCode": "691 53",
"Location": {
"Latitude": 48.7667,
"Longitude": 17.0
}
},
{
"Name": "Týnec",
"PostCode": "691 54",
"Location": {
"Latitude": 48.7833,
"Longitude": 17.0167
}
},
{
"Name": "Uherčice",
"PostCode": "691 62",
"Location": {
"Latitude": 48.9667,
"Longitude": 16.6667
}
},
{
"Name": "Úvaly",
"PostCode": "691 42",
"Location": {
"Latitude": 48.7333,
"Longitude": 16.6833
}
},
{
"Name": "Valtice",
"PostCode": "691 42",
"Location": {
"Latitude": 48.75,
"Longitude": 16.75
}
},
{
"Name": "Velké Bílovice",
"PostCode": "691 02",
"Location": {
"Latitude": 48.85,
"Longitude": 16.9
}
},
{
"Name": "Velké Hostěrádky",
"PostCode": "691 74",
"Location": {
"Latitude": 49.0333,
"Longitude": 16.8667
}
},
{
"Name": "Velké Němčice",
"PostCode": "691 63",
"Location": {
"Latitude": 48.9833,
"Longitude": 16.6667
}
},
{
"Name": "Velké Pavlovice",
"PostCode": "691 06",
"Location": {
"Latitude": 48.9,
"Longitude": 16.8167
}
},
{
"Name": "Vlasatice",
"PostCode": "691 30",
"Location": {
"Latitude": 48.9333,
"Longitude": 16.4833
}
},
{
"Name": "Vranovice",
"PostCode": "691 25",
"Location": {
"Latitude": 48.9667,
"Longitude": 16.6
}
},
{
"Name": "Vrbice",
"PostCode": "691 09",
"Location": {
"Latitude": 48.9167,
"Longitude": 16.9
}
},
{
"Name": "Zaječí",
"PostCode": "691 05",
"Location": {
"Latitude": 48.8667,
"Longitude": 16.7667
}
}
]
}
]
},
{
"Name": "Hodonín",
"Code": "3706",
"Communities": [
{
"Places": [
{
"Name": "Archlebov",
"PostCode": "696 33",
"Location": {
"Latitude": 49.05,
"Longitude": 17.0167
}
},
{
"Name": "Blatnice pod Svatým Antonínkem",
"PostCode": "696 71",
"Location": {
"Latitude": 48.925,
"Longitude": 17.55
}
},
{
"Name": "Blatnička",
"PostCode": "696 71",
"Location": {
"Latitude": 48.9333,
"Longitude": 17.5333
}
},
{
"Name": "Bohuslavice",
"PostCode": "696 55",
"Location": {
"Latitude": 49.05,
"Longitude": 17.1333
}
},
{
"Name": "Boršov",
"PostCode": "697 01",
"Location": {
"Latitude": 49.0333,
"Longitude": 17.1167
}
},
{
"Name": "Bukovany",
"PostCode": "696 31",
"Location": {
"Latitude": 49.05,
"Longitude": 17.1
}
},
{
"Name": "Bzenec",
"PostCode": "696 81",
"Location": {
"Latitude": 48.9833,
"Longitude": 17.2667
}
},
{
"Name": "Čejč",
"PostCode": "696 14",
"Location": {
"Latitude": 48.9333,
"Longitude": 16.9667
}
},
{
"Name": "Čejkovice",
"PostCode": "696 15",
"Location": {
"Latitude": 48.9,
"Longitude": 16.95
}
},
{
"Name": "Čeložnice",
"PostCode": "696 51",
"Location": {
"Latitude": 49.05,
"Longitude": 17.15
}
},
{
"Name": "Dambořice",
"PostCode": "696 35",
"Location": {
"Latitude": 49.0333,
"Longitude": 16.9167
}
},
{
"Name": "Dolní Bojanovice",
"PostCode": "696 17",
"Location": {
"Latitude": 48.85,
"Longitude": 17.0167
}
},
{
"Name": "Domanín",
"PostCode": "696 83",
"Location": {
"Latitude": 49.0,
"Longitude": 17.2833
}
},
{
"Name": "Dražůvky",
"PostCode": "696 33",
"Location": {
"Latitude": 49.0333,
"Longitude": 17.0167
}
},
{
"Name": "Dubňany",
"PostCode": "696 03",
"Location": {
"Latitude": 48.9167,
"Longitude": 17.1
}
},
{
"Name": "Hodonín",
"PostCode": "695 01",
"Location": {
"Latitude": 48.8667,
"Longitude": 17.1333
}
},
{
"Name": "Hovorany",
"PostCode": "696 12",
"Location": {
"Latitude": 48.95,
"Longitude": 17.0
}
},
{
"Name": "Hroznová Lhota",
"PostCode": "696 63",
"Location": {
"Latitude": 48.9167,
"Longitude": 17.3833
}
},
{
"Name": "Hrubá Vrbka",
"PostCode": "696 73",
"Location": {
"Latitude": 48.8667,
"Longitude": 17.4833
}
},
{
"Name": "Hýsly",
"PostCode": "696 50",
"Location": {
"Latitude": 49.0333,
"Longitude": 17.1833
}
},
{
"Name": "Javorník",
"PostCode": "696 74",
"Location": {
"Latitude": 48.8667,
"Longitude": 17.5333
}
},
{
"Name": "Ježov",
"PostCode": "696 48",
"Location": {
"Latitude": 49.0333,
"Longitude": 17.2167
}
},
{
"Name": "Josefov",
"PostCode": "696 21",
"Location": {
"Latitude": 48.8333,
"Longitude": 17.0167
}
},
{
"Name": "Karlín",
"PostCode": "696 14",
"Location": {
"Latitude": 48.9667,
"Longitude": 16.9833
}
},
{
"Name": "Kelčany",
"PostCode": "696 49",
"Location": {
"Latitude": 49.0,
"Longitude": 17.1833
}
},
{
"Name": "Kněždub",
"PostCode": "696 64",
"Location": {
"Latitude": 48.8833,
"Longitude": 17.3833
}
},
{
"Name": "Kostelec",
"PostCode": "696 51",
"Location": {
"Latitude": 49.0333,
"Longitude": 17.15
}
},
{
"Name": "Kozojídky",
"PostCode": "696 63",
"Location": {
"Latitude": 48.9167,
"Longitude": 17.4
}
},
{
"Name": "Kuželov",
"PostCode": "696 73",
"Location": {
"Latitude": 48.8667,
"Longitude": 17.5
}
},
{
"Name": "Kyjov",
"PostCode": "697 01",
"Location": {
"Latitude": 49.0167,
"Longitude": 17.1167
}
},
{
"Name": "Labuty",
"PostCode": "697 01",
"Location": {
"Latitude": 49.05,
"Longitude": 17.2167
}
},
{
"Name": "Lidéřovice",
"PostCode": "696 61",
"Location": {
"Latitude": 48.9167,
"Longitude": 17.3333
}
},
{
"Name": "Lipov",
"PostCode": "696 72",
"Location": {
"Latitude": 48.9,
"Longitude": 17.45
}
},
{
"Name": "Louka",
"PostCode": "696 76",
"Location": {
"Latitude": 48.9167,
"Longitude": 17.5
}
},
{
"Name": "Lovčice",
"PostCode": "696 39",
"Location": {
"Latitude": 49.0833,
"Longitude": 17.0667
}
},
{
"Name": "Lužice",
"PostCode": "696 18",
"Location": {
"Latitude": 48.85,
"Longitude": 17.0667
}
},
{
"Name": "Malá Vrbka",
"PostCode": "696 73",
"Location": {
"Latitude": 48.8667,
"Longitude": 17.4667
}
},
{
"Name": "Mikulčice",
"PostCode": "696 19",
"Location": {
"Latitude": 48.8167,
"Longitude": 17.05
}
},
{
"Name": "Milokošť",
"PostCode": "698 01",
"Location": {
"Latitude": 48.9667,
"Longitude": 17.4
}
},
{
"Name": "Milotice",
"PostCode": "696 05",
"Location": {
"Latitude": 48.9667,
"Longitude": 17.1333
}
},
{
"Name": "Mistřín",
"PostCode": "696 04",
"Location": {
"Latitude": 48.9667,
"Longitude": 17.0833
}
},
{
"Name": "Moravany",
"PostCode": "696 50",
"Location": {
"Latitude": 49.05,
"Longitude": 17.1667
}
},
{
"Name": "Moravský Písek",
"PostCode": "696 85",
"Location": {
"Latitude": 48.9833,
"Longitude": 17.3333
}
},
{
"Name": "Mutěnice",
"PostCode": "696 11",
"Location": {
"Latitude": 48.9167,
"Longitude": 17.0167
}
},
{
"Name": "Násedlovice",
"PostCode": "696 36",
"Location": {
"Latitude": 49.0167,
"Longitude": 16.9667
}
},
{
"Name": "Nechvalín",
"PostCode": "696 31",
"Location": {
"Latitude": 49.05,
"Longitude": 17.0833
}
},
{
"Name": "Nenkovice",
"PostCode": "696 37",
"Location": {
"Latitude": 49.0,
"Longitude": 17.0
}
},
{
"Name": "Nětčice",
"PostCode": "697 01",
"Location": {
"Latitude": 49.0167,
"Longitude": 17.1333
}
},
{
"Name": "Nová Lhota",
"PostCode": "696 74",
"Location": {
"Latitude": 48.8667,
"Longitude": 17.5833
}
},
{
"Name": "Nový Poddvorov",
"PostCode": "696 16",
"Location": {
"Latitude": 48.8667,
"Longitude": 16.9667
}
},
{
"Name": "Ostrovánky",
"PostCode": "696 31",
"Location": {
"Latitude": 49.05,
"Longitude": 17.0833
}
},
{
"Name": "Petrov",
"PostCode": "696 65",
"Location": {
"Latitude": 48.8833,
"Longitude": 17.2833
}
},
{
"Name": "Prušánky",
"PostCode": "696 21",
"Location": {
"Latitude": 48.8333,
"Longitude": 16.9833
}
},
{
"Name": "Radějov",
"PostCode": "696 67",
"Location": {
"Latitude": 48.8667,
"Longitude": 17.35
}
},
{
"Name": "Ratíškovice",
"PostCode": "696 02",
"Location": {
"Latitude": 48.9333,
"Longitude": 17.1667
}
},
{
"Name": "Rohatec",
"PostCode": "696 01",
"Location": {
"Latitude": 48.9333,
"Longitude": 17.1667
}
},
{
"Name": "Šardice",
"PostCode": "696 13",
"Location": {
"Latitude": 48.9667,
"Longitude": 17.0333
}
},
{
"Name": "Silničná",
"PostCode": "696 34",
"Location": {
"Latitude": 49.05,
"Longitude": 16.9667
}
},
{
"Name": "Skalka",
"PostCode": "696 48",
"Location": {
"Latitude": 49.0333,
"Longitude": 17.2167
}
},
{
"Name": "Skoronice",
"PostCode": "696 41",
"Location": {
"Latitude": 48.9833,
"Longitude": 17.15
}
},
{
"Name": "Sobůlky",
"PostCode": "697 01",
"Location": {
"Latitude": 49.0167,
"Longitude": 17.0833
}
},
{
"Name": "Starý Poddvorov",
"PostCode": "696 16",
"Location": {
"Latitude": 48.8833,
"Longitude": 16.9833
}
},
{
"Name": "Stavěšice",
"PostCode": "696 38",
"Location": {
"Latitude": 49.0,
"Longitude": 17.0333
}
},
{
"Name": "Strážnice",
"PostCode": "696 62",
"Location": {
"Latitude": 48.9,
"Longitude": 17.3167
}
},
{
"Name": "Strážovice",
"PostCode": "696 38",
"Location": {
"Latitude": 49.0167,
"Longitude": 17.05
}
},
{
"Name": "Suchov",
"PostCode": "696 71",
"Location": {
"Latitude": 48.9167,
"Longitude": 17.5667
}
},
{
"Name": "Sudoměřice",
"PostCode": "696 66",
"Location": {
"Latitude": 48.8667,
"Longitude": 17.2667
}
},
{
"Name": "Svatobořice",
"PostCode": "696 04",
"Location": {
"Latitude": 48.9833,
"Longitude": 17.1
}
},
{
"Name": "Svatobořice-Mistřín",
"PostCode": "696 04",
"Location": {
"Latitude": 48.975,
"Longitude": 17.0917
}
},
{
"Name": "Syrovín",
"PostCode": "696 84",
"Location": {
"Latitude": 49.0333,
"Longitude": 17.2667
}
},
{
"Name": "Tasov",
"PostCode": "696 63",
"Location": {
"Latitude": 48.9,
"Longitude": 17.4333
}
},
{
"Name": "Těmice",
"PostCode": "696 84",
"Location": {
"Latitude": 49.0,
"Longitude": 17.2667
}
},
{
"Name": "Terezín",
"PostCode": "696 14",
"Location": {
"Latitude": 48.95,
"Longitude": 16.9333
}
},
{
"Name": "Těšice",
"PostCode": "696 19",
"Location": {
"Latitude": 48.8167,
"Longitude": 17.0667
}
},
{
"Name": "Tvarožná Lhota",
"PostCode": "696 64",
"Location": {
"Latitude": 48.8833,
"Longitude": 17.3667
}
},
{
"Name": "Uhřice",
"PostCode": "696 34",
"Location": {
"Latitude": 49.05,
"Longitude": 16.95
}
},
{
"Name": "Vacenovice",
"PostCode": "696 06",
"Location": {
"Latitude": 48.95,
"Longitude": 17.1833
}
},
{
"Name": "Vápenky",
"PostCode": "696 74",
"Location": {
"Latitude": 48.8667,
"Longitude": 17.6333
}
},
{
"Name": "Velká nad Veličkou",
"PostCode": "696 74",
"Location": {
"Latitude": 48.8833,
"Longitude": 17.5333
}
},
{
"Name": "Veselí nad Moravou",
"PostCode": "698 01",
"Location": {
"Latitude": 48.95,
"Longitude": 17.4
}
},
{
"Name": "Věteřov",
"PostCode": "697 01",
"Location": {
"Latitude": 49.0333,
"Longitude": 17.05
}
},
{
"Name": "Vlkoš",
"PostCode": "696 41",
"Location": {
"Latitude": 48.9833,
"Longitude": 17.1667
}
},
{
"Name": "Vnorovy",
"PostCode": "696 61",
"Location": {
"Latitude": 48.9333,
"Longitude": 17.35
}
},
{
"Name": "Vracov",
"PostCode": "696 42",
"Location": {
"Latitude": 48.9833,
"Longitude": 17.2167
}
},
{
"Name": "Vřesovice",
"PostCode": "697 01",
"Location": {
"Latitude": 49.0667,
"Longitude": 17.2167
}
},
{
"Name": "Žádovice",
"PostCode": "696 49",
"Location": {
"Latitude": 49.0167,
"Longitude": 17.2
}
},