[
{
"Name": "Hlavní město Praha",
"Code": "52",
"Provinces": [
{
"Name": "Hlavní město Praha",
"Code": "3100",
"Communities": [
{
"Places": [
{
"Name": "Běchovice",
"PostCode": "190 11",
"Location": {
"Latitude": 50.081,
"Longitude": 14.6178
}
},
{
"Name": "Benice",
"PostCode": "103 00",
"Location": {
"Latitude": 50.0129,
"Longitude": 14.6049
}
},
{
"Name": "Bohnice",
"PostCode": "181 00",
"Location": {
"Latitude": 50.1333,
"Longitude": 14.4167
}
},
{
"Name": "Braník",
"PostCode": "142 00",
"Location": {
"Latitude": 50.035,
"Longitude": 14.4152
}
},
{
"Name": "Braník",
"PostCode": "147 00",
"Location": {
"Latitude": 50.035,
"Longitude": 14.4152
}
},
{
"Name": "Břevnov",
"PostCode": "162 00",
"Location": {
"Latitude": 50.0744,
"Longitude": 14.3831
}
},
{
"Name": "Břevnov",
"PostCode": "169 00",
"Location": {
"Latitude": 50.0744,
"Longitude": 14.3831
}
},
{
"Name": "Březiněves",
"PostCode": "182 00",
"Location": {
"Latitude": 50.1663,
"Longitude": 14.4846
}
},
{
"Name": "Bubeneč",
"PostCode": "160 00",
"Location": {
"Latitude": 50.1092,
"Longitude": 14.4066
}
},
{
"Name": "Bubeneč",
"PostCode": "170 00",
"Location": {
"Latitude": 50.1092,
"Longitude": 14.4066
}
},
{
"Name": "Čakovice",
"PostCode": "196 00",
"Location": {
"Latitude": 50.1513,
"Longitude": 14.5239
}
},
{
"Name": "Černý Most",
"PostCode": "198 00",
"Location": {
"Latitude": 50.1048,
"Longitude": 14.5797
}
},
{
"Name": "Chodov",
"PostCode": "141 00",
"Location": {
"Latitude": 50.0367,
"Longitude": 14.5044
}
},
{
"Name": "Chodov",
"PostCode": "148 00",
"Location": {
"Latitude": 50.0367,
"Longitude": 14.5044
}
},
{
"Name": "Chodov",
"PostCode": "149 00",
"Location": {
"Latitude": 50.0367,
"Longitude": 14.5044
}
},
{
"Name": "Cholupice",
"PostCode": "143 00",
"Location": {
"Latitude": 49.9873,
"Longitude": 14.4479
}
},
{
"Name": "Čimice",
"PostCode": "181 00",
"Location": {
"Latitude": 50.1376,
"Longitude": 14.4328
}
},
{
"Name": "Ďáblice",
"PostCode": "182 00",
"Location": {
"Latitude": 50.1437,
"Longitude": 14.4838
}
},
{
"Name": "Dejvice",
"PostCode": "160 00",
"Location": {
"Latitude": 50.1008,
"Longitude": 14.3907
}
},
{
"Name": "Dolní Chabry",
"PostCode": "184 00",
"Location": {
"Latitude": 50.1463,
"Longitude": 14.4485
}
},
{
"Name": "Dolní Měcholupy",
"PostCode": "109 00",
"Location": {
"Latitude": 50.0604,
"Longitude": 14.5573
}
},
{
"Name": "Dolní Počernice",
"PostCode": "190 12",
"Location": {
"Latitude": 50.0876,
"Longitude": 14.572
}
},
{
"Name": "Dubeč",
"PostCode": "107 00",
"Location": {
"Latitude": 50.0625,
"Longitude": 14.5941
}
},
{
"Name": "Háje",
"PostCode": "149 00",
"Location": {
"Latitude": 50.0361,
"Longitude": 14.5267
}
},
{
"Name": "Hájek",
"PostCode": "104 00",
"Location": {
"Latitude": 50.0511,
"Longitude": 14.6281
}
},
{
"Name": "Hloubětín",
"PostCode": "198 00",
"Location": {
"Latitude": 50.1062,
"Longitude": 14.5372
}
},
{
"Name": "Hlubočepy",
"PostCode": "152 00",
"Location": {
"Latitude": 50.0436,
"Longitude": 14.4016
}
},
{
"Name": "Hodkovičky",
"PostCode": "147 00",
"Location": {
"Latitude": 50.0235,
"Longitude": 14.4141
}
},
{
"Name": "Holešovice",
"PostCode": "118 00",
"Location": {
"Latitude": 50.1047,
"Longitude": 14.4495
}
},
{
"Name": "Holešovice",
"PostCode": "170 00",
"Location": {
"Latitude": 50.1047,
"Longitude": 14.4495
}
},
{
"Name": "Holyně",
"PostCode": "154 00",
"Location": {
"Latitude": 50.0288,
"Longitude": 14.3553
}
},
{
"Name": "Horní Měcholupy",
"PostCode": "109 00",
"Location": {
"Latitude": 50.05,
"Longitude": 14.5667
}
},
{
"Name": "Horní Počernice",
"PostCode": "193 00",
"Location": {
"Latitude": 50.1121,
"Longitude": 14.6104
}
},
{
"Name": "Hostavice",
"PostCode": "198 00",
"Location": {
"Latitude": 50.0928,
"Longitude": 14.5582
}
},
{
"Name": "Hostivař",
"PostCode": "102 00",
"Location": {
"Latitude": 50.0486,
"Longitude": 14.5244
}
},
{
"Name": "Hostivař",
"PostCode": "149 00",
"Location": {
"Latitude": 50.0486,
"Longitude": 14.5244
}
},
{
"Name": "Hradčany",
"PostCode": "118 00",
"Location": {
"Latitude": 50.0895,
"Longitude": 14.3976
}
},
{
"Name": "Hradčany",
"PostCode": "119 00",
"Location": {
"Latitude": 50.0895,
"Longitude": 14.3976
}
},
{
"Name": "Hradčany",
"PostCode": "160 00",
"Location": {
"Latitude": 50.0895,
"Longitude": 14.3976
}
},
{
"Name": "Hrdlořezy",
"PostCode": "108 00",
"Location": {
"Latitude": 50.1,
"Longitude": 14.5167
}
},
{
"Name": "Hrdlořezy",
"PostCode": "190 00",
"Location": {
"Latitude": 50.1,
"Longitude": 14.5167
}
},
{
"Name": "Jinonice",
"PostCode": "158 00",
"Location": {
"Latitude": 50.0504,
"Longitude": 14.3784
}
},
{
"Name": "Josefov",
"PostCode": "110 00",
"Location": {
"Latitude": 50.0902,
"Longitude": 14.4169
}
},
{
"Name": "Kamýk",
"PostCode": "142 00",
"Location": {
"Latitude": 50.0086,
"Longitude": 14.4062
}
},
{
"Name": "Kamýk",
"PostCode": "143 00",
"Location": {
"Latitude": 49.9905,
"Longitude": 14.4245
}
},
{
"Name": "Karlín",
"PostCode": "186 00",
"Location": {
"Latitude": 50.0927,
"Longitude": 14.4471
}
},
{
"Name": "Kbely",
"PostCode": "197 00",
"Location": {
"Latitude": 49.5667,
"Longitude": 13.6333
}
},
{
"Name": "Klánovice",
"PostCode": "190 14",
"Location": {
"Latitude": 50.0949,
"Longitude": 14.6689
}
},
{
"Name": "Kobylisy",
"PostCode": "182 00",
"Location": {
"Latitude": 50.1237,
"Longitude": 14.4521
}
},
{
"Name": "Koloděje",
"PostCode": "190 16",
"Location": {
"Latitude": 50.0626,
"Longitude": 14.6427
}
},
{
"Name": "Kolovraty",
"PostCode": "103 00",
"Location": {
"Latitude": 50.0127,
"Longitude": 14.628
}
},
{
"Name": "Komořany",
"PostCode": "143 00",
"Location": {
"Latitude": 49.9908,
"Longitude": 14.4089
}
},
{
"Name": "Košíře",
"PostCode": "150 00",
"Location": {
"Latitude": 50.0671,
"Longitude": 14.3633
}
},
{
"Name": "Královice",
"PostCode": "104 00",
"Location": {
"Latitude": 50.0374,
"Longitude": 14.6353
}
},
{
"Name": "Krč",
"PostCode": "140 00",
"Location": {
"Latitude": 50.0416,
"Longitude": 14.4457
}
},
{
"Name": "Krč",
"PostCode": "142 00",
"Location": {
"Latitude": 50.0416,
"Longitude": 14.4457
}
},
{
"Name": "Křeslice",
"PostCode": "104 00",
"Location": {
"Latitude": 50.023,
"Longitude": 14.5635
}
},
{
"Name": "Kunratice",
"PostCode": "148 00",
"Location": {
"Latitude": 50.0136,
"Longitude": 14.4834
}
},
{
"Name": "Kyje",
"PostCode": "198 00",
"Location": {
"Latitude": 50.0973,
"Longitude": 14.5477
}
},
{
"Name": "Lahovice",
"PostCode": "159 00",
"Location": {
"Latitude": 49.9888,
"Longitude": 14.3966
}
},
{
"Name": "Letňany",
"PostCode": "199 00",
"Location": {
"Latitude": 50.1333,
"Longitude": 14.5167
}
},
{
"Name": "Lhotka",
"PostCode": "142 00",
"Location": {
"Latitude": 49.9013,
"Longitude": 14.189
}
},
{
"Name": "Libeň",
"PostCode": "171 00",
"Location": {
"Latitude": 50.1082,
"Longitude": 14.4746
}
},
{
"Name": "Libeň",
"PostCode": "180 00",
"Location": {
"Latitude": 50.1082,
"Longitude": 14.4746
}
},
{
"Name": "Libeň",
"PostCode": "182 00",
"Location": {
"Latitude": 50.1082,
"Longitude": 14.4746
}
},
{
"Name": "Libeň",
"PostCode": "190 00",
"Location": {
"Latitude": 50.1082,
"Longitude": 14.4746
}
},
{
"Name": "Liboc",
"PostCode": "161 00",
"Location": {
"Latitude": 50.0903,
"Longitude": 14.3129
}
},
{
"Name": "Liboc",
"PostCode": "162 00",
"Location": {
"Latitude": 50.0896,
"Longitude": 14.3728
}
},
{
"Name": "Libuš",
"PostCode": "142 00",
"Location": {
"Latitude": 50.0096,
"Longitude": 14.462
}
},
{
"Name": "Lipany",
"PostCode": "103 00",
"Location": {
"Latitude": 49.999,
"Longitude": 14.6178
}
},
{
"Name": "Lipence",
"PostCode": "155 31",
"Location": {
"Latitude": 49.9587,
"Longitude": 14.3579
}
},
{
"Name": "Lochkov",
"PostCode": "154 00",
"Location": {
"Latitude": 50.0035,
"Longitude": 14.3528
}
},
{
"Name": "Lysolaje",
"PostCode": "165 00",
"Location": {
"Latitude": 50.1258,
"Longitude": 14.3729
}
},
{
"Name": "Malá Chuchle",
"PostCode": "152 00",
"Location": {
"Latitude": 50.023,
"Longitude": 14.3931
}
},
{
"Name": "Malá Chuchle",
"PostCode": "159 00",
"Location": {
"Latitude": 50.023,
"Longitude": 14.3931
}
},
{
"Name": "Malá Strana",
"PostCode": "118 00",
"Location": {
"Latitude": 50.0877,
"Longitude": 14.4045
}
},
{
"Name": "Malá Strana",
"PostCode": "150 00",
"Location": {
"Latitude": 50.0877,
"Longitude": 14.4045
}
},
{
"Name": "Malešice",
"PostCode": "100 00",
"Location": {
"Latitude": 50.0847,
"Longitude": 14.5094
}
},
{
"Name": "Malešice",
"PostCode": "108 00",
"Location": {
"Latitude": 50.0847,
"Longitude": 14.5094
}
},
{
"Name": "Malešice",
"PostCode": "130 00",
"Location": {
"Latitude": 50.0847,
"Longitude": 14.5094
}
},
{
"Name": "Malešice",
"PostCode": "190 00",
"Location": {
"Latitude": 50.0847,
"Longitude": 14.5094
}
},
{
"Name": "Michle",
"PostCode": "101 00",
"Location": {
"Latitude": 50.048,
"Longitude": 14.4622
}
},
{
"Name": "Michle",
"PostCode": "140 00",
"Location": {
"Latitude": 50.048,
"Longitude": 14.4622
}
},
{
"Name": "Michle",
"PostCode": "141 00",
"Location": {
"Latitude": 50.048,
"Longitude": 14.4622
}
},
{
"Name": "Miškovice",
"PostCode": "196 00",
"Location": {
"Latitude": 50.1559,
"Longitude": 14.542
}
},
{
"Name": "Modřany",
"PostCode": "142 00",
"Location": {
"Latitude": 50.0112,
"Longitude": 14.4096
}
},
{
"Name": "Modřany",
"PostCode": "143 00",
"Location": {
"Latitude": 50.0112,
"Longitude": 14.4096
}
},
{
"Name": "Motol",
"PostCode": "150 00",
"Location": {
"Latitude": 50.0699,
"Longitude": 14.3283
}
},
{
"Name": "Motol",
"PostCode": "169 00",
"Location": {
"Latitude": 50.0699,
"Longitude": 14.3283
}
},
{
"Name": "Nebušice",
"PostCode": "164 00",
"Location": {
"Latitude": 50.1115,
"Longitude": 14.3255
}
},
{
"Name": "Nedvězí",
"PostCode": "103 00",
"Location": {
"Latitude": 50.017,
"Longitude": 14.6527
}
},
{
"Name": "Nové Město",
"PostCode": "110 00",
"Location": {
"Latitude": 50.0783,
"Longitude": 14.4209
}
},
{
"Name": "Nové Město",
"PostCode": "120 00",
"Location": {
"Latitude": 50.0783,
"Longitude": 14.4209
}
},
{
"Name": "Nové Město",
"PostCode": "128 00",
"Location": {
"Latitude": 50.0783,
"Longitude": 14.4209
}
},
{
"Name": "Nové Město",
"PostCode": "186 00",
"Location": {
"Latitude": 50.0783,
"Longitude": 14.4209
}
},
{
"Name": "Nusle",
"PostCode": "128 00",
"Location": {
"Latitude": 50.0646,
"Longitude": 14.4399
}
},
{
"Name": "Nusle",
"PostCode": "140 00",
"Location": {
"Latitude": 50.0646,
"Longitude": 14.4399
}
},
{
"Name": "Petrovice",
"PostCode": "109 00",
"Location": {
"Latitude": 50.034,
"Longitude": 14.5468
}
},
{
"Name": "Písnice",
"PostCode": "142 00",
"Location": {
"Latitude": 49.9933,
"Longitude": 14.4669
}
},
{
"Name": "Pitkovice",
"PostCode": "104 00",
"Location": {
"Latitude": 50.0205,
"Longitude": 14.5789
}
},
{
"Name": "Podolí",
"PostCode": "140 00",
"Location": {
"Latitude": 50.055,
"Longitude": 14.4203
}
},
{
"Name": "Podolí",
"PostCode": "147 00",
"Location": {
"Latitude": 50.055,
"Longitude": 14.4203
}
},
{
"Name": "Praha 1-Holešovice",
"PostCode": "118 00",
"Location": {
"Latitude": 50.0918,
"Longitude": 14.4107
}
},
{
"Name": "Praha 1-Hradčany",
"PostCode": "118 00",
"Location": {
"Latitude": 50.0895,
"Longitude": 14.3976
}
},
{
"Name": "Praha 1-Hradčany",
"PostCode": "119 00",
"Location": {
"Latitude": 50.0895,
"Longitude": 14.3976
}
},
{
"Name": "Praha 1-Josefov",
"PostCode": "110 00",
"Location": {
"Latitude": 50.0902,
"Longitude": 14.4169
}
},
{
"Name": "Praha 1-Malá Strana",
"PostCode": "118 00",
"Location": {
"Latitude": 50.0877,
"Longitude": 14.4045
}
},
{
"Name": "Praha 1-Nové Město",
"PostCode": "110 00",
"Location": {
"Latitude": 50.0923,
"Longitude": 14.4282
}
},
{
"Name": "Praha 1-Staré Město",
"PostCode": "110 00",
"Location": {
"Latitude": 50.087,
"Longitude": 14.4202
}
},
{
"Name": "Praha 1-Vinohrady",
"PostCode": "110 00",
"Location": {
"Latitude": 50.0856,
"Longitude": 14.4239
}
},
{
"Name": "Praha 10-Benice",
"PostCode": "103 00",
"Location": {
"Latitude": 50.0129,
"Longitude": 14.6049
}
},
{
"Name": "Praha 10-Dolní Měcholupy",
"PostCode": "109 00",
"Location": {
"Latitude": 50.0604,
"Longitude": 14.5573
}
},
{
"Name": "Praha 10-Dubeč",
"PostCode": "107 00",
"Location": {
"Latitude": 50.0625,
"Longitude": 14.5941
}
},
{
"Name": "Praha 10-Hájek",
"PostCode": "104 00",
"Location": {
"Latitude": 50.0511,
"Longitude": 14.6281
}
},
{
"Name": "Praha 10-Horní Měcholupy",
"PostCode": "109 00",
"Location": {
"Latitude": 50.05,
"Longitude": 14.5667
}
},
{
"Name": "Praha 10-Hostivař",
"PostCode": "102 00",
"Location": {
"Latitude": 50.0486,
"Longitude": 14.5244
}
},
{
"Name": "Praha 10-Hostivař",
"PostCode": "149 00",
"Location": {
"Latitude": 50.0486,
"Longitude": 14.5244
}
},
{
"Name": "Praha 10-Kolovraty",
"PostCode": "103 00",
"Location": {
"Latitude": 50.0119,
"Longitude": 14.6269
}
},
{
"Name": "Praha 10-Královice",
"PostCode": "104 00",
"Location": {
"Latitude": 50.0374,
"Longitude": 14.6353
}
},
{
"Name": "Praha 10-Křeslice",
"PostCode": "104 00",
"Location": {
"Latitude": 50.0332,
"Longitude": 14.6052
}
},
{
"Name": "Praha 10-Lipany",
"PostCode": "103 00",
"Location": {
"Latitude": 50.0119,
"Longitude": 14.6269
}
},
{
"Name": "Praha 10-Malešice",
"PostCode": "100 00",
"Location": {
"Latitude": 50.0847,
"Longitude": 14.5094
}
},
{
"Name": "Praha 10-Malešice",
"PostCode": "108 00",
"Location": {
"Latitude": 50.0847,
"Longitude": 14.5094
}
},
{
"Name": "Praha 10-Malešice",
"PostCode": "130 00",
"Location": {
"Latitude": 50.0847,
"Longitude": 14.5094
}
},
{
"Name": "Praha 10-Malešice",
"PostCode": "190 00",
"Location": {
"Latitude": 50.0847,
"Longitude": 14.5094
}
},
{
"Name": "Praha 10-Michle",
"PostCode": "101 00",
"Location": {
"Latitude": 50.048,
"Longitude": 14.4622
}
},
{
"Name": "Praha 10-Nedvězí",
"PostCode": "103 00",
"Location": {
"Latitude": 50.017,
"Longitude": 14.6527
}
},
{
"Name": "Praha 10-Petrovice",
"PostCode": "109 00",
"Location": {
"Latitude": 50.034,
"Longitude": 14.5468
}
},
{
"Name": "Praha 10-Pitkovice",
"PostCode": "104 00",
"Location": {
"Latitude": 50.0205,
"Longitude": 14.5789
}
},
{
"Name": "Praha 10-Štěrboholy",
"PostCode": "102 00",
"Location": {
"Latitude": 50.0726,
"Longitude": 14.5552
}
},
{
"Name": "Praha 10-Strašnice",
"PostCode": "100 00",
"Location": {
"Latitude": 50.0774,
"Longitude": 14.4658
}
},
{
"Name": "Praha 10-Strašnice",
"PostCode": "108 00",
"Location": {
"Latitude": 50.0924,
"Longitude": 14.513
}
},
{
"Name": "Praha 10-Uhříněves",
"PostCode": "104 00",
"Location": {
"Latitude": 50.0288,
"Longitude": 14.5995
}
},
{
"Name": "Praha 10-Vinohrady",
"PostCode": "100 00",
"Location": {
"Latitude": 50.0744,
"Longitude": 14.4437
}
},
{
"Name": "Praha 10-Vinohrady",
"PostCode": "101 00",
"Location": {
"Latitude": 50.0744,
"Longitude": 14.4437
}
},
{
"Name": "Praha 10-Vršovice",
"PostCode": "100 00",
"Location": {
"Latitude": 50.0673,
"Longitude": 14.4603
}
},
{
"Name": "Praha 10-Vršovice",
"PostCode": "101 00",
"Location": {
"Latitude": 50.0673,
"Longitude": 14.4603
}
},
{
"Name": "Praha 10-Záběhlice",
"PostCode": "101 00",
"Location": {
"Latitude": 50.0624,
"Longitude": 14.4623
}
},
{
"Name": "Praha 10-Záběhlice",
"PostCode": "106 00",
"Location": {
"Latitude": 50.0573,
"Longitude": 14.5038
}
},
{
"Name": "Praha 10-Žižkov",
"PostCode": "100 00",
"Location": {
"Latitude": 50.0833,
"Longitude": 14.45
}
},
{
"Name": "Praha 2-Nové Město",
"PostCode": "120 00",
"Location": {
"Latitude": 50.0783,
"Longitude": 14.4209
}
},
{
"Name": "Praha 2-Nové Město",
"PostCode": "128 00",
"Location": {
"Latitude": 50.0783,
"Longitude": 14.4209
}
},
{
"Name": "Praha 2-Nusle",
"PostCode": "128 00",
"Location": {
"Latitude": 50.0703,
"Longitude": 14.4232
}
},
{
"Name": "Praha 2-Vinohrady",
"PostCode": "120 00",
"Location": {
"Latitude": 50.0744,
"Longitude": 14.4437
}
},
{
"Name": "Praha 2-Vyšehrad",
"PostCode": "128 00",
"Location": {
"Latitude": 50.0651,
"Longitude": 14.4171
}
},
{
"Name": "Praha 3-Strašnice",
"PostCode": "130 00",
"Location": {
"Latitude": 50.0866,
"Longitude": 14.4799
}
},
{
"Name": "Praha 3-Vinohrady",
"PostCode": "130 00",
"Location": {
"Latitude": 50.0866,
"Longitude": 14.4799
}
},
{
"Name": "Praha 3-Vysočany",
"PostCode": "130 00",
"Location": {
"Latitude": 50.0866,
"Longitude": 14.4799
}
},
{
"Name": "Praha 3-Žižkov",
"PostCode": "130 00",
"Location": {
"Latitude": 50.0833,
"Longitude": 14.45
}
},
{
"Name": "Praha 4-Braník",
"PostCode": "142 00",
"Location": {
"Latitude": 50.035,
"Longitude": 14.4152
}
},
{
"Name": "Praha 4-Braník",
"PostCode": "147 00",
"Location": {
"Latitude": 50.035,
"Longitude": 14.4152
}
},
{
"Name": "Praha 4-Chodov",
"PostCode": "141 00",
"Location": {
"Latitude": 50.0475,
"Longitude": 14.4831
}
},
{
"Name": "Praha 4-Chodov",
"PostCode": "148 00",
"Location": {
"Latitude": 50.0252,
"Longitude": 14.4939
}
},
{
"Name": "Praha 4-Chodov",
"PostCode": "149 00",
"Location": {
"Latitude": 50.0369,
"Longitude": 14.5185
}
},
{
"Name": "Praha 4-Cholupice",
"PostCode": "143 00",
"Location": {
"Latitude": 49.9905,
"Longitude": 14.4245
}
},
{
"Name": "Praha 4-Háje",
"PostCode": "149 00",
"Location": {
"Latitude": 50.0369,
"Longitude": 14.5185
}
},
{
"Name": "Praha 4-Hodkovičky",
"PostCode": "147 00",
"Location": {
"Latitude": 50.0235,
"Longitude": 14.4141
}
},
{
"Name": "Praha 4-Kamýk",
"PostCode": "142 00",
"Location": {
"Latitude": 50.0086,
"Longitude": 14.4062
}
},
{
"Name": "Praha 4-Kamýk",
"PostCode": "143 00",
"Location": {
"Latitude": 49.9905,
"Longitude": 14.4245
}
},
{
"Name": "Praha 4-Komořany",
"PostCode": "143 00",
"Location": {
"Latitude": 49.9905,
"Longitude": 14.4245
}
},
{
"Name": "Praha 4-Krč",
"PostCode": "140 00",
"Location": {
"Latitude": 50.0416,
"Longitude": 14.4457
}
},
{
"Name": "Praha 4-Krč",
"PostCode": "142 00",
"Location": {
"Latitude": 50.0416,
"Longitude": 14.4457
}
},
{
"Name": "Praha 4-Kunratice",
"PostCode": "148 00",
"Location": {
"Latitude": 50.0252,
"Longitude": 14.4939
}
},
{
"Name": "Praha 4-Lhotka",
"PostCode": "142 00",
"Location": {
"Latitude": 50.0086,
"Longitude": 14.4062
}
},
{
"Name": "Praha 4-Libuš",
"PostCode": "142 00",
"Location": {
"Latitude": 50.0086,
"Longitude": 14.4062
}
},
{
"Name": "Praha 4-Michle",
"PostCode": "140 00",
"Location": {
"Latitude": 50.048,
"Longitude": 14.4622
}
},
{
"Name": "Praha 4-Michle",
"PostCode": "141 00",
"Location": {
"Latitude": 50.048,
"Longitude": 14.4622
}
},
{
"Name": "Praha 4-Modřany",
"PostCode": "142 00",
"Location": {
"Latitude": 50.0086,
"Longitude": 14.4062
}
},
{
"Name": "Praha 4-Modřany",
"PostCode": "143 00",
"Location": {
"Latitude": 49.9905,
"Longitude": 14.4245
}
},
{
"Name": "Praha 4-Nusle",
"PostCode": "140 00",
"Location": {
"Latitude": 50.0646,
"Longitude": 14.4399
}
},
{
"Name": "Praha 4-Písnice",
"PostCode": "142 00",
"Location": {
"Latitude": 50.0086,
"Longitude": 14.4062
}
},
{
"Name": "Praha 4-Podolí",
"PostCode": "140 00",
"Location": {
"Latitude": 50.055,
"Longitude": 14.4203
}
},
{
"Name": "Praha 4-Podolí",
"PostCode": "147 00",
"Location": {
"Latitude": 50.055,
"Longitude": 14.4203
}
},
{
"Name": "Praha 4-Šeberov",
"PostCode": "149 00",
"Location": {
"Latitude": 50.0369,
"Longitude": 14.5185
}
},
{
"Name": "Praha 4-Točná",
"PostCode": "143 00",
"Location": {
"Latitude": 49.9905,
"Longitude": 14.4245
}
},
{
"Name": "Praha 4-Újezd",
"PostCode": "149 00",
"Location": {
"Latitude": 50.0369,
"Longitude": 14.5185
}
},
{
"Name": "Praha 4-Vinohrady",
"PostCode": "140 00",
"Location": {
"Latitude": 50.0547,
"Longitude": 14.4422
}
},
{
"Name": "Praha 4-Záběhlice",
"PostCode": "141 00",
"Location": {
"Latitude": 50.0475,
"Longitude": 14.4831
}
},
{
"Name": "Praha 5-Hlubočepy",
"PostCode": "152 00",
"Location": {
"Latitude": 50.0436,
"Longitude": 14.4016
}
},
{
"Name": "Praha 5-Holyně",
"PostCode": "154 00",
"Location": {
"Latitude": 50.0288,
"Longitude": 14.3553
}
},
{
"Name": "Praha 5-Jinonice",
"PostCode": "158 00",
"Location": {
"Latitude": 50.0504,
"Longitude": 14.3784
}
},
{
"Name": "Praha 5-Košíře",
"PostCode": "150 00",
"Location": {
"Latitude": 50.0671,
"Longitude": 14.3633
}
},
{
"Name": "Praha 5-Lahovice",
"PostCode": "159 00",
"Location": {
"Latitude": 50.0079,
"Longitude": 14.3923
}
},
{
"Name": "Praha 5-Lipence",
"PostCode": "155 31",
"Location": {
"Latitude": 49.9587,
"Longitude": 14.3579
}
},
{
"Name": "Praha 5-Lochkov",
"PostCode": "154 00",
"Location": {
"Latitude": 50.0201,
"Longitude": 14.3549
}
},
{
"Name": "Praha 5-Malá Chuchle",
"PostCode": "152 00",
"Location": {
"Latitude": 50.0368,
"Longitude": 14.3988
}
},
{
"Name": "Praha 5-Malá Chuchle",
"PostCode": "159 00",
"Location": {
"Latitude": 50.0079,
"Longitude": 14.3923
}
},
{
"Name": "Praha 5-Malá Strana",
"PostCode": "150 00",
"Location": {
"Latitude": 50.0696,
"Longitude": 14.3775
}
},
{
"Name": "Praha 5-Motol",
"PostCode": "150 00",
"Location": {
"Latitude": 50.0699,
"Longitude": 14.3283
}
},
{
"Name": "Praha 5-Motol",
"PostCode": "169 00",
"Location": {
"Latitude": 50.0699,
"Longitude": 14.3283
}
},
{
"Name": "Praha 5-Radlice",
"PostCode": "150 00",
"Location": {
"Latitude": 50.0604,
"Longitude": 14.401
}
},
{
"Name": "Praha 5-Radotín",
"PostCode": "153 00",
"Location": {
"Latitude": 49.654,
"Longitude": 14.5931
}
},
{
"Name": "Praha 5-Řeporyje",
"PostCode": "155 00",
"Location": {
"Latitude": 50.0335,
"Longitude": 14.3068
}
},
{
"Name": "Praha 5-Slivenec",
"PostCode": "154 00",
"Location": {
"Latitude": 50.0201,
"Longitude": 14.3549
}
},
{
"Name": "Praha 5-Smíchov",
"PostCode": "150 00",
"Location": {
"Latitude": 50.072,
"Longitude": 14.4041
}
},
{
"Name": "Praha 5-Smíchov",
"PostCode": "160 00",
"Location": {
"Latitude": 50.072,
"Longitude": 14.4041
}
},
{
"Name": "Praha 5-Sobín",
"PostCode": "155 21",
"Location": {
"Latitude": 50.0635,
"Longitude": 14.2789
}
},
{
"Name": "Praha 5-Stodůlky",
"PostCode": "155 00",
"Location": {
"Latitude": 50.0335,
"Longitude": 14.3068
}
},
{
"Name": "Praha 5-Třebonice",
"PostCode": "155 00",
"Location": {
"Latitude": 50.0335,
"Longitude": 14.3068
}
},
{
"Name": "Praha 5-Velká Chuchle",
"PostCode": "159 00",
"Location": {
"Latitude": 50.0079,
"Longitude": 14.3923
}
},
{
"Name": "Praha 5-Zadní Kopanina",
"PostCode": "155 00",
"Location": {
"Latitude": 50.0335,
"Longitude": 14.3068
}
},
{
"Name": "Praha 5-Zbraslav",
"PostCode": "156 00",
"Location": {
"Latitude": 48.6333,
"Longitude": 14.4333
}
},
{
"Name": "Praha 5-Zličín",
"PostCode": "155 21",
"Location": {
"Latitude": 50.0635,
"Longitude": 14.2789
}
},
{
"Name": "Praha 6-Břevnov",
"PostCode": "162 00",
"Location": {
"Latitude": 50.0896,
"Longitude": 14.3728
}
},
{
"Name": "Praha 6-Břevnov",
"PostCode": "169 00",
"Location": {
"Latitude": 50.0809,
"Longitude": 14.361
}
},
{
"Name": "Praha 6-Bubeneč",
"PostCode": "160 00",
"Location": {
"Latitude": 50.1092,
"Longitude": 14.4066
}
},
{
"Name": "Praha 6-Dejvice",
"PostCode": "160 00",
"Location": {
"Latitude": 50.1008,
"Longitude": 14.3907
}
},
{
"Name": "Praha 6-Hradčany",
"PostCode": "160 00",
"Location": {
"Latitude": 50.101,
"Longitude": 14.3897
}
},
{
"Name": "Praha 6-Liboc",
"PostCode": "161 00",
"Location": {
"Latitude": 50.0903,
"Longitude": 14.3129
}
},
{
"Name": "Praha 6-Liboc",
"PostCode": "162 00",
"Location": {
"Latitude": 50.0896,
"Longitude": 14.3728
}
},
{
"Name": "Praha 6-Lysolaje",
"PostCode": "165 00",
"Location": {
"Latitude": 50.1258,
"Longitude": 14.3729
}
},
{
"Name": "Praha 6-Nebušice",
"PostCode": "164 00",
"Location": {
"Latitude": 50.1115,
"Longitude": 14.3255
}
},
{
"Name": "Praha 6-Přední Kopanina",
"PostCode": "164 00",
"Location": {
"Latitude": 50.1173,
"Longitude": 14.2969
}
},
{
"Name": "Praha 6-Řepy",
"PostCode": "163 00",
"Location": {
"Latitude": 50.0706,
"Longitude": 14.3005
}
},
{
"Name": "Praha 6-Ruzyně",
"PostCode": "161 00",
"Location": {
"Latitude": 50.0903,
"Longitude": 14.3129
}
},
{
"Name": "Praha 6-Sedlec",
"PostCode": "160 00",
"Location": {
"Latitude": 50.1299,
"Longitude": 14.3982
}
},
{
"Name": "Praha 6-Střešovice",
"PostCode": "162 00",
"Location": {
"Latitude": 50.0953,
"Longitude": 14.3827
}
},
{
"Name": "Praha 6-Střešovice",
"PostCode": "169 00",
"Location": {
"Latitude": 50.0953,
"Longitude": 14.3827
}
},
{
"Name": "Praha 6-Suchdol",
"PostCode": "165 00",
"Location": {
"Latitude": 50.1414,
"Longitude": 14.3837
}
},
{
"Name": "Praha 6-Veleslavín",
"PostCode": "162 00",
"Location": {
"Latitude": 50.0915,
"Longitude": 14.3578
}
},
{
"Name": "Praha 6-Vokovice",
"PostCode": "160 00",
"Location": {
"Latitude": 50.0986,
"Longitude": 14.3449
}
},
{
"Name": "Praha 7-Bubeneč",
"PostCode": "170 00",
"Location": {
"Latitude": 50.1062,
"Longitude": 14.4352
}
},
{
"Name": "Praha 7-Holešovice",
"PostCode": "170 00",
"Location": {
"Latitude": 50.1047,
"Longitude": 14.4495
}
},
{
"Name": "Praha 7-Libeň",
"PostCode": "171 00",
"Location": {
"Latitude": 50.1124,
"Longitude": 14.4496
}
},
{
"Name": "Praha 7-Troja",
"PostCode": "171 00",
"Location": {
"Latitude": 50.1124,
"Longitude": 14.4496
}
},
{
"Name": "Praha 8-Bohnice",
"PostCode": "181 00",
"Location": {
"Latitude": 50.1333,
"Longitude": 14.4167
}
},
{
"Name": "Praha 8-Březiněves",
"PostCode": "182 00",
"Location": {
"Latitude": 50.1663,
"Longitude": 14.4846
}
},
{
"Name": "Praha 8-Čimice",
"PostCode": "181 00",
"Location": {
"Latitude": 50.1376,
"Longitude": 14.4328
}
},
{
"Name": "Praha 8-Ďáblice",
"PostCode": "182 00",
"Location": {
"Latitude": 50.1333,
"Longitude": 14.475
}
},
{
"Name": "Praha 8-Dolní Chabry",
"PostCode": "184 00",
"Location": {
"Latitude": 50.1463,
"Longitude": 14.4485
}
},
{
"Name": "Praha 8-Karlín",
"PostCode": "186 00",
"Location": {
"Latitude": 50.0927,
"Longitude": 14.4471
}
},
{
"Name": "Praha 8-Kobylisy",
"PostCode": "182 00",
"Location": {
"Latitude": 50.1237,
"Longitude": 14.4521
}
},
{
"Name": "Praha 8-Libeň",
"PostCode": "180 00",
"Location": {
"Latitude": 50.1082,
"Longitude": 14.4746
}
},
{
"Name": "Praha 8-Libeň",
"PostCode": "182 00",
"Location": {
"Latitude": 50.1082,
"Longitude": 14.4746
}
},
{
"Name": "Praha 8-Nové Město",
"PostCode": "186 00",
"Location": {
"Latitude": 50.0879,
"Longitude": 14.4384
}
},
{
"Name": "Praha 8-Střížkov",
"PostCode": "182 00",
"Location": {
"Latitude": 50.1333,
"Longitude": 14.475
}
},
{
"Name": "Praha 8-Troja",
"PostCode": "180 00",
"Location": {
"Latitude": 50.1041,
"Longitude": 14.4559
}
},
{
"Name": "Praha 8-Troja",
"PostCode": "181 00",
"Location": {
"Latitude": 50.1317,
"Longitude": 14.4247
}
},
{
"Name": "Praha 8-Žižkov",
"PostCode": "180 00",
"Location": {
"Latitude": 50.1041,
"Longitude": 14.4559
}
},
{
"Name": "Praha 9-Běchovice",
"PostCode": "190 11",
"Location": {
"Latitude": 50.081,
"Longitude": 14.6178
}
},
{
"Name": "Praha 9-Čakovice",
"PostCode": "196 00",
"Location": {
"Latitude": 50.1564,
"Longitude": 14.5301
}
},
{
"Name": "Praha 9-Černý Most",
"PostCode": "198 00",
"Location": {
"Latitude": 50.1003,
"Longitude": 14.5557
}
},
{
"Name": "Praha 9-Dolní Počernice",
"PostCode": "190 12",
"Location": {
"Latitude": 50.0876,
"Longitude": 14.572
}
},
{
"Name": "Praha 9-Hloubětín",
"PostCode": "198 00",
"Location": {
"Latitude": 50.1003,
"Longitude": 14.5557
}
},
{
"Name": "Praha 9-Horní Počernice",
"PostCode": "193 00",
"Location": {
"Latitude": 50.1121,
"Longitude": 14.6104
}
},
{
"Name": "Praha 9-Hostavice",
"PostCode": "198 00",
"Location": {
"Latitude": 50.1003,
"Longitude": 14.5557
}
},
{
"Name": "Praha 9-Hrdlořezy",
"PostCode": "108 00",
"Location": {
"Latitude": 50.1,
"Longitude": 14.5167
}
},
{
"Name": "Praha 9-Hrdlořezy",
"PostCode": "190 00",
"Location": {
"Latitude": 50.1,
"Longitude": 14.5167
}
},
{
"Name": "Praha 9-Kbely",
"PostCode": "197 00",
"Location": {
"Latitude": 49.5667,
"Longitude": 13.6333
}
},
{
"Name": "Praha 9-Klánovice",
"PostCode": "190 14",
"Location": {
"Latitude": 50.0949,
"Longitude": 14.6689
}
},
{
"Name": "Praha 9-Koloděje",
"PostCode": "190 16",
"Location": {
"Latitude": 50.0695,
"Longitude": 14.6511
}
},
{
"Name": "Praha 9-Kyje",
"PostCode": "198 00",
"Location": {
"Latitude": 50.1003,
"Longitude": 14.5557
}
},
{
"Name": "Praha 9-Letňany",
"PostCode": "199 00",
"Location": {
"Latitude": 50.1333,
"Longitude": 14.5167
}
},
{
"Name": "Praha 9-Libeň",
"PostCode": "190 00",
"Location": {
"Latitude": 50.1073,
"Longitude": 14.5055
}
},
{
"Name": "Praha 9-Miškovice",
"PostCode": "196 00",
"Location": {
"Latitude": 50.1564,
"Longitude": 14.5301
}
},
{
"Name": "Praha 9-Prosek",
"PostCode": "190 00",
"Location": {
"Latitude": 50.1153,
"Longitude": 14.5069
}
},
{
"Name": "Praha 9-Satalice",
"PostCode": "190 15",
"Location": {
"Latitude": 50.1248,
"Longitude": 14.5719
}
},
{
"Name": "Praha 9-Střížkov",
"PostCode": "190 00",
"Location": {
"Latitude": 50.1267,
"Longitude": 14.4936
}
},
{
"Name": "Praha 9-Třeboradice",
"PostCode": "196 00",
"Location": {
"Latitude": 50.1564,
"Longitude": 14.5301
}
},
{
"Name": "Praha 9-Újezd nad Lesy",
"PostCode": "190 16",
"Location": {
"Latitude": 50.0695,
"Longitude": 14.6511
}
},
{
"Name": "Praha 9-Vinoř",
"PostCode": "190 17",
"Location": {
"Latitude": 50.1463,
"Longitude": 14.5825
}
},
{
"Name": "Praha 9-Vysočany",
"PostCode": "190 00",
"Location": {
"Latitude": 50.1094,
"Longitude": 14.5167
}
},
{
"Name": "Přední Kopanina",
"PostCode": "164 00",
"Location": {
"Latitude": 50.1173,
"Longitude": 14.2969
}
},
{
"Name": "Prosek",
"PostCode": "190 00",
"Location": {
"Latitude": 50.1153,
"Longitude": 14.5069
}
},
{
"Name": "Radlice",
"PostCode": "150 00",
"Location": {
"Latitude": 50.0604,
"Longitude": 14.401
}
},
{
"Name": "Radotín",
"PostCode": "153 00",
"Location": {
"Latitude": 49.654,
"Longitude": 14.5931
}
},
{
"Name": "Řeporyje",
"PostCode": "155 00",
"Location": {
"Latitude": 50.0318,
"Longitude": 14.3167
}
},
{
"Name": "Řepy",
"PostCode": "163 00",
"Location": {
"Latitude": 50.0706,
"Longitude": 14.3005
}
},
{
"Name": "Ruzyně",
"PostCode": "161 00",
"Location": {
"Latitude": 50.0903,
"Longitude": 14.3129
}
},
{
"Name": "Satalice",
"PostCode": "190 15",
"Location": {
"Latitude": 50.1248,
"Longitude": 14.5719
}
},
{
"Name": "Šeberov",
"PostCode": "149 00",
"Location": {
"Latitude": 50.0146,
"Longitude": 14.5126
}
},
{
"Name": "Sedlec",
"PostCode": "160 00",
"Location": {
"Latitude": 50.1299,
"Longitude": 14.3982
}
},
{
"Name": "Slivenec",
"PostCode": "154 00",
"Location": {
"Latitude": 50.0193,
"Longitude": 14.3562
}
},
{
"Name": "Smíchov",
"PostCode": "150 00",
"Location": {
"Latitude": 50.072,
"Longitude": 14.4041
}
},
{
"Name": "Smíchov",
"PostCode": "160 00",
"Location": {
"Latitude": 50.072,
"Longitude": 14.4041
}
},
{
"Name": "Sobín",
"PostCode": "155 21",
"Location": {
"Latitude": 50.0652,
"Longitude": 14.2681
}
},
{
"Name": "Staré Město",
"PostCode": "110 00",
"Location": {
"Latitude": 50.087,
"Longitude": 14.4202
}
},
{
"Name": "Štěrboholy",
"PostCode": "102 00",
"Location": {
"Latitude": 50.0726,
"Longitude": 14.5552
}
},
{
"Name": "Stodůlky",
"PostCode": "155 00",
"Location": {
"Latitude": 50.05,
"Longitude": 14.3167
}
},
{
"Name": "Strašnice",
"PostCode": "100 00",
"Location": {
"Latitude": 50.0774,
"Longitude": 14.4658
}
},
{
"Name": "Strašnice",
"PostCode": "108 00",
"Location": {
"Latitude": 50.0924,
"Longitude": 14.513
}
},
{
"Name": "Strašnice",
"PostCode": "130 00",
"Location": {
"Latitude": 50.0866,
"Longitude": 14.4799
}
},
{
"Name": "Střešovice",
"PostCode": "162 00",
"Location": {
"Latitude": 50.0953,
"Longitude": 14.3827
}
},
{
"Name": "Střešovice",
"PostCode": "169 00",
"Location": {
"Latitude": 50.0953,
"Longitude": 14.3827
}
},
{
"Name": "Střížkov",
"PostCode": "182 00",
"Location": {
"Latitude": 50.1267,
"Longitude": 14.4936
}
},
{
"Name": "Střížkov",
"PostCode": "190 00",
"Location": {
"Latitude": 50.1267,
"Longitude": 14.4936
}
},
{
"Name": "Suchdol",
"PostCode": "165 00",
"Location": {
"Latitude": 50.1414,
"Longitude": 14.3837
}
},
{
"Name": "Točná",
"PostCode": "143 00",
"Location": {
"Latitude": 49.9727,
"Longitude": 14.4317
}
},
{
"Name": "Třebonice",
"PostCode": "155 00",
"Location": {
"Latitude": 50.0459,
"Longitude": 14.2788
}
},
{
"Name": "Třeboradice",
"PostCode": "196 00",
"Location": {
"Latitude": 50.1621,
"Longitude": 14.5243
}
},
{
"Name": "Troja",
"PostCode": "171 00",
"Location": {
"Latitude": 50.1166,
"Longitude": 14.4246
}
},
{
"Name": "Troja",
"PostCode": "180 00",
"Location": {
"Latitude": 50.1166,
"Longitude": 14.4246
}
},
{
"Name": "Troja",
"PostCode": "181 00",
"Location": {
"Latitude": 50.1166,
"Longitude": 14.4246
}
},
{
"Name": "Uhříněves",
"PostCode": "104 00",
"Location": {
"Latitude": 50.0288,
"Longitude": 14.5995
}
},
{
"Name": "Újezd",
"PostCode": "149 00",
"Location": {
"Latitude": 50.0369,
"Longitude": 14.5185
}
},
{
"Name": "Újezd nad Lesy",
"PostCode": "190 16",
"Location": {
"Latitude": 50.0765,
"Longitude": 14.6595
}
},
{
"Name": "Veleslavín",
"PostCode": "162 00",
"Location": {
"Latitude": 50.0915,
"Longitude": 14.3578
}
},
{
"Name": "Velká Chuchle",
"PostCode": "159 00",
"Location": {
"Latitude": 50.0118,
"Longitude": 14.387
}
},
{
"Name": "Vinohrady",
"PostCode": "100 00",
"Location": {
"Latitude": 50.0744,
"Longitude": 14.4437
}
},
{
"Name": "Vinohrady",
"PostCode": "101 00",
"Location": {
"Latitude": 50.0744,
"Longitude": 14.4437
}
},
{
"Name": "Vinohrady",
"PostCode": "110 00",
"Location": {
"Latitude": 50.0744,
"Longitude": 14.4437
}
},
{
"Name": "Vinohrady",
"PostCode": "120 00",
"Location": {
"Latitude": 50.0744,
"Longitude": 14.4437
}
},
{
"Name": "Vinohrady",
"PostCode": "130 00",
"Location": {
"Latitude": 50.0744,
"Longitude": 14.4437
}
},
{
"Name": "Vinohrady",
"PostCode": "140 00",
"Location": {
"Latitude": 50.0744,
"Longitude": 14.4437
}
},
{
"Name": "Vinoř",
"PostCode": "190 17",
"Location": {
"Latitude": 50.1463,
"Longitude": 14.5825
}
},
{
"Name": "Vokovice",
"PostCode": "160 00",
"Location": {
"Latitude": 50.0986,
"Longitude": 14.3449
}
},
{
"Name": "Vršovice",
"PostCode": "100 00",
"Location": {
"Latitude": 50.0673,
"Longitude": 14.4603
}
},
{
"Name": "Vršovice",
"PostCode": "101 00",
"Location": {
"Latitude": 50.0673,
"Longitude": 14.4603
}
},
{
"Name": "Vyšehrad",
"PostCode": "128 00",
"Location": {
"Latitude": 50.0651,
"Longitude": 14.4171
}
},
{
"Name": "Vysočany",
"PostCode": "130 00",
"Location": {
"Latitude": 50.1094,
"Longitude": 14.5167
}
},
{
"Name": "Vysočany",
"PostCode": "190 00",
"Location": {
"Latitude": 50.1094,
"Longitude": 14.5167
}
},
{
"Name": "Záběhlice",
"PostCode": "101 00",
"Location": {
"Latitude": 50.0573,
"Longitude": 14.5038
}
},
{
"Name": "Záběhlice",
"PostCode": "106 00",
"Location": {
"Latitude": 50.0573,
"Longitude": 14.5038
}
},
{
"Name": "Záběhlice",
"PostCode": "141 00",
"Location": {
"Latitude": 50.0573,
"Longitude": 14.5038
}
},
{
"Name": "Zadní Kopanina",
"PostCode": "155 00",
"Location": {
"Latitude": 50.0062,
"Longitude": 14.3149
}
},
{
"Name": "Zbraslav",
"PostCode": "156 00",
"Location": {
"Latitude": 48.6333,
"Longitude": 14.4333
}
},
{
"Name": "Žižkov",
"PostCode": "100 00",
"Location": {
"Latitude": 50.0833,
"Longitude": 14.45
}
},
{
"Name": "Žižkov",
"PostCode": "130 00",
"Location": {
"Latitude": 50.0833,
"Longitude": 14.45
}
},
{
"Name": "Žižkov",
"PostCode": "180 00",
"Location": {
"Latitude": 50.0833,
"Longitude": 14.45
}
},
{
"Name": "Zličín",
"PostCode": "155 21",
"Location": {
"Latitude": 50.0618,
"Longitude": 14.2896
}
}
]
}
]
}
]
},
{
"Name": "Jihomoravský kraj",
"Code": "78",
"Provinces": [
{
"Name": "Blansko",
"Code": "3701",
"Communities": [
{
"Places": [
{
"Name": "Adamov",
"PostCode": "679 04",
"Location": {
"Latitude": 49.3016,
"Longitude": 16.6525
}
},
{
"Name": "Babolky",
"PostCode": "679 61",
"Location": {
"Latitude": 49.5894,
"Longitude": 16.5799
}
},
{
"Name": "Bačov",
"PostCode": "680 01",
"Location": {
"Latitude": 49.5262,
"Longitude": 16.6423
}
},
{
"Name": "Bedřichov",
"PostCode": "679 71",
"Location": {
"Latitude": 49.4612,
"Longitude": 16.4653
}
},
{
"Name": "Běleč",
"PostCode": "679 23",
"Location": {
"Latitude": 49.4652,
"Longitude": 16.631
}
},
{
"Name": "Benešov",
"PostCode": "679 53",
"Location": {
"Latitude": 49.5094,
"Longitude": 16.7706
}
},
{
"Name": "Bezděčí",
"PostCode": "679 61",
"Location": {
"Latitude": 49.6165,
"Longitude": 16.6209
}
},
{
"Name": "Blansko",
"PostCode": "678 01",
"Location": {
"Latitude": 49.363,
"Longitude": 16.6445
}
},
{
"Name": "Bořitov",
"PostCode": "679 21",
"Location": {
"Latitude": 49.425,
"Longitude": 16.5912
}
},
{
"Name": "Borotín",
"PostCode": "679 37",
"Location": {
"Latitude": 49.5813,
"Longitude": 16.6715
}
},
{
"Name": "Boskovice",
"PostCode": "680 01",
"Location": {
"Latitude": 49.4875,
"Longitude": 16.66
}
},
{
"Name": "Březina",
"PostCode": "679 05",
"Location": {
"Latitude": 49.4652,
"Longitude": 16.631
}
},
{
"Name": "Brťov",
"PostCode": "679 63",
"Location": {
"Latitude": 49.6174,
"Longitude": 16.64
}
},
{
"Name": "Brťov u Černé Hory",
"PostCode": "679 21",
"Location": {
"Latitude": 49.4078,
"Longitude": 16.5504
}
},
{
"Name": "Brumov",
"PostCode": "679 23",
"Location": {
"Latitude": 49.4652,
"Longitude": 16.631
}
},
{
"Name": "Brusná",
"PostCode": "679 23",
"Location": {
"Latitude": 49.4652,
"Longitude": 16.631
}
},
{
"Name": "Bukovice",
"PostCode": "679 23",
"Location": {
"Latitude": 49.4652,
"Longitude": 16.631
}
},
{
"Name": "Bukovina",
"PostCode": "679 05",
"Location": {
"Latitude": 49.2974,
"Longitude": 16.7732
}
},
{
"Name": "Bukovinka",
"PostCode": "679 05",
"Location": {
"Latitude": 49.2974,
"Longitude": 16.8094
}
},
{
"Name": "Býkovice",
"PostCode": "679 71",
"Location": {
"Latitude": 49.4302,
"Longitude": 16.5383
}
},
{
"Name": "Černá Hora",
"PostCode": "679 21",
"Location": {
"Latitude": 49.4136,
"Longitude": 16.5814
}
},
{
"Name": "Černovice",
"PostCode": "679 75",
"Location": {
"Latitude": 49.4835,
"Longitude": 16.4229
}
},
{
"Name": "Cetkovice",
"PostCode": "679 38",
"Location": {
"Latitude": 49.5788,
"Longitude": 16.7212
}
},
{
"Name": "Chlum",
"PostCode": "679 61",
"Location": {
"Latitude": 49.5988,
"Longitude": 16.5935
}
},
{
"Name": "Chrudichromy",
"PostCode": "680 01",
"Location": {
"Latitude": 49.5029,
"Longitude": 16.628
}
},
{
"Name": "Crhov",
"PostCode": "679 74",
"Location": {
"Latitude": 49.545,
"Longitude": 16.4347
}
},
{
"Name": "Deštná",
"PostCode": "679 61",
"Location": {
"Latitude": 49.6126,
"Longitude": 16.5636
}
},
{
"Name": "Dlouhá Lhota",
"PostCode": "679 71",
"Location": {
"Latitude": 49.4287,
"Longitude": 16.5096
}
},
{
"Name": "Dolní Lhota",
"PostCode": "678 01",
"Location": {
"Latitude": 49.3833,
"Longitude": 16.6333
}
},
{
"Name": "Dolní Poříčí",
"PostCode": "679 62",
"Location": {
"Latitude": 49.5715,
"Longitude": 16.4931
}
},
{
"Name": "Dolní Smržov",
"PostCode": "679 61",
"Location": {
"Latitude": 49.5908,
"Longitude": 16.5564
}
},
{
"Name": "Doubravice nad Svitavou",
"PostCode": "679 11",
"Location": {
"Latitude": 49.4366,
"Longitude": 16.6294
}
},
{
"Name": "Drnovice",
"PostCode": "679 76",
"Location": {
"Latitude": 49.4693,
"Longitude": 16.5422
}
},
{
"Name": "Drvalovice",
"PostCode": "679 61",
"Location": {
"Latitude": 49.5654,
"Longitude": 16.65
}
},
{
"Name": "Habrůvka",
"PostCode": "679 05",
"Location": {
"Latitude": 49.3035,
"Longitude": 16.7235
}
},
{
"Name": "Hluboké Dvory",
"PostCode": "679 23",
"Location": {
"Latitude": 49.4652,
"Longitude": 16.631
}
},
{
"Name": "Hluboké u Kunštátu",
"PostCode": "679 72",
"Location": {
"Latitude": 49.5075,
"Longitude": 16.5147
}
},
{
"Name": "Hodonín",
"PostCode": "679 71",
"Location": {
"Latitude": 49.5012,
"Longitude": 16.4103
}
},
{
"Name": "Holešín",
"PostCode": "679 02",
"Location": {
"Latitude": 49.4278,
"Longitude": 16.6572
}
},
{
"Name": "Holštejn",
"PostCode": "679 06",
"Location": {
"Latitude": 49.4063,
"Longitude": 16.7777
}
},
{
"Name": "Hořice",
"PostCode": "678 01",
"Location": {
"Latitude": 49.3563,
"Longitude": 16.6229
}
},
{
"Name": "Horní Lhota",
"PostCode": "678 01",
"Location": {
"Latitude": 49.3838,
"Longitude": 16.6507
}
},
{
"Name": "Horní Poříčí",
"PostCode": "679 62",
"Location": {
"Latitude": 49.5876,
"Longitude": 16.4773
}
},
{
"Name": "Horní Smržov",
"PostCode": "679 61",
"Location": {
"Latitude": 49.6183,
"Longitude": 16.577
}
},
{
"Name": "Housko",
"PostCode": "679 13",
"Location": {
"Latitude": 49.4289,
"Longitude": 16.7992
}
},
{
"Name": "Hrádkov",
"PostCode": "680 01",
"Location": {
"Latitude": 49.4833,
"Longitude": 16.7
}
},
{
"Name": "Jabloňany",
"PostCode": "679 01",
"Location": {
"Latitude": 49.4654,
"Longitude": 16.6071
}
},
{
"Name": "Jasinov",
"PostCode": "679 61",
"Location": {
"Latitude": 49.5368,
"Longitude": 16.5303
}
},
{
"Name": "Jedovnice",
"PostCode": "679 06",
"Location": {
"Latitude": 49.3445,
"Longitude": 16.7559
}
},
{
"Name": "Jeneč",
"PostCode": "679 21",
"Location": {
"Latitude": 49.4135,
"Longitude": 16.5086
}
},
{
"Name": "Jestřebí",
"PostCode": "679 02",
"Location": {
"Latitude": 49.4105,
"Longitude": 16.6187
}
},
{
"Name": "Jobova Lhota",
"PostCode": "679 74",
"Location": {
"Latitude": 49.5911,
"Longitude": 16.4414
}
},
{
"Name": "Karolín",
"PostCode": "679 02",
"Location": {
"Latitude": 49.4071,
"Longitude": 16.6692
}
},
{
"Name": "Kladoruby",
"PostCode": "679 61",
"Location": {
"Latitude": 49.5547,
"Longitude": 16.6071
}
},
{
"Name": "Klepačov",
"PostCode": "678 01",
"Location": {
"Latitude": 49.3457,
"Longitude": 16.6573
}
},
{
"Name": "Klevetov",
"PostCode": "679 61",
"Location": {
"Latitude": 49.5333,
"Longitude": 16.5833
}
},
{
"Name": "Kněževes",
"PostCode": "679 74",
"Location": {
"Latitude": 49.587,
"Longitude": 16.4238
}
},
{
"Name": "Kněževísko",
"PostCode": "679 61",
"Location": {
"Latitude": 49.5478,
"Longitude": 16.5519
}
},
{
"Name": "Knínice u Boskovic",
"PostCode": "679 34",
"Location": {
"Latitude": 49.5396,
"Longitude": 16.695
}
},
{
"Name": "Kochov",
"PostCode": "679 61",
"Location": {
"Latitude": 49.5655,
"Longitude": 16.612
}
},
{
"Name": "Korbelova Lhota",
"PostCode": "679 63",
"Location": {
"Latitude": 49.5984,
"Longitude": 16.6678
}
},
{
"Name": "Kořenec",
"PostCode": "680 01",
"Location": {
"Latitude": 49.5303,
"Longitude": 16.7539
}
},
{
"Name": "Kotvrdovice",
"PostCode": "679 07",
"Location": {
"Latitude": 49.3551,
"Longitude": 16.7844
}
},
{
"Name": "Kozárov",
"PostCode": "679 71",
"Location": {
"Latitude": 49.4438,
"Longitude": 16.4587
}
},
{
"Name": "Krasová",
"PostCode": "679 06",
"Location": {
"Latitude": 49.3614,
"Longitude": 16.7679
}
},
{
"Name": "Křeptov",
"PostCode": "679 23",
"Location": {
"Latitude": 49.4652,
"Longitude": 16.631
}
},
{
"Name": "Křetín",
"PostCode": "679 62",
"Location": {
"Latitude": 49.5631,
"Longitude": 16.5044
}
},
{
"Name": "Krhov",
"PostCode": "679 01",
"Location": {
"Latitude": 49.4603,
"Longitude": 16.5838
}
},
{
"Name": "Křtěnov",
"PostCode": "679 74",
"Location": {
"Latitude": 49.545,
"Longitude": 16.4193
}
},
{
"Name": "Křtiny",
"PostCode": "679 05",
"Location": {
"Latitude": 49.2971,
"Longitude": 16.7441
}
},
{
"Name": "Kulířov",
"PostCode": "679 06",
"Location": {
"Latitude": 49.3793,
"Longitude": 16.8468
}
},
{
"Name": "Kunčina Ves",
"PostCode": "679 71",
"Location": {
"Latitude": 49.447,
"Longitude": 16.4753
}
},
{
"Name": "Kunice",
"PostCode": "679 71",
"Location": {
"Latitude": 49.4788,
"Longitude": 16.4907
}
},
{
"Name": "Kuničky",
"PostCode": "679 02",
"Location": {
"Latitude": 49.4353,
"Longitude": 16.6795
}
},
{
"Name": "Kunštát",
"PostCode": "679 72",
"Location": {
"Latitude": 49.5065,
"Longitude": 16.5172
}
},
{
"Name": "Lačnov",
"PostCode": "679 71",
"Location": {
"Latitude": 49.45,
"Longitude": 16.5038
}
},
{
"Name": "Lažánky",
"PostCode": "678 01",
"Location": {
"Latitude": 49.3508,
"Longitude": 16.7091
}
},
{
"Name": "Lažany",
"PostCode": "679 22",
"Location": {
"Latitude": 49.3536,
"Longitude": 16.5506
}
},
{
"Name": "Lazinov",
"PostCode": "679 62",
"Location": {
"Latitude": 49.5638,
"Longitude": 16.5234
}
},
{
"Name": "Letovice",
"PostCode": "679 61",
"Location": {
"Latitude": 49.5471,
"Longitude": 16.5736
}
},
{
"Name": "Lhota",
"PostCode": "679 61",
"Location": {
"Latitude": 49.4652,
"Longitude": 16.631
}
},
{
"Name": "Lhota Rapotina",
"PostCode": "679 01",
"Location": {
"Latitude": 49.466,
"Longitude": 16.6248
}
},
{
"Name": "Lhota u Lysic",
"PostCode": "679 71",
"Location": {
"Latitude": 49.4697,
"Longitude": 16.4968
}
},
{
"Name": "Lhota u Olešnice",
"PostCode": "679 74",
"Location": {
"Latitude": 49.5448,
"Longitude": 16.3907
}
},
{
"Name": "Lipovec",
"PostCode": "679 15",
"Location": {
"Latitude": 49.3839,
"Longitude": 16.8058
}
},
{
"Name": "Lipůvka",
"PostCode": "679 22",
"Location": {
"Latitude": 49.3393,
"Longitude": 16.5531
}
},
{
"Name": "Lomnice",
"PostCode": "679 23",
"Location": {
"Latitude": 49.4652,
"Longitude": 16.631
}
},
{
"Name": "Louka",
"PostCode": "679 74",
"Location": {
"Latitude": 49.5292,
"Longitude": 16.431
}
},
{
"Name": "Lubě",
"PostCode": "679 21",
"Location": {
"Latitude": 49.3962,
"Longitude": 16.526
}
},
{
"Name": "Ludíkov",
"PostCode": "680 01",
"Location": {
"Latitude": 49.4554,
"Longitude": 16.7318
}
},
{
"Name": "Lysice",
"PostCode": "679 71",
"Location": {
"Latitude": 49.4516,
"Longitude": 16.5372
}
},
{
"Name": "Makov",
"PostCode": "679 72",
"Location": {
"Latitude": 49.5191,
"Longitude": 16.4837
}
},
{
"Name": "Malá Lhota",
"PostCode": "679 21",
"Location": {
"Latitude": 49.3919,
"Longitude": 16.5495
}
},
{
"Name": "Malá Roudka",
"PostCode": "679 63",
"Location": {
"Latitude": 49.6017,
"Longitude": 16.6445
}
},
{
"Name": "Marianín",
"PostCode": "679 06",
"Location": {
"Latitude": 49.3906,
"Longitude": 16.8364
}
},
{
"Name": "Meziříčko",
"PostCode": "679 61",
"Location": {
"Latitude": 49.5661,
"Longitude": 16.5561
}
},
{
"Name": "Míchov",
"PostCode": "679 61",
"Location": {
"Latitude": 49.524,
"Longitude": 16.6158
}
},
{
"Name": "Milonice",
"PostCode": "679 22",
"Location": {
"Latitude": 49.3673,
"Longitude": 16.5666
}
},
{
"Name": "Mladkov",
"PostCode": "679 01",
"Location": {
"Latitude": 49.4887,
"Longitude": 16.6178
}
},
{
"Name": "Molenburk",
"PostCode": "679 13",
"Location": {
"Latitude": 49.4329,
"Longitude": 16.8126
}
},
{
"Name": "Němčice",
"PostCode": "679 51",
"Location": {
"Latitude": 49.4492,
"Longitude": 16.7151
}
},
{
"Name": "Novičí",
"PostCode": "679 61",
"Location": {
"Latitude": 49.5826,
"Longitude": 16.5964
}
},
{
"Name": "Nýrov",
"PostCode": "679 72",
"Location": {
"Latitude": 49.5253,
"Longitude": 16.5426
}
},
{
"Name": "Obora",
"PostCode": "679 01",
"Location": {
"Latitude": 49.4522,
"Longitude": 16.6056
}
},
{
"Name": "Obůrka",
"PostCode": "678 01",
"Location": {
"Latitude": 49.3589,
"Longitude": 16.651
}
},
{
"Name": "Ochoz u Tišnova",
"PostCode": "679 23",
"Location": {
"Latitude": 49.4652,
"Longitude": 16.631
}
},
{
"Name": "Okrouhlá",
"PostCode": "680 01",
"Location": {
"Latitude": 49.5075,
"Longitude": 16.732
}
},
{
"Name": "Olešná",
"PostCode": "678 01",
"Location": {
"Latitude": 49.3402,
"Longitude": 16.6369
}
},
{
"Name": "Olešnice",
"PostCode": "679 74",
"Location": {
"Latitude": 49.5576,
"Longitude": 16.4217
}
},
{
"Name": "Olomučany",
"PostCode": "679 03",
"Location": {
"Latitude": 49.3309,
"Longitude": 16.6717
}
},
{
"Name": "Osiky",
"PostCode": "679 23",
"Location": {
"Latitude": 49.4652,
"Longitude": 16.631
}
},
{
"Name": "Ostrov u Macochy",
"PostCode": "679 14",
"Location": {
"Latitude": 49.3824,
"Longitude": 16.7627
}
},
{
"Name": "Pamětice",
"PostCode": "679 61",
"Location": {
"Latitude": 49.5495,
"Longitude": 16.6445
}
},
{
"Name": "Petrov",
"PostCode": "679 62",
"Location": {
"Latitude": 49.5337,
"Longitude": 16.4896
}
},
{
"Name": "Petrovice",
"PostCode": "679 02",
"Location": {
"Latitude": 49.4119,
"Longitude": 16.6997
}
},
{
"Name": "Podolí",
"PostCode": "679 61",
"Location": {
"Latitude": 49.5307,
"Longitude": 16.6176
}
},
{
"Name": "Prostřední Poříčí",
"PostCode": "679 62",
"Location": {
"Latitude": 49.5722,
"Longitude": 16.4975
}
},
{
"Name": "Rájec",
"PostCode": "679 02",
"Location": {
"Latitude": 49.4167,
"Longitude": 16.6333
}
},
{
"Name": "Ráječko",
"PostCode": "679 02",
"Location": {
"Latitude": 49.3939,
"Longitude": 16.645
}
},
{
"Name": "Rašov",
"PostCode": "679 23",
"Location": {
"Latitude": 49.4652,
"Longitude": 16.631
}
},
{
"Name": "Řepka",
"PostCode": "679 23",
"Location": {
"Latitude": 49.4652,
"Longitude": 16.631
}
},
{
"Name": "Rohozec",
"PostCode": "679 23",
"Location": {
"Latitude": 49.4652,
"Longitude": 16.631
}
},
{
"Name": "Roubanina",
"PostCode": "679 61",
"Location": {
"Latitude": 49.6154,
"Longitude": 16.5941
}
},
{
"Name": "Rozseč nad Kunštátem",
"PostCode": "679 73",
"Location": {
"Latitude": 49.5244,
"Longitude": 16.463
}
},
{
"Name": "Rozsíčka",
"PostCode": "679 74",
"Location": {
"Latitude": 49.5523,
"Longitude": 16.467
}
},
{
"Name": "Rudice",
"PostCode": "679 06",
"Location": {
"Latitude": 49.3372,
"Longitude": 16.7258
}
},
{
"Name": "Rudka",
"PostCode": "679 72",
"Location": {
"Latitude": 49.5206,
"Longitude": 16.5134
}
},
{
"Name": "Rumberk",
"PostCode": "679 61",
"Location": {
"Latitude": 49.5692,
"Longitude": 16.5684
}
},
{
"Name": "Sasina",
"PostCode": "679 32",
"Location": {
"Latitude": 49.5143,
"Longitude": 16.5841
}
},
{
"Name": "Šebetov",
"PostCode": "679 35",
"Location": {
"Latitude": 49.5486,
"Longitude": 16.7116
}
},
{
"Name": "Sebranice",
"PostCode": "679 31",
"Location": {
"Latitude": 49.4948,
"Longitude": 16.5884
}
},
{
"Name": "Šebrov",
"PostCode": "679 22",
"Location": {
"Latitude": 49.3298,
"Longitude": 16.5976
}
},
{
"Name": "Senetářov",
"PostCode": "679 06",
"Location": {
"Latitude": 49.3547,
"Longitude": 16.8039
}
},
{
"Name": "Skalice nad Svitavou",
"PostCode": "679 01",
"Location": {
"Latitude": 49.4811,
"Longitude": 16.6036
}
},
{
"Name": "Skočova Lhota",
"PostCode": "679 63",
"Location": {
"Latitude": 49.6063,
"Longitude": 16.6497
}
},
{
"Name": "Skrchov",
"PostCode": "679 65",
"Location": {
"Latitude": 49.5777,
"Longitude": 16.5494
}
},
{
"Name": "Skřib",
"PostCode": "679 61",
"Location": {
"Latitude": 49.5906,
"Longitude": 16.5438
}
},
{
"Name": "Slatinka",
"PostCode": "679 61",
"Location": {
"Latitude": 49.5757,
"Longitude": 16.572
}
},
{
"Name": "Sloup",
"PostCode": "679 13",
"Location": {
"Latitude": 49.4148,
"Longitude": 16.7395
}
},
{
"Name": "Šošůvka",
"PostCode": "679 13",
"Location": {
"Latitude": 49.4105,
"Longitude": 16.7519
}
},
{
"Name": "Spešov",
"PostCode": "679 02",
"Location": {
"Latitude": 49.3948,
"Longitude": 16.6293
}
},
{
"Name": "Štěchov",
"PostCode": "679 71",
"Location": {
"Latitude": 49.4523,
"Longitude": 16.5061
}
},
{
"Name": "Strhaře",
"PostCode": "679 23",
"Location": {
"Latitude": 49.4652,
"Longitude": 16.631
}
},
{
"Name": "Stvolová",
"PostCode": "679 61",
"Location": {
"Latitude": 49.5692,
"Longitude": 16.5684
}
},
{
"Name": "Suchdol",
"PostCode": "679 13",
"Location": {
"Latitude": 49.3919,
"Longitude": 16.722
}
},
{
"Name": "Suchý",
"PostCode": "680 01",
"Location": {
"Latitude": 49.4828,
"Longitude": 16.7624
}
},
{
"Name": "Sudice",
"PostCode": "680 01",
"Location": {
"Latitude": 49.5299,
"Longitude": 16.6685
}
},
{
"Name": "Sulíkov",
"PostCode": "679 62",
"Location": {
"Latitude": 49.5466,
"Longitude": 16.4917
}
},
{
"Name": "Svárov",
"PostCode": "679 63",
"Location": {
"Latitude": 49.5918,
"Longitude": 16.6168
}
},
{
"Name": "Svatá Kateřina",
"PostCode": "678 01",
"Location": {
"Latitude": 49.3298,
"Longitude": 16.6131
}
},
{
"Name": "Světlá",
"PostCode": "679 63",
"Location": {
"Latitude": 49.5659,
"Longitude": 16.7182
}
},
{
"Name": "Svinošice",
"PostCode": "679 22",
"Location": {
"Latitude": 49.3344,
"Longitude": 16.5759
}
},
{
"Name": "Svitávka",
"PostCode": "679 32",
"Location": {
"Latitude": 49.5018,
"Longitude": 16.5979
}
},
{
"Name": "Sychotín",
"PostCode": "679 72",
"Location": {
"Latitude": 49.5049,
"Longitude": 16.4969
}
},
{
"Name": "Synalov",
"PostCode": "679 23",
"Location": {
"Latitude": 49.4652,
"Longitude": 16.631
}
},
{
"Name": "Tasovice",
"PostCode": "679 71",
"Location": {
"Latitude": 49.4959,
"Longitude": 16.4415
}
},
{
"Name": "Těchov",
"PostCode": "678 01",
"Location": {
"Latitude": 49.3773,
"Longitude": 16.6911
}
},
{
"Name": "Touboř",
"PostCode": "679 72",
"Location": {
"Latitude": 49.492,
"Longitude": 16.4961
}
},
{
"Name": "Třebětín",
"PostCode": "679 61",
"Location": {
"Latitude": 49.5588,
"Longitude": 16.589
}
},
{
"Name": "Uhřice",
"PostCode": "679 63",
"Location": {
"Latitude": 49.5951,
"Longitude": 16.735
}
},
{
"Name": "Újezd",
"PostCode": "679 72",
"Location": {
"Latitude": 49.5076,
"Longitude": 16.5395
}
},
{
"Name": "Újezd u Boskovic",
"PostCode": "680 01",
"Location": {
"Latitude": 49.4641,
"Longitude": 16.6541
}
},
{
"Name": "Újezd u Černé Hory",
"PostCode": "679 22",
"Location": {
"Latitude": 49.3686,
"Longitude": 16.5409
}
},
{
"Name": "Unín",
"PostCode": "679 24",
"Location": {
"Latitude": 49.4652,
"Longitude": 16.631
}
},
{
"Name": "Úsobrno",
"PostCode": "679 39",
"Location": {
"Latitude": 49.5889,
"Longitude": 16.7629
}
},
{
"Name": "Ústup",
"PostCode": "679 74",
"Location": {
"Latitude": 49.5649,
"Longitude": 16.4629
}
},
{
"Name": "Valchov",
"PostCode": "680 01",
"Location": {
"Latitude": 49.4702,
"Longitude": 16.7199
}
},
{
"Name": "Vanovice",
"PostCode": "679 36",
"Location": {
"Latitude": 49.5673,
"Longitude": 16.6662
}
},
{
"Name": "Vavřinec",
"PostCode": "679 13",
"Location": {
"Latitude": 49.4026,
"Longitude": 16.7198
}
},
{
"Name": "Vážany",
"PostCode": "680 01",
"Location": {
"Latitude": 49.5312,
"Longitude": 16.6887
}
},
{
"Name": "Velenov",
"PostCode": "680 01",
"Location": {
"Latitude": 49.4868,
"Longitude": 16.7328
}
},
{
"Name": "Velká Roudka",
"PostCode": "679 63",
"Location": {
"Latitude": 49.5964,
"Longitude": 16.6587
}
},
{
"Name": "Velké Opatovice",
"PostCode": "679 63",
"Location": {
"Latitude": 49.6124,
"Longitude": 16.6795
}
},
{
"Name": "Veselí",
"PostCode": "679 23",
"Location": {
"Latitude": 49.4652,
"Longitude": 16.631
}
},
{
"Name": "Veselice",
"PostCode": "679 13",
"Location": {
"Latitude": 49.3961,
"Longitude": 16.7116
}
},
{
"Name": "Veselka",
"PostCode": "679 74",
"Location": {
"Latitude": 49.5792,
"Longitude": 16.4504
}
},
{
"Name": "Vilémovice",
"PostCode": "679 06",
"Location": {
"Latitude": 49.3638,
"Longitude": 16.7467
}
},
{
"Name": "Vísky",
"PostCode": "679 33",
"Location": {
"Latitude": 49.541,
"Longitude": 16.6286
}
},
{
"Name": "Vlkov",
"PostCode": "679 61",
"Location": {
"Latitude": 49.5849,
"Longitude": 16.5295
}
},
{
"Name": "Voděrady",
"PostCode": "679 01",
"Location": {
"Latitude": 49.4815,
"Longitude": 16.5579
}
},
{
"Name": "Vranová",
"PostCode": "679 62",
"Location": {
"Latitude": 49.554,
"Longitude": 16.5248
}
},
{
"Name": "Vratíkov",
"PostCode": "680 01",
"Location": {
"Latitude": 49.5,
"Longitude": 16.7167
}
},
{
"Name": "Vřesice",
"PostCode": "679 62",
"Location": {
"Latitude": 49.5616,
"Longitude": 16.5002
}
},
{
"Name": "Vysočany",
"PostCode": "679 13",
"Location": {
"Latitude": 49.4329,
"Longitude": 16.8126
}
},
{
"Name": "Zábludov",
"PostCode": "679 61",
"Location": {
"Latitude": 49.5406,
"Longitude": 16.5463
}
},
{
"Name": "Závist",
"PostCode": "679 22",
"Location": {
"Latitude": 49.3752,
"Longitude": 16.572
}
},
{
"Name": "Zboněk",
"PostCode": "679 61",
"Location": {
"Latitude": 49.5236,
"Longitude": 16.5859
}
},
{
"Name": "Zbraslavec",
"PostCode": "679 72",
"Location": {
"Latitude": 49.4839,
"Longitude": 16.5284
}
},
{
"Name": "Žďár",
"PostCode": "679 02",
"Location": {
"Latitude": 49.4216,
"Longitude": 16.6978
}
},
{
"Name": "Žďárná",
"PostCode": "679 52",
"Location": {
"Latitude": 49.4686,
"Longitude": 16.7585
}
},
{
"Name": "Žernovník",
"PostCode": "679 21",
"Location": {
"Latitude": 49.4069,
"Longitude": 16.5455
}
},
{
"Name": "Žerůtky",
"PostCode": "679 71",
"Location": {
"Latitude": 49.4403,
"Longitude": 16.5367
}
},
{
"Name": "Zhoř",
"PostCode": "679 23",
"Location": {
"Latitude": 49.4652,
"Longitude": 16.631
}
},
{
"Name": "Žleby",
"PostCode": "679 23",
"Location": {
"Latitude": 49.4652,
"Longitude": 16.631
}
}
]
}
]
},
{
"Name": "Brno-město",
"Code": "3702",
"Communities": [
{
"Places": [
{
"Name": "Bohunice",
"PostCode": "625 00",
"Location": {
"Latitude": 49.1673,
"Longitude": 16.5775
}
},
{
"Name": "Bosonohy",
"PostCode": "642 00",
"Location": {
"Latitude": 49.1753,
"Longitude": 16.5274
}
},
{
"Name": "Brněnské Ivanovice",
"PostCode": "620 00",
"Location": {
"Latitude": 49.1526,
"Longitude": 16.6556
}
},
{
"Name": "Brno-Bohunice",
"PostCode": "625 00",
"Location": {
"Latitude": 49.1673,
"Longitude": 16.5775
}
},
{
"Name": "Brno-Bosonohy",
"PostCode": "642 00",
"Location": {
"Latitude": 49.1753,
"Longitude": 16.5274
}
},
{
"Name": "Brno-Brněnské Ivanovice",
"PostCode": "620 00",
"Location": {
"Latitude": 49.1526,
"Longitude": 16.6556
}
},
{
"Name": "Brno-Brno Město",
"PostCode": "602 00",
"Location": {
"Latitude": 49.2067,
"Longitude": 16.5888
}
},
{
"Name": "Brno-Bystrc",
"PostCode": "635 00",
"Location": {
"Latitude": 49.2265,
"Longitude": 16.5303
}
},
{
"Name": "Brno-Černá Pole",
"PostCode": "613 00",
"Location": {
"Latitude": 49.209,
"Longitude": 16.6163
}
},
{
"Name": "Brno-Černovice",
"PostCode": "618 00",
"Location": {
"Latitude": 49.1823,
"Longitude": 16.6372
}
},
{
"Name": "Brno-Chrlice",
"PostCode": "643 00",
"Location": {
"Latitude": 49.1319,
"Longitude": 16.6537
}
},
{
"Name": "Brno-Dolní Heršpice",
"PostCode": "619 00",
"Location": {
"Latitude": 49.1518,
"Longitude": 16.6228
}
},
{
"Name": "Brno-Dvorska",
"PostCode": "620 00",
"Location": {
"Latitude": 49.1408,
"Longitude": 16.7006
}
},
{
"Name": "Brno-Holásky",
"PostCode": "620 00",
"Location": {
"Latitude": 49.1435,
"Longitude": 16.6513
}
},
{
"Name": "Brno-Horní Heršpice",
"PostCode": "619 00",
"Location": {
"Latitude": 49.1626,
"Longitude": 16.6129
}
},
{
"Name": "Brno-Husovice",
"PostCode": "614 00",
"Location": {
"Latitude": 49.2113,
"Longitude": 16.6309
}
},
{
"Name": "Brno-Ivanovice",
"PostCode": "621 00",
"Location": {
"Latitude": 49.2611,
"Longitude": 16.5869
}
},
{
"Name": "Brno-Jehnice",
"PostCode": "621 00",
"Location": {
"Latitude": 49.2717,
"Longitude": 16.5953
}
},
{
"Name": "Brno-Jundrov",
"PostCode": "637 00",
"Location": {
"Latitude": 49.2089,
"Longitude": 16.5528
}
},
{
"Name": "Brno-Kníničky",
"PostCode": "635 00",
"Location": {
"Latitude": 49.236,
"Longitude": 16.5274
}
},
{
"Name": "Brno-Kohoutovice",
"PostCode": "623 00",
"Location": {
"Latitude": 49.1945,
"Longitude": 16.5415
}
},
{
"Name": "Brno-Komárov",
"PostCode": "617 00",
"Location": {
"Latitude": 49.1788,
"Longitude": 16.6253
}
},
{
"Name": "Brno-Komín",
"PostCode": "624 00",
"Location": {
"Latitude": 49.2197,
"Longitude": 16.5524
}
},
{
"Name": "Brno-Královo Pole",
"PostCode": "612 00",
"Location": {
"Latitude": 49.2252,
"Longitude": 16.5899
}
},
{
"Name": "Brno-Lesná",
"PostCode": "638 00",
"Location": {
"Latitude": 49.2259,
"Longitude": 16.6258
}
},
{
"Name": "Brno-Líšeň",
"PostCode": "628 00",
"Location": {
"Latitude": 49.2071,
"Longitude": 16.6948
}
},
{
"Name": "Brno-Maloměřice",
"PostCode": "614 00",
"Location": {
"Latitude": 49.2222,
"Longitude": 16.6582
}
},
{
"Name": "Brno-Medlánky",
"PostCode": "621 00",
"Location": {
"Latitude": 49.24,
"Longitude": 16.5708
}
},
{
"Name": "Brno-Město",
"PostCode": "602 00",
"Location": {
"Latitude": 49.2067,
"Longitude": 16.5888
}
},
{
"Name": "Brno-Mokrá Hora",
"PostCode": "621 00",
"Location": {
"Latitude": 49.2618,
"Longitude": 16.5911
}
},
{
"Name": "Brno-Nový Lískovec",
"PostCode": "625 00",
"Location": {
"Latitude": 49.1832,
"Longitude": 16.5612
}
},
{
"Name": "Brno-Nový Lískovec",
"PostCode": "634 00",
"Location": {
"Latitude": 49.1832,
"Longitude": 16.5612
}
},
{
"Name": "Brno-Obřany",
"PostCode": "614 00",
"Location": {
"Latitude": 49.2329,
"Longitude": 16.648
}
},
{
"Name": "Brno-Ořešín",
"PostCode": "621 00",
"Location": {
"Latitude": 49.2781,
"Longitude": 16.6063
}
},
{
"Name": "Brno-Pisárky",
"PostCode": "623 00",
"Location": {
"Latitude": 49.1961,
"Longitude": 16.5751
}
},
{
"Name": "Brno-Ponava",
"PostCode": "602 00",
"Location": {
"Latitude": 49.2137,
"Longitude": 16.6026
}
},
{
"Name": "Brno-Přízřenice",
"PostCode": "619 00",
"Location": {
"Latitude": 49.1439,
"Longitude": 16.6228
}
},
{
"Name": "Brno-Řečkovice",
"PostCode": "621 00",
"Location": {
"Latitude": 49.2521,
"Longitude": 16.5815
}
},
{
"Name": "Brno-Sadová",
"PostCode": "612 00",
"Location": {
"Latitude": 49.2067,
"Longitude": 16.5888
}
},
{
"Name": "Brno-Slatina",
"PostCode": "627 00",
"Location": {
"Latitude": 49.176,
"Longitude": 16.6878
}
},
{
"Name": "Brno-Soběšice",
"PostCode": "644 00",
"Location": {
"Latitude": 49.2536,
"Longitude": 16.6209
}
},
{
"Name": "Brno-Staré Brno",
"PostCode": "603 00",
"Location": {
"Latitude": 49.1885,
"Longitude": 16.5975
}
},
{
"Name": "Brno-Starý Lískovec",
"PostCode": "625 00",
"Location": {
"Latitude": 49.2067,
"Longitude": 16.5888
}
},
{
"Name": "Brno-Stránice",
"PostCode": "602 00",
"Location": {
"Latitude": 49.2017,
"Longitude": 16.5799
}
},
{
"Name": "Brno-Štýřice",
"PostCode": "639 00",
"Location": {
"Latitude": 49.1793,
"Longitude": 16.5949
}
},
{
"Name": "Brno-Trnitá",
"PostCode": "602 00",
"Location": {
"Latitude": 49.2067,
"Longitude": 16.5888
}
},
{
"Name": "Brno-Tuřany",
"PostCode": "620 00",
"Location": {
"Latitude": 49.1476,
"Longitude": 16.668
}
},
{
"Name": "Brno-Útěchov",
"PostCode": "644 00",
"Location": {
"Latitude": 49.2871,
"Longitude": 16.6307
}
},
{
"Name": "Brno-Veveří",
"PostCode": "602 00",
"Location": {
"Latitude": 49.203,
"Longitude": 16.5979
}
},
{
"Name": "Brno-Vinohrady",
"PostCode": "628 00",
"Location": {
"Latitude": 49.2066,
"Longitude": 16.6632
}
},
{
"Name": "Brno-Žabovřesky",
"PostCode": "616 00",
"Location": {
"Latitude": 49.214,
"Longitude": 16.5725
}
},
{
"Name": "Brno-Zábrdovice",
"PostCode": "615 00",
"Location": {
"Latitude": 49.1993,
"Longitude": 16.622
}
},
{
"Name": "Brno-Žebětín",
"PostCode": "641 00",
"Location": {
"Latitude": 49.2071,
"Longitude": 16.4879
}
},
{
"Name": "Brno-Židenice",
"PostCode": "615 00",
"Location": {
"Latitude": 49.1965,
"Longitude": 16.6474
}
},
{
"Name": "Brno-Židenice",
"PostCode": "636 00",
"Location": {
"Latitude": 49.1965,
"Longitude": 16.6474
}
},
{
"Name": "Bystrc",
"PostCode": "635 00",
"Location": {
"Latitude": 49.2265,
"Longitude": 16.5303
}
},
{
"Name": "Černá Pole",
"PostCode": "613 00",
"Location": {
"Latitude": 49.209,
"Longitude": 16.6163
}
},
{
"Name": "Černovice",
"PostCode": "618 00",
"Location": {
"Latitude": 49.1823,
"Longitude": 16.6372
}
},
{
"Name": "Chrlice",
"PostCode": "643 00",
"Location": {
"Latitude": 49.1319,
"Longitude": 16.6537
}
},
{
"Name": "Dolní Heršpice",
"PostCode": "619 00",
"Location": {
"Latitude": 49.1518,
"Longitude": 16.6228
}
},
{
"Name": "Dvorska",
"PostCode": "620 00",
"Location": {
"Latitude": 49.1408,
"Longitude": 16.7006
}
},
{
"Name": "Holásky",
"PostCode": "620 00",
"Location": {
"Latitude": 49.1435,
"Longitude": 16.6513
}
},
{
"Name": "Horní Heršpice",
"PostCode": "619 00",
"Location": {
"Latitude": 49.1626,
"Longitude": 16.6129
}
},
{
"Name": "Husovice",
"PostCode": "614 00",
"Location": {
"Latitude": 49.2113,
"Longitude": 16.6309
}
},
{
"Name": "Ivanovice",
"PostCode": "621 00",
"Location": {
"Latitude": 49.2642,
"Longitude": 16.5655
}
},
{
"Name": "Jehnice",
"PostCode": "621 00",
"Location": {
"Latitude": 49.2717,
"Longitude": 16.5953
}
},
{
"Name": "Jundrov",
"PostCode": "637 00",
"Location": {
"Latitude": 49.2089,
"Longitude": 16.5528
}
},
{
"Name": "Kníničky",
"PostCode": "635 00",
"Location": {
"Latitude": 49.236,
"Longitude": 16.5274
}
},
{
"Name": "Kohoutovice",
"PostCode": "623 00",
"Location": {
"Latitude": 49.1945,
"Longitude": 16.5415
}
},
{
"Name": "Komárov",
"PostCode": "617 00",
"Location": {
"Latitude": 49.1788,
"Longitude": 16.6253
}
},
{
"Name": "Komín",
"PostCode": "624 00",
"Location": {
"Latitude": 49.2197,
"Longitude": 16.5524
}
},
{
"Name": "Královo Pole",
"PostCode": "612 00",
"Location": {
"Latitude": 49.2252,
"Longitude": 16.5899
}
},
{
"Name": "Lesná",
"PostCode": "638 00",
"Location": {
"Latitude": 49.2259,
"Longitude": 16.6258
}
},
{
"Name": "Líšeň",
"PostCode": "628 00",
"Location": {
"Latitude": 49.2071,
"Longitude": 16.6948
}
},
{
"Name": "Maloměřice",
"PostCode": "614 00",
"Location": {
"Latitude": 49.2222,
"Longitude": 16.6582
}
},
{
"Name": "Medlánky",
"PostCode": "621 00",
"Location": {
"Latitude": 49.24,
"Longitude": 16.5708
}
},
{
"Name": "Mokrá Hora",
"PostCode": "621 00",
"Location": {
"Latitude": 49.2618,
"Longitude": 16.5911
}
},
{
"Name": "Nový Lískovec",
"PostCode": "625 00",
"Location": {
"Latitude": 49.1832,
"Longitude": 16.5612
}
},
{
"Name": "Nový Lískovec",
"PostCode": "634 00",
"Location": {
"Latitude": 49.1832,
"Longitude": 16.5612
}
},
{
"Name": "Obřany",
"PostCode": "614 00",
"Location": {
"Latitude": 49.2329,
"Longitude": 16.648
}
},
{
"Name": "Ořešín",
"PostCode": "621 00",
"Location": {
"Latitude": 49.2781,
"Longitude": 16.6063
}
},
{
"Name": "Pisárky",
"PostCode": "623 00",
"Location": {
"Latitude": 49.1961,
"Longitude": 16.5751
}
},
{
"Name": "Ponava",
"PostCode": "602 00",
"Location": {
"Latitude": 49.2137,
"Longitude": 16.6026
}
},
{
"Name": "Přízřenice",
"PostCode": "619 00",
"Location": {
"Latitude": 49.1439,
"Longitude": 16.6228
}
},
{
"Name": "Řečkovice",
"PostCode": "621 00",
"Location": {
"Latitude": 49.2521,
"Longitude": 16.5815
}
},
{
"Name": "Sadová",
"PostCode": "612 00",
"Location": {
"Latitude": 49.2067,
"Longitude": 16.5888
}
},
{
"Name": "Slatina",
"PostCode": "627 00",
"Location": {
"Latitude": 49.176,
"Longitude": 16.6878
}
},
{
"Name": "Soběšice",
"PostCode": "644 00",
"Location": {
"Latitude": 49.2536,
"Longitude": 16.6209
}
},
{
"Name": "Staré Brno",
"PostCode": "603 00",
"Location": {
"Latitude": 49.1885,
"Longitude": 16.5975
}
},
{
"Name": "Starý Lískovec",
"PostCode": "625 00",
"Location": {
"Latitude": 49.2067,
"Longitude": 16.5888
}
},
{
"Name": "Stránice",
"PostCode": "602 00",
"Location": {
"Latitude": 49.2017,
"Longitude": 16.5799
}
},
{
"Name": "Štýřice",
"PostCode": "639 00",
"Location": {
"Latitude": 49.1793,
"Longitude": 16.5949
}
},
{
"Name": "Trnitá",
"PostCode": "602 00",
"Location": {
"Latitude": 49.2067,
"Longitude": 16.5888
}
},
{
"Name": "Tuřany",
"PostCode": "620 00",
"Location": {
"Latitude": 49.1476,
"Longitude": 16.668
}
},
{
"Name": "Útěchov",
"PostCode": "644 00",
"Location": {
"Latitude": 49.2871,
"Longitude": 16.6307
}
},
{
"Name": "Veveří",
"PostCode": "602 00",
"Location": {
"Latitude": 49.203,
"Longitude": 16.5979
}
},
{
"Name": "Vinohrady",
"PostCode": "628 00",
"Location": {
"Latitude": 49.2066,
"Longitude": 16.6632
}
},
{
"Name": "Žabovřesky",
"PostCode": "616 00",
"Location": {
"Latitude": 49.214,
"Longitude": 16.5725
}
},
{
"Name": "Zábrdovice",
"PostCode": "615 00",
"Location": {
"Latitude": 49.1993,
"Longitude": 16.622
}
},
{
"Name": "Žebětín",
"PostCode": "641 00",
"Location": {
"Latitude": 49.2071,
"Longitude": 16.4879
}
},
{
"Name": "Židenice",
"PostCode": "615 00",
"Location": {
"Latitude": 49.1965,
"Longitude": 16.6474
}
},
{
"Name": "Židenice",
"PostCode": "636 00",
"Location": {
"Latitude": 49.1965,
"Longitude": 16.6474
}
}
]
}
]
},
{
"Name": "Brno-venkov",
"Code": "3703",
"Communities": [
{
"Places": [
{
"Name": "Alexovice",
"PostCode": "664 91",
"Location": {
"Latitude": 49.091,
"Longitude": 16.3559
}
},
{
"Name": "Babice nad Svitavou",
"PostCode": "664 01",
"Location": {
"Latitude": 49.2833,
"Longitude": 16.6961
}
},
{
"Name": "Babice u Rosic",
"PostCode": "664 84",
"Location": {
"Latitude": 49.1732,
"Longitude": 16.3586
}
},
{
"Name": "Bedřichovice",
"PostCode": "664 51",
"Location": {
"Latitude": 49.1802,
"Longitude": 16.7202
}
},
{
"Name": "Bílovice nad Svitavou",
"PostCode": "664 01",
"Location": {
"Latitude": 49.2471,
"Longitude": 16.6725
}
},
{
"Name": "Biskoupky",
"PostCode": "664 12",
"Location": {
"Latitude": 49.0977,
"Longitude": 16.2813
}
},
{
"Name": "Blažovice",
"PostCode": "664 08",
"Location": {
"Latitude": 49.1657,
"Longitude": 16.7861
}
},
{
"Name": "Blučina",
"PostCode": "664 56",
"Location": {
"Latitude": 49.055,
"Longitude": 16.6445
}
},
{
"Name": "Braníškov",
"PostCode": "664 71",
"Location": {
"Latitude": 49.2944,
"Longitude": 16.3457
}
},
{
"Name": "Bratčice",
"PostCode": "664 67",
"Location": {
"Latitude": 49.0651,
"Longitude": 16.5231
}
},
{
"Name": "Březina",
"PostCode": "666 01",
"Location": {
"Latitude": 49.3212,
"Longitude": 16.4214
}
},
{
"Name": "Budkovice",
"PostCode": "664 91",
"Location": {
"Latitude": 49.0721,
"Longitude": 16.3478
}
},
{
"Name": "Čebín",
"PostCode": "664 23",
"Location": {
"Latitude": 49.3132,
"Longitude": 16.4779
}
},
{
"Name": "Česká",
"PostCode": "664 31",
"Location": {
"Latitude": 49.2801,
"Longitude": 16.5654
}
},
{
"Name": "Chudčice",
"PostCode": "664 71",
"Location": {
"Latitude": 49.2885,
"Longitude": 16.4587
}
},
{
"Name": "Čížky",
"PostCode": "666 01",
"Location": {
"Latitude": 49.3289,
"Longitude": 16.3657
}
},
{
"Name": "Čučice",
"PostCode": "664 12",
"Location": {
"Latitude": 49.1371,
"Longitude": 16.2786
}
},
{
"Name": "Deblín",
"PostCode": "664 75",
"Location": {
"Latitude": 49.3204,
"Longitude": 16.3464
}
},
{
"Name": "Dolní Kounice",
"PostCode": "664 64",
"Location": {
"Latitude": 49.0701,
"Longitude": 16.4649
}
},
{
"Name": "Domašov",
"PostCode": "664 83",
"Location": {
"Latitude": 49.2453,
"Longitude": 16.3438
}
},
{
"Name": "Drásov",
"PostCode": "664 24",
"Location": {
"Latitude": 49.3318,
"Longitude": 16.478
}
},
{
"Name": "Hajánky",
"PostCode": "666 01",
"Location": {
"Latitude": 49.3712,
"Longitude": 16.4682
}
},
{
"Name": "Hajany",
"PostCode": "664 43",
"Location": {
"Latitude": 49.1108,
"Longitude": 16.555
}
},
{
"Name": "Hájek",
"PostCode": "666 01",
"Location": {
"Latitude": 49.3725,
"Longitude": 16.4745
}
},
{
"Name": "Heroltice",
"PostCode": "666 01",
"Location": {
"Latitude": 49.3114,
"Longitude": 16.4128
}
},
{
"Name": "Hlína",
"PostCode": "664 91",
"Location": {
"Latitude": 49.1136,
"Longitude": 16.4262
}
},
{
"Name": "Holasice",
"PostCode": "664 61",
"Location": {
"Latitude": 49.0759,
"Longitude": 16.6076
}
},
{
"Name": "Holasice",
"PostCode": "664 71",
"Location": {
"Latitude": 49.2824,
"Longitude": 16.4067
}
},
{
"Name": "Horákov",
"PostCode": "664 04",
"Location": {
"Latitude": 49.2259,
"Longitude": 16.7497
}
},
{
"Name": "Hostěnice",
"PostCode": "664 02",
"Location": {
"Latitude": 49.2365,
"Longitude": 16.7765
}
},
{
"Name": "Hradčany",
"PostCode": "666 03",
"Location": {
"Latitude": 49.3279,
"Longitude": 16.4422
}
},
{
"Name": "Hrubšice",
"PostCode": "664 91",
"Location": {
"Latitude": 49.0917,
"Longitude": 16.3037
}
},
{
"Name": "Hrušovany u Brna",
"PostCode": "664 62",
"Location": {
"Latitude": 49.0386,
"Longitude": 16.5943
}
},
{
"Name": "Hvozdec",
"PostCode": "664 71",
"Location": {
"Latitude": 49.2469,
"Longitude": 16.4252
}
},
{
"Name": "Ivančice",
"PostCode": "664 91",
"Location": {
"Latitude": 49.1014,
"Longitude": 16.3775
}
},
{
"Name": "Jamné",
"PostCode": "666 01",
"Location": {
"Latitude": 49.3794,
"Longitude": 16.4626
}
},
{
"Name": "Javůrek",
"PostCode": "664 83",
"Location": {
"Latitude": 49.2555,
"Longitude": 16.3622
}
},
{
"Name": "Jinačovice",
"PostCode": "664 34",
"Location": {
"Latitude": 49.2679,
"Longitude": 16.5276
}
},
{
"Name": "Jiříkovice",
"PostCode": "664 51",
"Location": {
"Latitude": 49.1667,
"Longitude": 16.758
}
},
{
"Name": "Kanice",
"PostCode": "664 01",
"Location": {
"Latitude": 49.2637,
"Longitude": 16.7145
}
},
{
"Name": "Ketkovice",
"PostCode": "664 12",
"Location": {
"Latitude": 49.1591,
"Longitude": 16.2625
}
},
{
"Name": "Kobylnice",
"PostCode": "664 51",
"Location": {
"Latitude": 49.138,
"Longitude": 16.7318
}
},
{
"Name": "Kovalovice",
"PostCode": "664 06",
"Location": {
"Latitude": 49.2046,
"Longitude": 16.819
}
},
{
"Name": "Kratochvilka",
"PostCode": "664 91",
"Location": {
"Latitude": 49.1567,
"Longitude": 16.3764
}
},
{
"Name": "Kupařovice",
"PostCode": "664 64",
"Location": {
"Latitude": 49.0432,
"Longitude": 16.4907
}
},
{
"Name": "Kuřim",
"PostCode": "664 34",
"Location": {
"Latitude": 49.2985,
"Longitude": 16.5314
}
},
{
"Name": "Kývalka",
"PostCode": "665 01",
"Location": {
"Latitude": 49.1795,
"Longitude": 16.4969
}
},
{
"Name": "Lažánky",
"PostCode": "664 71",
"Location": {
"Latitude": 49.2792,
"Longitude": 16.3873
}
},
{
"Name": "Ledce",
"PostCode": "664 62",
"Location": {
"Latitude": 49.0515,
"Longitude": 16.557
}
},
{
"Name": "Lelekovice",
"PostCode": "664 31",
"Location": {
"Latitude": 49.2914,
"Longitude": 16.5787
}
},
{
"Name": "Lesní Hluboké",
"PostCode": "664 83",
"Location": {
"Latitude": 49.2687,
"Longitude": 16.3068
}
},
{
"Name": "Letkovice",
"PostCode": "664 91",
"Location": {
"Latitude": 49.0952,
"Longitude": 16.358
}
},
{
"Name": "Lhotky",
"PostCode": "664 02",
"Location": {
"Latitude": 49.1795,
"Longitude": 16.4969
}
},
{
"Name": "Litostrov",
"PostCode": "664 83",
"Location": {
"Latitude": 49.2244,
"Longitude": 16.3294
}
},
{
"Name": "Lomnička",
"PostCode": "666 01",
"Location": {
"Latitude": 49.367,
"Longitude": 16.4312
}
},
{
"Name": "Lukovany",
"PostCode": "664 84",
"Location": {
"Latitude": 49.1625,
"Longitude": 16.2978
}
},
{
"Name": "Malešovice",
"PostCode": "664 65",
"Location": {
"Latitude": 49.0236,
"Longitude": 16.5013
}
},
{
"Name": "Malhostovice",
"PostCode": "666 03",
"Location": {
"Latitude": 49.3336,
"Longitude": 16.5022
}
},
{
"Name": "Maršov",
"PostCode": "664 71",
"Location": {
"Latitude": 49.2837,
"Longitude": 16.3597
}
},
{
"Name": "Medlov",
"PostCode": "664 66",
"Location": {
"Latitude": 49.0351,
"Longitude": 16.5224
}
},
{
"Name": "Mělčany",
"PostCode": "664 64",
"Location": {
"Latitude": 49.0761,
"Longitude": 16.4922
}
},
{
"Name": "Měnín",
"PostCode": "664 57",
"Location": {
"Latitude": 49.0824,
"Longitude": 16.6942
}
},
{
"Name": "Modřice",
"PostCode": "664 42",
"Location": {
"Latitude": 49.1193,
"Longitude": 16.6045
}
},
{
"Name": "Mokrá",
"PostCode": "664 04",
"Location": {
"Latitude": 49.2333,
"Longitude": 16.75
}
},
{
"Name": "Mokrá-Horákov",
"PostCode": "664 04",
"Location": {
"Latitude": 49.2296,
"Longitude": 16.7498
}
},
{
"Name": "Moravany",
"PostCode": "664 48",
"Location": {
"Latitude": 49.1478,
"Longitude": 16.5803
}
},
{
"Name": "Moravské Bránice",
"PostCode": "664 64",
"Location": {
"Latitude": 49.0833,
"Longitude": 16.4363
}
},
{
"Name": "Moravské Knínice",
"PostCode": "664 34",
"Location": {
"Latitude": 49.2933,
"Longitude": 16.5017
}
},
{
"Name": "Moutnice",
"PostCode": "664 55",
"Location": {
"Latitude": 49.0492,
"Longitude": 16.7374
}
},
{
"Name": "Nebovidy",
"PostCode": "664 48",
"Location": {
"Latitude": 49.1422,
"Longitude": 16.5541
}
},
{
"Name": "Nelepeč",
"PostCode": "666 01",
"Location": {
"Latitude": 49.3421,
"Longitude": 16.3765
}
},
{
"Name": "Němčice",
"PostCode": "664 91",
"Location": {
"Latitude": 49.095,
"Longitude": 16.3682
}
},
{
"Name": "Němčičky",
"PostCode": "664 66",
"Location": {
"Latitude": 49.0504,
"Longitude": 16.5006
}
},
{
"Name": "Neslovice",
"PostCode": "664 91",
"Location": {
"Latitude": 49.1422,
"Longitude": 16.3878
}
},
{
"Name": "Nesvačilka",
"PostCode": "664 54",
"Location": {
"Latitude": 49.064,
"Longitude": 16.754
}
},
{
"Name": "Nová Ves",
"PostCode": "664 12",
"Location": {
"Latitude": 49.1081,
"Longitude": 16.3108
}
},
{
"Name": "Nové Bránice",
"PostCode": "664 64",
"Location": {
"Latitude": 49.0711,
"Longitude": 16.4418
}
},
{
"Name": "Nuzířov",
"PostCode": "666 03",
"Location": {
"Latitude": 49.3446,
"Longitude": 16.5194
}
},
{
"Name": "Ochoz u Brna",
"PostCode": "664 02",
"Location": {
"Latitude": 49.2545,
"Longitude": 16.7373
}
},
{
"Name": "Odrovice",
"PostCode": "664 64",
"Location": {
"Latitude": 49.0108,
"Longitude": 16.509
}
},
{
"Name": "Omice",
"PostCode": "664 41",
"Location": {
"Latitude": 49.1699,
"Longitude": 16.4517
}
},
{
"Name": "Opatovice",
"PostCode": "664 61",
"Location": {
"Latitude": 49.075,
"Longitude": 16.641
}
},
{
"Name": "Ořechov",
"PostCode": "664 44",
"Location": {
"Latitude": 49.1112,
"Longitude": 16.5233
}
},
{
"Name": "Oslavany",
"PostCode": "664 12",
"Location": {
"Latitude": 49.1233,
"Longitude": 16.3365
}
},
{
"Name": "Ostopovice",
"PostCode": "664 49",
"Location": {
"Latitude": 49.161,
"Longitude": 16.5455
}
},
{
"Name": "Ostrovačice",
"PostCode": "664 81",
"Location": {
"Latitude": 49.2108,
"Longitude": 16.4095
}
},
{
"Name": "Otmarov",
"PostCode": "664 57",
"Location": {
"Latitude": 49.1005,
"Longitude": 16.6727
}
},
{
"Name": "Padochov",
"PostCode": "664 12",
"Location": {
"Latitude": 49.1353,
"Longitude": 16.3534
}
},
{
"Name": "Pejškov",
"PostCode": "666 01",
"Location": {
"Latitude": 49.315,
"Longitude": 16.3779
}
},
{
"Name": "Podolí",
"PostCode": "664 03",
"Location": {
"Latitude": 49.1904,
"Longitude": 16.7208
}
},
{
"Name": "Ponětovice",
"PostCode": "664 51",
"Location": {
"Latitude": 49.1522,
"Longitude": 16.7423
}
},
{
"Name": "Popovice",
"PostCode": "664 61",
"Location": {
"Latitude": 49.1071,
"Longitude": 16.6161
}
},
{
"Name": "Popůvky",
"PostCode": "664 41",
"Location": {
"Latitude": 49.1774,
"Longitude": 16.4876
}
},
{
"Name": "Pozořice",
"PostCode": "664 07",
"Location": {
"Latitude": 49.2098,
"Longitude": 16.7907
}
},
{
"Name": "Prace",
"PostCode": "664 58",
"Location": {
"Latitude": 49.1411,
"Longitude": 16.7654
}
},
{
"Name": "Pravlov",
"PostCode": "664 64",
"Location": {
"Latitude": 49.0557,
"Longitude": 16.4877
}
},
{
"Name": "Předklášteří",
"PostCode": "666 02",
"Location": {
"Latitude": 49.3525,
"Longitude": 16.4024
}
},
{
"Name": "Příbram",
"PostCode": "664 84",
"Location": {
"Latitude": 49.1968,
"Longitude": 16.3
}
},
{
"Name": "Přibyslavice",
"PostCode": "664 83",
"Location": {
"Latitude": 49.2786,
"Longitude": 16.2663
}
},
{
"Name": "Přísnotice",
"PostCode": "664 63",
"Location": {
"Latitude": 49.0031,
"Longitude": 16.6135
}
},
{
"Name": "Prštice",
"PostCode": "664 46",
"Location": {
"Latitude": 49.115,
"Longitude": 16.4708
}
},
{
"Name": "Radoškov",
"PostCode": "664 83",
"Location": {
"Latitude": 49.2832,
"Longitude": 16.3049
}
},
{
"Name": "Radostice",
"PostCode": "664 46",
"Location": {
"Latitude": 49.1336,
"Longitude": 16.477
}
},
{
"Name": "Rajhrad",
"PostCode": "664 61",
"Location": {
"Latitude": 49.0902,
"Longitude": 16.6039
}
},
{
"Name": "Rajhradice",
"PostCode": "664 61",
"Location": {
"Latitude": 49.092,
"Longitude": 16.6293
}
},
{
"Name": "Rebešovice",
"PostCode": "664 61",
"Location": {
"Latitude": 49.1051,
"Longitude": 16.6352
}
},
{
"Name": "Řeznovice",
"PostCode": "664 91",
"Location": {
"Latitude": 49.0851,
"Longitude": 16.3188
}
},
{
"Name": "Říčany",
"PostCode": "664 82",
"Location": {
"Latitude": 49.215,
"Longitude": 16.3936
}
},
{
"Name": "Říčky",
"PostCode": "664 83",
"Location": {
"Latitude": 49.2329,
"Longitude": 16.3558
}
},
{
"Name": "Řícmanice",
"PostCode": "664 01",
"Location": {
"Latitude": 49.2575,
"Longitude": 16.6939
}
},
{
"Name": "Rosice",
"PostCode": "665 01",
"Location": {
"Latitude": 49.1795,
"Longitude": 16.4969
}
},
{
"Name": "Rozdrojovice",
"PostCode": "664 34",
"Location": {
"Latitude": 49.2546,
"Longitude": 16.5099
}
},
{
"Name": "Rudka",
"PostCode": "664 83",
"Location": {
"Latitude": 49.2425,
"Longitude": 16.331
}
},
{
"Name": "Sentice",
"PostCode": "666 03",
"Location": {
"Latitude": 49.3108,
"Longitude": 16.4467
}
},
{
"Name": "Šerkovice",
"PostCode": "666 01",
"Location": {
"Latitude": 49.3856,
"Longitude": 16.43
}
},
{
"Name": "Silůvky",
"PostCode": "664 46",
"Location": {
"Latitude": 49.106,
"Longitude": 16.4679
}
},
{
"Name": "Sivice",
"PostCode": "664 07",
"Location": {
"Latitude": 49.2037,
"Longitude": 16.7825
}
},
{
"Name": "Skalička",
"PostCode": "666 03",
"Location": {
"Latitude": 49.3579,
"Longitude": 16.5162
}
},
{
"Name": "Šlapanice",
"PostCode": "664 51",
"Location": {
"Latitude": 49.1686,
"Longitude": 16.7273
}
},
{
"Name": "Sobotovice",
"PostCode": "664 67",
"Location": {
"Latitude": 49.0599,
"Longitude": 16.5573
}
},
{
"Name": "Sokolnice",
"PostCode": "664 52",
"Location": {
"Latitude": 49.1139,
"Longitude": 16.7216
}
},
{
"Name": "Stanoviště",
"PostCode": "664 84",
"Location": {
"Latitude": 49.2391,
"Longitude": 16.2535
}
},
{
"Name": "Štěpánovice",
"PostCode": "666 02",
"Location": {
"Latitude": 49.373,
"Longitude": 16.3876
}
},
{
"Name": "Střelice",
"PostCode": "664 47",
"Location": {
"Latitude": 49.1522,
"Longitude": 16.504
}
},
{
"Name": "Svatoslav",
"PostCode": "666 01",
"Location": {
"Latitude": 49.3018,
"Longitude": 16.3088
}
},
{
"Name": "Syrovice",
"PostCode": "664 67",
"Location": {
"Latitude": 49.0798,
"Longitude": 16.5465
}
},
{
"Name": "Telnice",
"PostCode": "664 59",
"Location": {
"Latitude": 49.1019,
"Longitude": 16.7177
}
},
{
"Name": "Těšany",
"PostCode": "664 54",
"Location": {
"Latitude": 49.0396,
"Longitude": 16.77
}
},
{
"Name": "Tetčice",
"PostCode": "664 17",
"Location": {
"Latitude": 49.1687,
"Longitude": 16.4052
}
},
{
"Name": "Tišnov",
"PostCode": "666 01",
"Location": {
"Latitude": 49.3487,
"Longitude": 16.4244
}
},
{
"Name": "Trboušany",
"PostCode": "664 64",
"Location": {
"Latitude": 49.0507,
"Longitude": 16.4628
}
},
{
"Name": "Troubsko",
"PostCode": "664 41",
"Location": {
"Latitude": 49.1695,
"Longitude": 16.5108
}
},
{
"Name": "Tvarožná",
"PostCode": "664 05",
"Location": {
"Latitude": 49.1918,
"Longitude": 16.7715
}
},
{
"Name": "Újezd u Brna",
"PostCode": "664 53",
"Location": {
"Latitude": 49.0879,
"Longitude": 16.7337
}
},
{
"Name": "Újezd u Rosic",
"PostCode": "664 84",
"Location": {
"Latitude": 49.1983,
"Longitude": 16.3075
}
},
{
"Name": "Unkovice",
"PostCode": "664 63",
"Location": {
"Latitude": 49.0192,
"Longitude": 16.604
}
},
{
"Name": "Úsuší",
"PostCode": "666 01",
"Location": {
"Latitude": 49.3347,
"Longitude": 16.356
}
},
{
"Name": "Velatice",
"PostCode": "664 05",
"Location": {
"Latitude": 49.1974,
"Longitude": 16.7536
}
},
{
"Name": "Veverská Bítýška",
"PostCode": "664 71",
"Location": {
"Latitude": 49.2759,
"Longitude": 16.4369
}
},
{
"Name": "Veverské Knínice",
"PostCode": "664 81",
"Location": {
"Latitude": 49.2369,
"Longitude": 16.4018
}
},
{
"Name": "Viničné Šumice",
"PostCode": "664 06",
"Location": {
"Latitude": 49.2136,
"Longitude": 16.8254
}
},
{
"Name": "Vohančice",
"PostCode": "666 01",
"Location": {
"Latitude": 49.3216,
"Longitude": 16.3939
}
},
{
"Name": "Vojkovice",
"PostCode": "667 01",
"Location": {
"Latitude": 49.0514,
"Longitude": 16.6082
}
},
{
"Name": "Vranov",
"PostCode": "664 32",
"Location": {
"Latitude": 49.3093,
"Longitude": 16.6138
}
},
{
"Name": "Všechovice",
"PostCode": "666 03",
"Location": {
"Latitude": 49.3571,
"Longitude": 16.4941
}
},
{
"Name": "Vysoké Popovice",
"PostCode": "664 84",
"Location": {
"Latitude": 49.183,
"Longitude": 16.2849
}
},
{
"Name": "Žabčice",
"PostCode": "664 63",
"Location": {
"Latitude": 49.0116,
"Longitude": 16.6026
}
},
{
"Name": "Zakřany",
"PostCode": "664 84",
"Location": {
"Latitude": 49.1705,
"Longitude": 16.3253
}
},
{
"Name": "Zálesná Zhoř",
"PostCode": "664 84",
"Location": {
"Latitude": 49.2502,
"Longitude": 16.2897
}
},
{
"Name": "Zastávka",
"PostCode": "664 84",
"Location": {
"Latitude": 49.188,
"Longitude": 16.3631
}
},
{
"Name": "Žatčany",
"PostCode": "664 53",
"Location": {
"Latitude": 49.0879,
"Longitude": 16.7337
}
},
{
"Name": "Závist",
"PostCode": "666 01",
"Location": {
"Latitude": 49.1795,
"Longitude": 16.4969
}
},
{
"Name": "Zbraslav",
"PostCode": "664 84",
"Location": {
"Latitude": 49.2216,
"Longitude": 16.2941
}
},
{
"Name": "Zbýšov",
"PostCode": "664 11",
"Location": {
"Latitude": 49.1552,
"Longitude": 16.3495
}
},
{
"Name": "Želešice",
"PostCode": "664 43",
"Location": {
"Latitude": 49.1169,
"Longitude": 16.5814
}
},
{
"Name": "Železné",
"PostCode": "666 01",
"Location": {
"Latitude": 49.3596,
"Longitude": 16.4504
}
},
{
"Name": "Žernůvka",
"PostCode": "666 01",
"Location": {
"Latitude": 49.3333,
"Longitude": 16.3833
}
},
{
"Name": "Židlochovice",
"PostCode": "667 01",
"Location": {
"Latitude": 49.0395,
"Longitude": 16.6188
}
}
]
}
]
},
{
"Name": "Břeclav",
"Code": "3704",
"Communities": [
{
"Places": [
{
"Name": "Bavory",
"PostCode": "692 01",
"Location": {
"Latitude": 48.8347,
"Longitude": 16.6222
}
},
{
"Name": "Bohumilice",
"PostCode": "691 72",
"Location": {
"Latitude": 49.0182,
"Longitude": 16.8945
}
},
{
"Name": "Boleradice",
"PostCode": "691 12",
"Location": {
"Latitude": 48.9667,
"Longitude": 16.8139
}
},
{
"Name": "Bořetice",
"PostCode": "691 08",
"Location": {
"Latitude": 48.913,
"Longitude": 16.8531
}
},
{
"Name": "Borkovany",
"PostCode": "691 75",
"Location": {
"Latitude": 49.0282,
"Longitude": 16.8101
}
},
{
"Name": "Břeclav",
"PostCode": "690 02",
"Location": {
"Latitude": 48.759,
"Longitude": 16.882
}
},
{
"Name": "Břeclav (Stará Břeclav)",
"PostCode": "690 03",
"Location": {
"Latitude": 48.7631,
"Longitude": 16.8643
}
},
{
"Name": "Březí",
"PostCode": "691 81",
"Location": {
"Latitude": 48.8193,
"Longitude": 16.5675
}
},
{
"Name": "Brod nad Dyjí",
"PostCode": "692 01",
"Location": {
"Latitude": 48.8752,
"Longitude": 16.5354
}
},
{
"Name": "Brumovice",
"PostCode": "691 11",
"Location": {
"Latitude": 48.9608,
"Longitude": 16.8962
}
},
{
"Name": "Bulhary",
"PostCode": "691 89",
"Location": {
"Latitude": 48.8315,
"Longitude": 16.7487
}
},
{
"Name": "Charvátská Nová Ves",
"PostCode": "690 06",
"Location": {
"Latitude": 48.7672,
"Longitude": 16.8466
}
},
{
"Name": "Cvrčovice",
"PostCode": "691 23",
"Location": {
"Latitude": 48.8554,
"Longitude": 16.7768
}
},
{
"Name": "Diváky",
"PostCode": "691 71",
"Location": {
"Latitude": 48.9887,
"Longitude": 16.7918
}
},
{
"Name": "Dobré Pole",
"PostCode": "691 81",
"Location": {
"Latitude": 48.8243,
"Longitude": 16.5352
}
},
{
"Name": "Dolní Dunajovice",
"PostCode": "691 85",
"Location": {
"Latitude": 48.8545,
"Longitude": 16.5928
}
},
{
"Name": "Dolní Věstonice",
"PostCode": "691 29",
"Location": {
"Latitude": 48.8872,
"Longitude": 16.6439
}
},
{
"Name": "Drnholec",
"PostCode": "691 83",
"Location": {
"Latitude": 48.8575,
"Longitude": 16.4859
}
},
{
"Name": "Hlohovec",
"PostCode": "691 43",
"Location": {
"Latitude": 48.774,
"Longitude": 16.7623
}
},
{
"Name": "Horní Bojanovice",
"PostCode": "693 01",
"Location": {
"Latitude": 48.9497,
"Longitude": 16.8001
}
},
{
"Name": "Horní Věstonice",
"PostCode": "692 01",
"Location": {
"Latitude": 48.8746,
"Longitude": 16.6256
}
},
{
"Name": "Hrušky",
"PostCode": "691 56",
"Location": {
"Latitude": 48.7927,
"Longitude": 16.974
}
},
{
"Name": "Hustopeče",
"PostCode": "693 01",
"Location": {
"Latitude": 48.9408,
"Longitude": 16.7376
}
},
{
"Name": "Ivaň",
"PostCode": "691 23",
"Location": {
"Latitude": 48.8554,
"Longitude": 16.7768
}
},
{
"Name": "Jevišovka",
"PostCode": "691 83",
"Location": {
"Latitude": 48.8286,
"Longitude": 16.4662
}
},
{
"Name": "Kašnice",
"PostCode": "691 72",
"Location": {
"Latitude": 48.9964,
"Longitude": 16.8828
}
},
{
"Name": "Klentnice",
"PostCode": "692 01",
"Location": {
"Latitude": 48.8446,
"Longitude": 16.6447
}
},
{
"Name": "Klobouky u Brna",
"PostCode": "691 72",
"Location": {
"Latitude": 48.9936,
"Longitude": 16.8798
}
},
{
"Name": "Kobylí",
"PostCode": "691 10",
"Location": {
"Latitude": 48.9329,
"Longitude": 16.8916
}
},
{
"Name": "Kostice",
"PostCode": "691 52",
"Location": {
"Latitude": 48.7469,
"Longitude": 16.9787
}
},
{
"Name": "Křepice",
"PostCode": "691 65",
"Location": {
"Latitude": 48.9999,
"Longitude": 16.7199
}
},
{
"Name": "Krumvíř",
"PostCode": "691 73",
"Location": {
"Latitude": 48.989,
"Longitude": 16.9103
}
},
{
"Name": "Kurdějov",
"PostCode": "693 01",
"Location": {
"Latitude": 48.9578,
"Longitude": 16.7635
}
},
{
"Name": "Ladná",
"PostCode": "691 46",
"Location": {
"Latitude": 48.8054,
"Longitude": 16.8721
}
},
{
"Name": "Lanžhot",
"PostCode": "691 51",
"Location": {
"Latitude": 48.7244,
"Longitude": 16.9669
}
},
{
"Name": "Lednice",
"PostCode": "691 44",
"Location": {
"Latitude": 48.7999,
"Longitude": 16.8034
}
},
{
"Name": "Mikulov",
"PostCode": "692 01",
"Location": {
"Latitude": 48.8056,
"Longitude": 16.6378
}
},
{
"Name": "Milovice",
"PostCode": "691 88",
"Location": {
"Latitude": 48.8525,
"Longitude": 16.6981
}
},
{
"Name": "Moravská Nová Ves",
"PostCode": "691 55",
"Location": {
"Latitude": 48.803,
"Longitude": 17.0137
}
},
{
"Name": "Moravský Žižkov",
"PostCode": "691 01",
"Location": {
"Latitude": 48.8329,
"Longitude": 16.9314
}
},
{
"Name": "Morkůvky",
"PostCode": "691 72",
"Location": {
"Latitude": 48.9661,
"Longitude": 16.8622
}
},
{
"Name": "Nejdek",
"PostCode": "691 44",
"Location": {
"Latitude": 48.8128,
"Longitude": 16.7754
}
},
{
"Name": "Němčičky",
"PostCode": "691 07",
"Location": {
"Latitude": 48.9356,
"Longitude": 16.8243
}
},
{
"Name": "Nikolčice",
"PostCode": "693 01",
"Location": {
"Latitude": 48.9932,
"Longitude": 16.7542
}
},
{
"Name": "Nosislav",
"PostCode": "691 64",
"Location": {
"Latitude": 48.8554,
"Longitude": 16.7768
}
},
{
"Name": "Nová Ves",
"PostCode": "691 23",
"Location": {
"Latitude": 48.9727,
"Longitude": 16.6991
}
},
{
"Name": "Nové Mlýny",
"PostCode": "692 01",
"Location": {
"Latitude": 48.8577,
"Longitude": 16.7302
}
},
{
"Name": "Novosedly",
"PostCode": "691 82",
"Location": {
"Latitude": 48.837,
"Longitude": 16.4927
}
},
{
"Name": "Nový Přerov",
"PostCode": "691 82",
"Location": {
"Latitude": 48.8096,
"Longitude": 16.4937
}
},
{
"Name": "Pasohlávky",
"PostCode": "691 22",
"Location": {
"Latitude": 48.8554,
"Longitude": 16.7768
}
},
{
"Name": "Pavlov",
"PostCode": "692 01",
"Location": {
"Latitude": 48.8742,
"Longitude": 16.6723
}
},
{
"Name": "Perná",
"PostCode": "691 86",
"Location": {
"Latitude": 48.8522,
"Longitude": 16.6244
}
},
{
"Name": "Podivín",
"PostCode": "691 45",
"Location": {
"Latitude": 48.8255,
"Longitude": 16.8482
}
},
{
"Name": "Pohořelice",
"PostCode": "691 23",
"Location": {
"Latitude": 48.8554,
"Longitude": 16.7768
}
},
{
"Name": "Popice",
"PostCode": "691 27",
"Location": {
"Latitude": 48.9273,
"Longitude": 16.6669
}
},
{
"Name": "Poštorná",
"PostCode": "691 41",
"Location": {
"Latitude": 48.7545,
"Longitude": 16.8604
}
},
{
"Name": "Pouzdřany",
"PostCode": "691 26",
"Location": {
"Latitude": 48.9344,
"Longitude": 16.6249
}
},
{
"Name": "Přibice",
"PostCode": "691 24",
"Location": {
"Latitude": 48.8554,
"Longitude": 16.7768
}
},
{
"Name": "Přítluky",
"PostCode": "691 04",
"Location": {
"Latitude": 48.855,
"Longitude": 16.774
}
},
{
"Name": "Rakvice",
"PostCode": "691 03",
"Location": {
"Latitude": 48.8581,
"Longitude": 16.8133
}
},
{
"Name": "Šakvice",
"PostCode": "691 67",
"Location": {
"Latitude": 48.8975,
"Longitude": 16.7142
}
},
{
"Name": "Sedlec",
"PostCode": "691 21",
"Location": {
"Latitude": 48.7789,
"Longitude": 16.6939
}
},
{
"Name": "Šitbořice",
"PostCode": "691 76",
"Location": {
"Latitude": 49.0143,
"Longitude": 16.7798
}
},
{
"Name": "Smolín",
"PostCode": "691 23",
"Location": {
"Latitude": 48.8554,
"Longitude": 16.7768
}
},
{
"Name": "Starovice",
"PostCode": "693 01",
"Location": {
"Latitude": 48.9516,
"Longitude": 16.7066
}
},
{
"Name": "Starovičky",
"PostCode": "693 01",
"Location": {
"Latitude": 48.9075,
"Longitude": 16.7754
}
},
{
"Name": "Strachotín",
"PostCode": "692 01",
"Location": {
"Latitude": 48.9054,
"Longitude": 16.6513
}
},
{
"Name": "Tvrdonice",
"PostCode": "691 53",
"Location": {
"Latitude": 48.7605,
"Longitude": 16.9945
}
},
{
"Name": "Týnec",
"PostCode": "691 54",
"Location": {
"Latitude": 48.7794,
"Longitude": 17.0132
}
},
{
"Name": "Uherčice",
"PostCode": "691 62",
"Location": {
"Latitude": 48.9678,
"Longitude": 16.6534
}
},
{
"Name": "Úvaly",
"PostCode": "691 42",
"Location": {
"Latitude": 48.7435,
"Longitude": 16.7013
}
},
{
"Name": "Valtice",
"PostCode": "691 42",
"Location": {
"Latitude": 48.7407,
"Longitude": 16.755
}
},
{
"Name": "Velké Bílovice",
"PostCode": "691 02",
"Location": {
"Latitude": 48.8493,
"Longitude": 16.8923
}
},
{
"Name": "Velké Hostěrádky",
"PostCode": "691 74",
"Location": {
"Latitude": 49.0331,
"Longitude": 16.8702
}
},
{
"Name": "Velké Němčice",
"PostCode": "691 63",
"Location": {
"Latitude": 48.9917,
"Longitude": 16.6721
}
},
{
"Name": "Velké Pavlovice",
"PostCode": "691 06",
"Location": {
"Latitude": 48.9047,
"Longitude": 16.816
}
},
{
"Name": "Vlasatice",
"PostCode": "691 30",
"Location": {
"Latitude": 48.8554,
"Longitude": 16.7768
}
},
{
"Name": "Vranovice",
"PostCode": "691 25",
"Location": {
"Latitude": 48.8554,
"Longitude": 16.7768
}
},
{
"Name": "Vrbice",
"PostCode": "691 09",
"Location": {
"Latitude": 48.9151,
"Longitude": 16.8978
}
},
{
"Name": "Zaječí",
"PostCode": "691 05",
"Location": {
"Latitude": 48.873,
"Longitude": 16.7665
}
}
]
}
]
},
{
"Name": "Hodonín",
"Code": "3706",
"Communities": [
{
"Places": [
{
"Name": "Archlebov",
"PostCode": "696 33",
"Location": {
"Latitude": 49.0436,
"Longitude": 17.0048
}
},
{
"Name": "Blatnice pod Svatým Antonínkem",
"PostCode": "696 71",
"Location": {
"Latitude": 48.9471,
"Longitude": 17.464
}
},
{
"Name": "Blatnička",
"PostCode": "696 71",
"Location": {
"Latitude": 48.9355,
"Longitude": 17.53
}
},
{
"Name": "Bohuslavice",
"PostCode": "696 55",
"Location": {
"Latitude": 49.0516,
"Longitude": 17.1212
}
},
{
"Name": "Boršov",
"PostCode": "697 01",
"Location": {
"Latitude": 49.0248,
"Longitude": 17.1231
}
},
{
"Name": "Bukovany",
"PostCode": "696 31",
"Location": {
"Latitude": 49.0422,
"Longitude": 17.1009
}
},
{
"Name": "Bzenec",
"PostCode": "696 81",
"Location": {
"Latitude": 48.9734,
"Longitude": 17.2669
}
},
{
"Name": "Čejč",
"PostCode": "696 14",
"Location": {
"Latitude": 48.9465,
"Longitude": 16.9651
}
},
{
"Name": "Čejkovice",
"PostCode": "696 15",
"Location": {
"Latitude": 48.9059,
"Longitude": 16.9423
}
},
{
"Name": "Čeložnice",
"PostCode": "696 51",
"Location": {
"Latitude": 49.0519,
"Longitude": 17.1547
}
},
{
"Name": "Dambořice",
"PostCode": "696 35",
"Location": {
"Latitude": 49.0383,
"Longitude": 16.9176
}
},
{
"Name": "Dolní Bojanovice",
"PostCode": "696 17",
"Location": {
"Latitude": 48.8586,
"Longitude": 17.0286
}
},
{
"Name": "Domanín",
"PostCode": "696 83",
"Location": {
"Latitude": 49.0017,
"Longitude": 17.2848
}
},
{
"Name": "Dražůvky",
"PostCode": "696 33",
"Location": {
"Latitude": 49.0305,
"Longitude": 17.019
}
},
{
"Name": "Dubňany",
"PostCode": "696 03",
"Location": {
"Latitude": 48.9169,
"Longitude": 17.09
}
},
{
"Name": "Hodonín",
"PostCode": "695 01",
"Location": {
"Latitude": 48.8489,
"Longitude": 17.1324
}
},
{
"Name": "Hovorany",
"PostCode": "696 12",
"Location": {
"Latitude": 48.9549,
"Longitude": 16.9935
}
},
{
"Name": "Hroznová Lhota",
"PostCode": "696 63",
"Location": {
"Latitude": 48.9078,
"Longitude": 17.417
}
},
{
"Name": "Hrubá Vrbka",
"PostCode": "696 73",
"Location": {
"Latitude": 48.8719,
"Longitude": 17.477
}
},
{
"Name": "Hýsly",
"PostCode": "696 50",
"Location": {
"Latitude": 49.0233,
"Longitude": 17.1798
}
},
{
"Name": "Javorník",
"PostCode": "696 74",
"Location": {
"Latitude": 48.8621,
"Longitude": 17.5334
}
},
{
"Name": "Ježov",
"PostCode": "696 48",
"Location": {
"Latitude": 49.027,
"Longitude": 17.21
}
},
{
"Name": "Josefov",
"PostCode": "696 21",
"Location": {
"Latitude": 48.8395,
"Longitude": 17.01
}
},
{
"Name": "Karlín",
"PostCode": "696 14",
"Location": {
"Latitude": 48.9758,
"Longitude": 16.9773
}
},
{
"Name": "Kelčany",
"PostCode": "696 49",
"Location": {
"Latitude": 49.0052,
"Longitude": 17.1738
}
},
{
"Name": "Kněždub",
"PostCode": "696 64",
"Location": {
"Latitude": 48.8867,
"Longitude": 17.3955
}
},
{
"Name": "Kostelec",
"PostCode": "696 51",
"Location": {
"Latitude": 49.0268,
"Longitude": 17.1532
}
},
{
"Name": "Kozojídky",
"PostCode": "696 63",
"Location": {
"Latitude": 48.9186,
"Longitude": 17.3996
}
},
{
"Name": "Kuželov",
"PostCode": "696 73",
"Location": {
"Latitude": 48.8596,
"Longitude": 17.4888
}
},
{
"Name": "Kyjov",
"PostCode": "697 01",
"Location": {
"Latitude": 49.0102,
"Longitude": 17.1225
}
},
{
"Name": "Labuty",
"PostCode": "697 01",
"Location": {
"Latitude": 49.0466,
"Longitude": 17.2145
}
},
{
"Name": "Lidéřovice",
"PostCode": "696 61",
"Location": {
"Latitude": 48.9251,
"Longitude": 17.3426
}
},
{
"Name": "Lipov",
"PostCode": "696 72",
"Location": {
"Latitude": 48.9049,
"Longitude": 17.4617
}
},
{
"Name": "Louka",
"PostCode": "696 76",
"Location": {
"Latitude": 48.9152,
"Longitude": 17.4893
}
},
{
"Name": "Lovčice",
"PostCode": "696 39",
"Location": {
"Latitude": 49.0636,
"Longitude": 17.0543
}
},
{
"Name": "Lužice",
"PostCode": "696 18",
"Location": {
"Latitude": 48.841,
"Longitude": 17.071
}
},
{
"Name": "Malá Vrbka",
"PostCode": "696 73",
"Location": {
"Latitude": 48.8694,
"Longitude": 17.4592
}
},
{
"Name": "Mikulčice",
"PostCode": "696 19",
"Location": {
"Latitude": 48.8164,
"Longitude": 17.0511
}
},
{
"Name": "Milokošť",
"PostCode": "698 01",
"Location": {
"Latitude": 48.966,
"Longitude": 17.3949
}
},
{
"Name": "Milotice",
"PostCode": "696 05",
"Location": {
"Latitude": 48.9553,
"Longitude": 17.1424
}
},
{
"Name": "Mistřín",
"PostCode": "696 04",
"Location": {
"Latitude": 48.9705,
"Longitude": 17.0836
}
},
{
"Name": "Moravany",
"PostCode": "696 50",
"Location": {
"Latitude": 49.0401,
"Longitude": 17.169
}
},
{
"Name": "Moravský Písek",
"PostCode": "696 85",
"Location": {
"Latitude": 48.9902,
"Longitude": 17.3327
}
},
{
"Name": "Mutěnice",
"PostCode": "696 11",
"Location": {
"Latitude": 48.9041,
"Longitude": 17.0292
}
},
{
"Name": "Násedlovice",
"PostCode": "696 36",
"Location": {
"Latitude": 49.0122,
"Longitude": 16.9602
}
},
{
"Name": "Nechvalín",
"PostCode": "696 31",
"Location": {
"Latitude": 49.0545,
"Longitude": 17.0806
}
},
{
"Name": "Nenkovice",
"PostCode": "696 37",
"Location": {
"Latitude": 49.0031,
"Longitude": 17.0109
}
},
{
"Name": "Nětčice",
"PostCode": "697 01",
"Location": {
"Latitude": 49.0202,
"Longitude": 17.1319
}
},
{
"Name": "Nová Lhota",
"PostCode": "696 74",
"Location": {
"Latitude": 48.8609,
"Longitude": 17.5933
}
},
{
"Name": "Nový Poddvorov",
"PostCode": "696 16",
"Location": {
"Latitude": 48.8683,
"Longitude": 16.961
}
},
{
"Name": "Ostrovánky",
"PostCode": "696 31",
"Location": {
"Latitude": 49.0427,
"Longitude": 17.0803
}
},
{
"Name": "Petrov",
"PostCode": "696 65",
"Location": {
"Latitude": 48.882,
"Longitude": 17.2781
}
},
{
"Name": "Prušánky",
"PostCode": "696 21",
"Location": {
"Latitude": 48.8284,
"Longitude": 16.9807
}
},
{
"Name": "Radějov",
"PostCode": "696 67",
"Location": {
"Latitude": 48.8594,
"Longitude": 17.3446
}
},
{
"Name": "Ratíškovice",
"PostCode": "696 02",
"Location": {
"Latitude": 48.92,
"Longitude": 17.1656
}
},
{
"Name": "Rohatec",
"PostCode": "696 01",
"Location": {
"Latitude": 48.8804,
"Longitude": 17.1833
}
},
{
"Name": "Šardice",
"PostCode": "696 13",
"Location": {
"Latitude": 48.964,
"Longitude": 17.0281
}
},
{
"Name": "Silničná",
"PostCode": "696 34",
"Location": {
"Latitude": 49.0558,
"Longitude": 16.954
}
},
{
"Name": "Skalka",
"PostCode": "696 48",
"Location": {
"Latitude": 49.0358,
"Longitude": 17.2072
}
},
{
"Name": "Skoronice",
"PostCode": "696 41",
"Location": {
"Latitude": 48.9813,
"Longitude": 17.1534
}
},
{
"Name": "Sobůlky",
"PostCode": "697 01",
"Location": {
"Latitude": 49.0196,
"Longitude": 17.0789
}
},
{
"Name": "Starý Poddvorov",
"PostCode": "696 16",
"Location": {
"Latitude": 48.8747,
"Longitude": 16.9882
}
},
{
"Name": "Stavěšice",
"PostCode": "696 38",
"Location": {
"Latitude": 49.0016,
"Longitude": 17.0305
}
},
{
"Name": "Strážnice",
"PostCode": "696 62",
"Location": {
"Latitude": 48.901,
"Longitude": 17.3168
}
},
{
"Name": "Strážovice",
"PostCode": "696 38",
"Location": {
"Latitude": 49.0092,
"Longitude": 17.0474
}
},
{
"Name": "Suchov",
"PostCode": "696 71",
"Location": {
"Latitude": 48.9074,
"Longitude": 17.5635
}
},
{
"Name": "Sudoměřice",
"PostCode": "696 66",
"Location": {
"Latitude": 48.8672,
"Longitude": 17.2568
}
},
{
"Name": "Svatobořice",
"PostCode": "696 04",
"Location": {
"Latitude": 48.9836,
"Longitude": 17.095
}
},
{
"Name": "Svatobořice-Mistřín",
"PostCode": "696 04",
"Location": {
"Latitude": 48.977,
"Longitude": 17.0893
}
},
{
"Name": "Syrovín",
"PostCode": "696 84",
"Location": {
"Latitude": 49.0258,
"Longitude": 17.2639
}
},
{
"Name": "Tasov",
"PostCode": "696 63",
"Location": {
"Latitude": 48.9069,
"Longitude": 17.4297
}
},
{
"Name": "Těmice",
"PostCode": "696 84",
"Location": {
"Latitude": 49.0016,
"Longitude": 17.2649
}
},
{
"Name": "Terezín",
"PostCode": "696 14",
"Location": {
"Latitude": 48.9555,
"Longitude": 16.9426
}
},
{
"Name": "Těšice",
"PostCode": "696 19",
"Location": {
"Latitude": 48.8212,
"Longitude": 17.0569
}
},
{
"Name": "Tvarožná Lhota",
"PostCode": "696 64",
"Location": {
"Latitude": 48.8772,
"Longitude": 17.3594
}
},
{
"Name": "Uhřice",
"PostCode": "696 34",
"Location": {
"Latitude": 49.0503,
"Longitude": 16.9476
}
},
{
"Name": "Vacenovice",
"PostCode": "696 06",
"Location": {
"Latitude": 48.9451,
"Longitude": 17.174
}
},