[
{
"Name": "Region Nordjylland",
"Code": "81",
"Provinces": [
{
"Name": "Morsø Kommune",
"Code": "773",
"Communities": [
{
"Places": [
{
"Name": "Erslev",
"PostCode": "7950",
"Latitude": 56.8298,
"Longitude": 8.7501
},
{
"Name": "Karby",
"PostCode": "7960",
"Latitude": 56.7536,
"Longitude": 8.5613
},
{
"Name": "Nykøbing M",
"PostCode": "7900",
"Latitude": 56.7619,
"Longitude": 8.6836
},
{
"Name": "Øster Assels",
"PostCode": "7990",
"Latitude": 56.7011,
"Longitude": 8.6946
},
{
"Name": "Redsted M",
"PostCode": "7970",
"Latitude": 56.7619,
"Longitude": 8.6836
},
{
"Name": "Vils",
"PostCode": "7980",
"Latitude": 56.7631,
"Longitude": 8.7286
}
]
}
]
},
{
"Name": "Thisted Kommune",
"Code": "787",
"Communities": [
{
"Places": [
{
"Name": "Bedsted Thy",
"PostCode": "7755",
"Latitude": 56.8924,
"Longitude": 8.5244
},
{
"Name": "Frøstrup",
"PostCode": "7741",
"Latitude": 57.0867,
"Longitude": 8.9958
},
{
"Name": "Hanstholm",
"PostCode": "7730",
"Latitude": 57.1167,
"Longitude": 8.6167
},
{
"Name": "Hurup Thy",
"PostCode": "7760",
"Latitude": 56.7494,
"Longitude": 8.4195
},
{
"Name": "Snedsted",
"PostCode": "7752",
"Latitude": 56.8924,
"Longitude": 8.5244
},
{
"Name": "Thisted",
"PostCode": "7700",
"Latitude": 56.9552,
"Longitude": 8.6949
},
{
"Name": "Vesløs",
"PostCode": "7742",
"Latitude": 57.0383,
"Longitude": 8.9746
},
{
"Name": "Vestervig",
"PostCode": "7770",
"Latitude": 56.7628,
"Longitude": 8.3194
}
]
}
]
},
{
"Name": "Brønderslev Kommune",
"Code": "810",
"Communities": [
{
"Places": [
{
"Name": "Aabybro",
"PostCode": "9440",
"Latitude": 57.1584,
"Longitude": 9.7367
},
{
"Name": "Asaa",
"PostCode": "9340",
"Latitude": 57.1487,
"Longitude": 10.4037
},
{
"Name": "Brønderslev",
"PostCode": "9700",
"Latitude": 57.2702,
"Longitude": 9.941
},
{
"Name": "Dronninglund",
"PostCode": "9330",
"Latitude": 57.1604,
"Longitude": 10.2929
},
{
"Name": "Dybvad",
"PostCode": "9352",
"Latitude": 57.272,
"Longitude": 10.3595
},
{
"Name": "Hals",
"PostCode": "9370",
"Latitude": 56.9961,
"Longitude": 10.3081
},
{
"Name": "Hjallerup",
"PostCode": "9320",
"Latitude": 57.1647,
"Longitude": 10.1457
},
{
"Name": "Jerslev J",
"PostCode": "9740",
"Latitude": 57.323,
"Longitude": 10.0722
},
{
"Name": "Løkken",
"PostCode": "9480",
"Latitude": 57.3705,
"Longitude": 9.7147
},
{
"Name": "Østervrå",
"PostCode": "9750",
"Latitude": 57.3417,
"Longitude": 10.2401
},
{
"Name": "Tylstrup",
"PostCode": "9382",
"Latitude": 57.1947,
"Longitude": 9.9531
},
{
"Name": "Vrå",
"PostCode": "9760",
"Latitude": 57.3476,
"Longitude": 9.9515
}
]
}
]
},
{
"Name": "Frederikshavn Kommune",
"Code": "813",
"Communities": [
{
"Places": [
{
"Name": "Ålbæk",
"PostCode": "9982",
"Latitude": 57.5925,
"Longitude": 10.4046
},
{
"Name": "Asaa",
"PostCode": "9340",
"Latitude": 57.1487,
"Longitude": 10.4037
},
{
"Name": "Bindslev",
"PostCode": "9881",
"Latitude": 57.5521,
"Longitude": 10.2036
},
{
"Name": "Dronninglund",
"PostCode": "9330",
"Latitude": 57.1604,
"Longitude": 10.2929
},
{
"Name": "Dybvad",
"PostCode": "9352",
"Latitude": 57.272,
"Longitude": 10.3595
},
{
"Name": "Frederikshavn",
"PostCode": "9900",
"Latitude": 57.4407,
"Longitude": 10.5366
},
{
"Name": "Jerup",
"PostCode": "9981",
"Latitude": 57.5343,
"Longitude": 10.4166
},
{
"Name": "Østervrå",
"PostCode": "9750",
"Latitude": 57.3417,
"Longitude": 10.2401
},
{
"Name": "Sæby",
"PostCode": "9300",
"Latitude": 57.3319,
"Longitude": 10.5225
},
{
"Name": "Sindal",
"PostCode": "9870",
"Latitude": 57.4712,
"Longitude": 10.2031
},
{
"Name": "Skagen",
"PostCode": "9990",
"Latitude": 57.7209,
"Longitude": 10.5839
},
{
"Name": "Strandby",
"PostCode": "9970",
"Latitude": 57.4915,
"Longitude": 10.4961
},
{
"Name": "Tårs",
"PostCode": "9830",
"Latitude": 57.3833,
"Longitude": 10.1167
}
]
}
]
},
{
"Name": "Vesthimmerlands Kommune",
"Code": "820",
"Communities": [
{
"Places": [
{
"Name": "Aalestrup",
"PostCode": "9620",
"Latitude": 56.6947,
"Longitude": 9.4934
},
{
"Name": "Aars",
"PostCode": "9600",
"Latitude": 56.804,
"Longitude": 9.5144
},
{
"Name": "Farsø",
"PostCode": "9640",
"Latitude": 56.7728,
"Longitude": 9.3393
},
{
"Name": "Gedsted",
"PostCode": "9631",
"Latitude": 56.6892,
"Longitude": 9.3367
},
{
"Name": "Løgstør",
"PostCode": "9670",
"Latitude": 56.9625,
"Longitude": 9.2583
},
{
"Name": "Nibe",
"PostCode": "9240",
"Latitude": 56.9815,
"Longitude": 9.6392
},
{
"Name": "Nørager",
"PostCode": "9610",
"Latitude": 56.7262,
"Longitude": 9.5971
},
{
"Name": "Ranum",
"PostCode": "9681",
"Latitude": 56.8973,
"Longitude": 9.2287
},
{
"Name": "Suldrup",
"PostCode": "9541",
"Latitude": 56.8488,
"Longitude": 9.7006
}
]
}
]
},
{
"Name": "Læsø Kommune",
"Code": "825",
"Communities": [
{
"Places": [
{
"Name": "Læsø",
"PostCode": "9940",
"Latitude": 57.5448,
"Longitude": 10.4827
}
]
}
]
},
{
"Name": "Rebild Kommune",
"Code": "840",
"Communities": [
{
"Places": [
{
"Name": "Aalestrup",
"PostCode": "9620",
"Latitude": 56.6947,
"Longitude": 9.4934
},
{
"Name": "Aars",
"PostCode": "9600",
"Latitude": 56.804,
"Longitude": 9.5144
},
{
"Name": "Arden",
"PostCode": "9510",
"Latitude": 56.769,
"Longitude": 9.8618
},
{
"Name": "Bælum",
"PostCode": "9574",
"Latitude": 56.83,
"Longitude": 10.1198
},
{
"Name": "Gistrup",
"PostCode": "9260",
"Latitude": 56.9943,
"Longitude": 9.9909
},
{
"Name": "Hadsund",
"PostCode": "9560",
"Latitude": 56.7148,
"Longitude": 10.1168
},
{
"Name": "Hobro",
"PostCode": "9500",
"Latitude": 56.6431,
"Longitude": 9.7903
},
{
"Name": "Kongerslev",
"PostCode": "9293",
"Latitude": 56.9056,
"Longitude": 10.1267
},
{
"Name": "Nibe",
"PostCode": "9240",
"Latitude": 56.9815,
"Longitude": 9.6392
},
{
"Name": "Nørager",
"PostCode": "9610",
"Latitude": 56.7262,
"Longitude": 9.5971
},
{
"Name": "Skørping",
"PostCode": "9520",
"Latitude": 56.8363,
"Longitude": 9.8925
},
{
"Name": "Støvring",
"PostCode": "9530",
"Latitude": 56.8854,
"Longitude": 9.8384
},
{
"Name": "Suldrup",
"PostCode": "9541",
"Latitude": 56.8488,
"Longitude": 9.7006
},
{
"Name": "Svenstrup J",
"PostCode": "9230",
"Latitude": 56.9733,
"Longitude": 9.9233
},
{
"Name": "Terndrup",
"PostCode": "9575",
"Latitude": 56.8139,
"Longitude": 10.0615
}
]
}
]
},
{
"Name": "Mariagerfjord Kommune",
"Code": "846",
"Communities": [
{
"Places": [
{
"Name": "Aalestrup",
"PostCode": "9620",
"Latitude": 56.6947,
"Longitude": 9.4934
},
{
"Name": "Arden",
"PostCode": "9510",
"Latitude": 56.769,
"Longitude": 9.8618
},
{
"Name": "Fårup",
"PostCode": "8990",
"Latitude": 56.3667,
"Longitude": 10.2494
},
{
"Name": "Hadsund",
"PostCode": "9560",
"Latitude": 56.7148,
"Longitude": 10.1168
},
{
"Name": "Havndal",
"PostCode": "8970",
"Latitude": 56.6525,
"Longitude": 10.1967
},
{
"Name": "Hobro",
"PostCode": "9500",
"Latitude": 56.6431,
"Longitude": 9.7903
},
{
"Name": "Mariager",
"PostCode": "9550",
"Latitude": 56.6499,
"Longitude": 9.9751
},
{
"Name": "Møldrup",
"PostCode": "9632",
"Latitude": 56.6167,
"Longitude": 9.5011
}
]
}
]
},
{
"Name": "Jammerbugt Kommune",
"Code": "849",
"Communities": [
{
"Places": [
{
"Name": "Aabybro",
"PostCode": "9440",
"Latitude": 57.1584,
"Longitude": 9.7367
},
{
"Name": "Blokhus",
"PostCode": "9492",
"Latitude": 57.248,
"Longitude": 9.5897
},
{
"Name": "Brønderslev",
"PostCode": "9700",
"Latitude": 57.2702,
"Longitude": 9.941
},
{
"Name": "Brovst",
"PostCode": "9460",
"Latitude": 57.0956,
"Longitude": 9.528
},
{
"Name": "Fjerritslev",
"PostCode": "9690",
"Latitude": 57.0813,
"Longitude": 9.2664
},
{
"Name": "Løgstør",
"PostCode": "9670",
"Latitude": 56.9625,
"Longitude": 9.2583
},
{
"Name": "Løkken",
"PostCode": "9480",
"Latitude": 57.3705,
"Longitude": 9.7147
},
{
"Name": "Pandrup",
"PostCode": "9490",
"Latitude": 57.2215,
"Longitude": 9.6757
},
{
"Name": "Saltum",
"PostCode": "9493",
"Latitude": 57.2719,
"Longitude": 9.698
},
{
"Name": "Sulsted",
"PostCode": "9381",
"Latitude": 57.1634,
"Longitude": 9.9567
},
{
"Name": "Tylstrup",
"PostCode": "9382",
"Latitude": 57.1947,
"Longitude": 9.9531
},
{
"Name": "Vadum",
"PostCode": "9430",
"Latitude": 57.1179,
"Longitude": 9.857
}
]
}
]
},
{
"Name": "Aalborg Kommune",
"Code": "851",
"Communities": [
{
"Places": [
{
"Name": "Aabybro",
"PostCode": "9440",
"Latitude": 57.1584,
"Longitude": 9.7367
},
{
"Name": "Aalborg",
"PostCode": "9000",
"Latitude": 57.048,
"Longitude": 9.9187
},
{
"Name": "Aalborg Øst",
"PostCode": "9220",
"Latitude": 56.9733,
"Longitude": 9.9233
},
{
"Name": "Aalborg SØ",
"PostCode": "9210",
"Latitude": 56.9733,
"Longitude": 9.9233
},
{
"Name": "Aalborg SV",
"PostCode": "9200",
"Latitude": 56.9733,
"Longitude": 9.9233
},
{
"Name": "Gandrup",
"PostCode": "9362",
"Latitude": 57.0574,
"Longitude": 10.1814
},
{
"Name": "Gistrup",
"PostCode": "9260",
"Latitude": 56.9943,
"Longitude": 9.9909
},
{
"Name": "Hals",
"PostCode": "9370",
"Latitude": 56.9961,
"Longitude": 10.3081
},
{
"Name": "Hjallerup",
"PostCode": "9320",
"Latitude": 57.1647,
"Longitude": 10.1457
},
{
"Name": "Klarup",
"PostCode": "9270",
"Latitude": 57.0119,
"Longitude": 10.0562
},
{
"Name": "Kongerslev",
"PostCode": "9293",
"Latitude": 56.9056,
"Longitude": 10.1267
},
{
"Name": "Nibe",
"PostCode": "9240",
"Latitude": 56.9815,
"Longitude": 9.6392
},
{
"Name": "Nørresundby",
"PostCode": "9400",
"Latitude": 57.0483,
"Longitude": 9.9352
},
{
"Name": "Storvorde",
"PostCode": "9280",
"Latitude": 57.0039,
"Longitude": 10.1013
},
{
"Name": "Støvring",
"PostCode": "9530",
"Latitude": 56.8854,
"Longitude": 9.8384
},
{
"Name": "Sulsted",
"PostCode": "9381",
"Latitude": 57.1634,
"Longitude": 9.9567
},
{
"Name": "Svenstrup J",
"PostCode": "9230",
"Latitude": 56.9733,
"Longitude": 9.9233
},
{
"Name": "Tylstrup",
"PostCode": "9382",
"Latitude": 57.1947,
"Longitude": 9.9531
},
{
"Name": "Vadum",
"PostCode": "9430",
"Latitude": 57.1179,
"Longitude": 9.857
},
{
"Name": "Vestbjerg",
"PostCode": "9380",
"Latitude": 57.1317,
"Longitude": 9.9594
},
{
"Name": "Vodskov",
"PostCode": "9310",
"Latitude": 57.1085,
"Longitude": 10.0222
}
]
}
]
},
{
"Name": "Hjørring Kommune",
"Code": "860",
"Communities": [
{
"Places": [
{
"Name": "Ålbæk",
"PostCode": "9982",
"Latitude": 57.5925,
"Longitude": 10.4046
},
{
"Name": "Bindslev",
"PostCode": "9881",
"Latitude": 57.5521,
"Longitude": 10.2036
},
{
"Name": "Frederikshavn",
"PostCode": "9900",
"Latitude": 57.4407,
"Longitude": 10.5366
},
{
"Name": "Hirtshals",
"PostCode": "9850",
"Latitude": 57.5881,
"Longitude": 9.9592
},
{
"Name": "Hjørring",
"PostCode": "9800",
"Latitude": 57.4642,
"Longitude": 9.9823
},
{
"Name": "Jerslev J",
"PostCode": "9740",
"Latitude": 57.323,
"Longitude": 10.0722
},
{
"Name": "Løkken",
"PostCode": "9480",
"Latitude": 57.3705,
"Longitude": 9.7147
},
{
"Name": "Østervrå",
"PostCode": "9750",
"Latitude": 57.3417,
"Longitude": 10.2401
},
{
"Name": "Sindal",
"PostCode": "9870",
"Latitude": 57.4712,
"Longitude": 10.2031
},
{
"Name": "Tårs",
"PostCode": "9830",
"Latitude": 57.3833,
"Longitude": 10.1167
},
{
"Name": "Vrå",
"PostCode": "9760",
"Latitude": 57.3476,
"Longitude": 9.9515
}
]
}
]
}
]
},
{
"Name": "Region Midtjylland",
"Code": "82",
"Provinces": [
{
"Name": "Horsens Kommune",
"Code": "615",
"Communities": [
{
"Places": [
{
"Name": "Brædstrup",
"PostCode": "8740",
"Latitude": 55.9715,
"Longitude": 9.6113
},
{
"Name": "Bryrup",
"PostCode": "8654",
"Latitude": 56.0228,
"Longitude": 9.5183
},
{
"Name": "Flemming",
"PostCode": "8762",
"Latitude": 55.8687,
"Longitude": 9.6675
},
{
"Name": "Gedved",
"PostCode": "8751",
"Latitude": 55.9308,
"Longitude": 9.846
},
{
"Name": "Hornsyld",
"PostCode": "8783",
"Latitude": 55.7526,
"Longitude": 9.8512
},
{
"Name": "Horsens",
"PostCode": "8700",
"Latitude": 55.8607,
"Longitude": 9.8503
},
{
"Name": "Hovedgård",
"PostCode": "8732",
"Latitude": 55.9417,
"Longitude": 9.955
},
{
"Name": "Klovborg",
"PostCode": "8765",
"Latitude": 55.9319,
"Longitude": 9.491
},
{
"Name": "Østbirk",
"PostCode": "8752",
"Latitude": 55.9648,
"Longitude": 9.7556
},
{
"Name": "Ry",
"PostCode": "8680",
"Latitude": 56.0904,
"Longitude": 9.7651
},
{
"Name": "Skanderborg",
"PostCode": "8660",
"Latitude": 56.0399,
"Longitude": 9.9272
},
{
"Name": "Stenderup",
"PostCode": "8781",
"Latitude": 55.7921,
"Longitude": 9.8097
}
]
}
]
},
{
"Name": "Herning Kommune",
"Code": "657",
"Communities": [
{
"Places": [
{
"Name": "Aulum",
"PostCode": "7490",
"Latitude": 56.2654,
"Longitude": 8.7926
},
{
"Name": "Brande",
"PostCode": "7330",
"Latitude": 55.9381,
"Longitude": 9.1218
},
{
"Name": "Haderup",
"PostCode": "7540",
"Latitude": 56.3896,
"Longitude": 8.9943
},
{
"Name": "Herning",
"PostCode": "7400",
"Latitude": 56.1393,
"Longitude": 8.9738
},
{
"Name": "Holstebro",
"PostCode": "7500",
"Latitude": 56.3601,
"Longitude": 8.6161
},
{
"Name": "Karup J",
"PostCode": "7470",
"Latitude": 56.1757,
"Longitude": 9.0321
},
{
"Name": "Kibæk",
"PostCode": "6933",
"Latitude": 56.0317,
"Longitude": 8.857
},
{
"Name": "Ørnhøj",
"PostCode": "6973",
"Latitude": 56.1987,
"Longitude": 8.5645
},
{
"Name": "Sønder Felding",
"PostCode": "7280",
"Latitude": 55.9376,
"Longitude": 8.7794
},
{
"Name": "Sønder Omme",
"PostCode": "7260",
"Latitude": 55.8398,
"Longitude": 8.8972
},
{
"Name": "Sørvad",
"PostCode": "7550",
"Latitude": 56.2629,
"Longitude": 8.6563
},
{
"Name": "Stakroge",
"PostCode": "7270",
"Latitude": 55.8901,
"Longitude": 8.8473
},
{
"Name": "Sunds",
"PostCode": "7451",
"Latitude": 56.2042,
"Longitude": 9.0127
},
{
"Name": "Ulfborg",
"PostCode": "6990",
"Latitude": 56.2673,
"Longitude": 8.3217
},
{
"Name": "Vildbjerg",
"PostCode": "7480",
"Latitude": 56.2,
"Longitude": 8.7667
},
{
"Name": "Vinderup",
"PostCode": "7830",
"Latitude": 56.4751,
"Longitude": 8.7908
}
]
}
]
},
{
"Name": "Holstebro Kommune",
"Code": "661",
"Communities": [
{
"Places": [
{
"Name": "Haderup",
"PostCode": "7540",
"Latitude": 56.3896,
"Longitude": 8.9943
},
{
"Name": "Hjerm",
"PostCode": "7560",
"Latitude": 56.4384,
"Longitude": 8.6345
},
{
"Name": "Holstebro",
"PostCode": "7500",
"Latitude": 56.3601,
"Longitude": 8.6161
},
{
"Name": "Skive",
"PostCode": "7800",
"Latitude": 56.5638,
"Longitude": 9.0402
},
{
"Name": "Struer",
"PostCode": "7600",
"Latitude": 56.4912,
"Longitude": 8.5838
},
{
"Name": "Ulfborg",
"PostCode": "6990",
"Latitude": 56.2673,
"Longitude": 8.3217
},
{
"Name": "Vemb",
"PostCode": "7570",
"Latitude": 56.3423,
"Longitude": 8.3375
},
{
"Name": "Vinderup",
"PostCode": "7830",
"Latitude": 56.4751,
"Longitude": 8.7908
}
]
}
]
},
{
"Name": "Lemvig Kommune",
"Code": "665",
"Communities": [
{
"Places": [
{
"Name": "Bækmarksbro",
"PostCode": "7660",
"Latitude": 56.4153,
"Longitude": 8.307
},
{
"Name": "Bøvlingbjerg",
"PostCode": "7650",
"Latitude": 56.4353,
"Longitude": 8.2029
},
{
"Name": "Harboøre",
"PostCode": "7673",
"Latitude": 56.6175,
"Longitude": 8.1807
},
{
"Name": "Lemvig",
"PostCode": "7620",
"Latitude": 56.5486,
"Longitude": 8.3102
},
{
"Name": "Struer",
"PostCode": "7600",
"Latitude": 56.4912,
"Longitude": 8.5838
},
{
"Name": "Thyborøn",
"PostCode": "7680",
"Latitude": 56.6985,
"Longitude": 8.2124
},
{
"Name": "Ulfborg",
"PostCode": "6990",
"Latitude": 56.2673,
"Longitude": 8.3217
},
{
"Name": "Vemb",
"PostCode": "7570",
"Latitude": 56.3423,
"Longitude": 8.3375
}
]
}
]
},
{
"Name": "Struer Kommune",
"Code": "671",
"Communities": [
{
"Places": [
{
"Name": "Bækmarksbro",
"PostCode": "7660",
"Latitude": 56.4153,
"Longitude": 8.307
},
{
"Name": "Hjerm",
"PostCode": "7560",
"Latitude": 56.4384,
"Longitude": 8.6345
},
{
"Name": "Holstebro",
"PostCode": "7500",
"Latitude": 56.3601,
"Longitude": 8.6161
},
{
"Name": "Hurup Thy",
"PostCode": "7760",
"Latitude": 56.7494,
"Longitude": 8.4195
},
{
"Name": "Struer",
"PostCode": "7600",
"Latitude": 56.4912,
"Longitude": 8.5838
},
{
"Name": "Thyholm",
"PostCode": "7790",
"Latitude": 56.9189,
"Longitude": 8.6206
},
{
"Name": "Vinderup",
"PostCode": "7830",
"Latitude": 56.4751,
"Longitude": 8.7908
}
]
}
]
},
{
"Name": "Syddjurs Kommune",
"Code": "706",
"Communities": [
{
"Places": [
{
"Name": "Auning",
"PostCode": "8963",
"Latitude": 56.4308,
"Longitude": 10.3782
},
{
"Name": "Balle",
"PostCode": "8444",
"Latitude": 56.2963,
"Longitude": 10.2589
},
{
"Name": "Ebeltoft",
"PostCode": "8400",
"Latitude": 56.1944,
"Longitude": 10.6821
},
{
"Name": "Hornslet",
"PostCode": "8543",
"Latitude": 56.3155,
"Longitude": 10.3204
},
{
"Name": "Knebel",
"PostCode": "8420",
"Latitude": 56.2141,
"Longitude": 10.4886
},
{
"Name": "Kolind",
"PostCode": "8560",
"Latitude": 56.3606,
"Longitude": 10.5836
},
{
"Name": "Mørke",
"PostCode": "8544",
"Latitude": 56.3345,
"Longitude": 10.3819
},
{
"Name": "Nimtofte",
"PostCode": "8581",
"Latitude": 56.408,
"Longitude": 10.5686
},
{
"Name": "Rønde",
"PostCode": "8410",
"Latitude": 56.3015,
"Longitude": 10.4751
},
{
"Name": "Ryomgård",
"PostCode": "8550",
"Latitude": 56.3843,
"Longitude": 10.503
},
{
"Name": "Trustrup",
"PostCode": "8570",
"Latitude": 56.3493,
"Longitude": 10.7739
}
]
}
]
},
{
"Name": "Norddjurs Kommune",
"Code": "707",
"Communities": [
{
"Places": [
{
"Name": "Allingåbro",
"PostCode": "8961",
"Latitude": 56.4649,
"Longitude": 10.3341
},
{
"Name": "Anholt",
"PostCode": "8592",
"Latitude": 56.3671,
"Longitude": 10.5325
},
{
"Name": "Auning",
"PostCode": "8963",
"Latitude": 56.4308,
"Longitude": 10.3782
},
{
"Name": "Balle",
"PostCode": "8444",
"Latitude": 56.2963,
"Longitude": 10.2589
},
{
"Name": "Glesborg",
"PostCode": "8585",
"Latitude": 56.4775,
"Longitude": 10.7233
},
{
"Name": "Grenaa",
"PostCode": "8500",
"Latitude": 56.4158,
"Longitude": 10.8782
},
{
"Name": "Kolind",
"PostCode": "8560",
"Latitude": 56.3606,
"Longitude": 10.5836
},
{
"Name": "Nimtofte",
"PostCode": "8581",
"Latitude": 56.408,
"Longitude": 10.5686
},
{
"Name": "Ørsted",
"PostCode": "8950",
"Latitude": 56.502,
"Longitude": 10.3372
},
{
"Name": "Ørum Djurs",
"PostCode": "8586",
"Latitude": 56.4312,
"Longitude": 10.6202
},
{
"Name": "Ryomgård",
"PostCode": "8550",
"Latitude": 56.3843,
"Longitude": 10.503
},
{
"Name": "Trustrup",
"PostCode": "8570",
"Latitude": 56.3493,
"Longitude": 10.7739
}
]
}
]
},
{
"Name": "Favrskov Kommune",
"Code": "710",
"Communities": [
{
"Places": [
{
"Name": "Bjerringbro",
"PostCode": "8850",
"Latitude": 56.378,
"Longitude": 9.6607
},
{
"Name": "Fårvang",
"PostCode": "8882",
"Latitude": 56.2675,
"Longitude": 9.7278
},
{
"Name": "Hadsten",
"PostCode": "8370",
"Latitude": 56.3282,
"Longitude": 10.0493
},
{
"Name": "Hammel",
"PostCode": "8450",
"Latitude": 56.2576,
"Longitude": 9.8632
},
{
"Name": "Hinnerup",
"PostCode": "8382",
"Latitude": 56.2661,
"Longitude": 10.063
},
{
"Name": "Langå",
"PostCode": "8870",
"Latitude": 56.3903,
"Longitude": 9.8949
},
{
"Name": "Randers SØ",
"PostCode": "8960",
"Latitude": 56.4422,
"Longitude": 10.3635
},
{
"Name": "Randers SV",
"PostCode": "8940",
"Latitude": 56.4893,
"Longitude": 10.262
},
{
"Name": "Sabro",
"PostCode": "8471",
"Latitude": 56.2133,
"Longitude": 10.0344
},
{
"Name": "Sorring",
"PostCode": "8641",
"Latitude": 56.1769,
"Longitude": 9.7758
},
{
"Name": "Sporup",
"PostCode": "8472",
"Latitude": 56.2133,
"Longitude": 10.0344
},
{
"Name": "Thorsø",
"PostCode": "8881",
"Latitude": 56.2995,
"Longitude": 9.7892
},
{
"Name": "Trige",
"PostCode": "8380",
"Latitude": 56.2529,
"Longitude": 10.1484
},
{
"Name": "Ulstrup",
"PostCode": "8860",
"Latitude": 56.3899,
"Longitude": 9.7935
}
]
}
]
},
{
"Name": "Odder Kommune",
"Code": "727",
"Communities": [
{
"Places": [
{
"Name": "Hundslund",
"PostCode": "8350",
"Latitude": 55.916,
"Longitude": 10.0521
},
{
"Name": "Malling",
"PostCode": "8340",
"Latitude": 56.0363,
"Longitude": 10.1963
},
{
"Name": "Odder",
"PostCode": "8300",
"Latitude": 55.9731,
"Longitude": 10.153
},
{
"Name": "Skanderborg",
"PostCode": "8660",
"Latitude": 56.0399,
"Longitude": 9.9272
}
]
}
]
},
{
"Name": "Randers Kommune",
"Code": "730",
"Communities": [
{
"Places": [
{
"Name": "Fårup",
"PostCode": "8990",
"Latitude": 56.3667,
"Longitude": 10.2494
},
{
"Name": "Gjerlev J",
"PostCode": "8983",
"Latitude": 56.537,
"Longitude": 10.0379
},
{
"Name": "Havndal",
"PostCode": "8970",
"Latitude": 56.6525,
"Longitude": 10.1967
},
{
"Name": "Langå",
"PostCode": "8870",
"Latitude": 56.3903,
"Longitude": 9.8949
},
{
"Name": "Mariager",
"PostCode": "9550",
"Latitude": 56.6499,
"Longitude": 9.9751
},
{
"Name": "Randers C",
"PostCode": "8900",
"Latitude": 56.4893,
"Longitude": 10.262
},
{
"Name": "Randers NØ",
"PostCode": "8930",
"Latitude": 56.4893,
"Longitude": 10.262
},
{
"Name": "Randers NV",
"PostCode": "8920",
"Latitude": 56.4893,
"Longitude": 10.262
},
{
"Name": "Randers SØ",
"PostCode": "8960",
"Latitude": 56.4422,
"Longitude": 10.3635
},
{
"Name": "Randers SV",
"PostCode": "8940",
"Latitude": 56.4893,
"Longitude": 10.262
},
{
"Name": "Spentrup",
"PostCode": "8981",
"Latitude": 56.537,
"Longitude": 10.0379
},
{
"Name": "Ulstrup",
"PostCode": "8860",
"Latitude": 56.3899,
"Longitude": 9.7935
}
]
}
]
},
{
"Name": "Silkeborg Kommune",
"Code": "740",
"Communities": [
{
"Places": [
{
"Name": "Ans By",
"PostCode": "8643",
"Latitude": 56.1769,
"Longitude": 9.7758
},
{
"Name": "Bording",
"PostCode": "7441",
"Latitude": 56.1441,
"Longitude": 9.2765
},
{
"Name": "Brædstrup",
"PostCode": "8740",
"Latitude": 55.9715,
"Longitude": 9.6113
},
{
"Name": "Bryrup",
"PostCode": "8654",
"Latitude": 56.0228,
"Longitude": 9.5183
},
{
"Name": "Engesvang",
"PostCode": "7442",
"Latitude": 56.1707,
"Longitude": 9.3495
},
{
"Name": "Fårvang",
"PostCode": "8882",
"Latitude": 56.2675,
"Longitude": 9.7278
},
{
"Name": "Gjern",
"PostCode": "8883",
"Latitude": 56.2302,
"Longitude": 9.7391
},
{
"Name": "Hammel",
"PostCode": "8450",
"Latitude": 56.2576,
"Longitude": 9.8632
},
{
"Name": "Hampen",
"PostCode": "7362",
"Latitude": 56.019,
"Longitude": 9.3551
},
{
"Name": "Karup J",
"PostCode": "7470",
"Latitude": 56.1757,
"Longitude": 9.0321
},
{
"Name": "Kjellerup",
"PostCode": "8620",
"Latitude": 56.2858,
"Longitude": 9.4353
},
{
"Name": "Lemming",
"PostCode": "8632",
"Latitude": 56.2405,
"Longitude": 9.5473
},
{
"Name": "Rødkærsbro",
"PostCode": "8840",
"Latitude": 56.3531,
"Longitude": 9.5051
},
{
"Name": "Ry",
"PostCode": "8680",
"Latitude": 56.0904,
"Longitude": 9.7651
},
{
"Name": "Silkeborg",
"PostCode": "8600",
"Latitude": 56.1697,
"Longitude": 9.5451
},
{
"Name": "Sorring",
"PostCode": "8641",
"Latitude": 56.1769,
"Longitude": 9.7758
},
{
"Name": "Sporup",
"PostCode": "8472",
"Latitude": 56.2133,
"Longitude": 10.0344
},
{
"Name": "Them",
"PostCode": "8653",
"Latitude": 56.0943,
"Longitude": 9.5487
},
{
"Name": "Thorsø",
"PostCode": "8881",
"Latitude": 56.2995,
"Longitude": 9.7892
},
{
"Name": "Viborg",
"PostCode": "8800",
"Latitude": 56.4532,
"Longitude": 9.402
}
]
}
]
},
{
"Name": "Samsø Kommune",
"Code": "741",
"Communities": [
{
"Places": [
{
"Name": "Samsø",
"PostCode": "8305",
"Latitude": 55.8796,
"Longitude": 10.6076
}
]
}
]
},
{
"Name": "Skanderborg Kommune",
"Code": "746",
"Communities": [
{
"Places": [
{
"Name": "Galten",
"PostCode": "8464",
"Latitude": 56.35,
"Longitude": 10.05
},
{
"Name": "Gedved",
"PostCode": "8751",
"Latitude": 55.9308,
"Longitude": 9.846
},
{
"Name": "Hørning",
"PostCode": "8362",
"Latitude": 56.087,
"Longitude": 10.0372
},
{
"Name": "Låsby",
"PostCode": "8670",
"Latitude": 56.1502,
"Longitude": 9.8068
},
{
"Name": "Ry",
"PostCode": "8680",
"Latitude": 56.0904,
"Longitude": 9.7651
},
{
"Name": "Sabro",
"PostCode": "8471",
"Latitude": 56.2133,
"Longitude": 10.0344
},
{
"Name": "Silkeborg",
"PostCode": "8600",
"Latitude": 56.1697,
"Longitude": 9.5451
},
{
"Name": "Skanderborg",
"PostCode": "8660",
"Latitude": 56.0399,
"Longitude": 9.9272
},
{
"Name": "Sporup",
"PostCode": "8472",
"Latitude": 56.2133,
"Longitude": 10.0344
}
]
}
]
},
{
"Name": "Aarhus Kommune",
"Code": "751",
"Communities": [
{
"Places": [
{
"Name": "Aarhus C",
"PostCode": "8000",
"Latitude": 56.1567,
"Longitude": 10.2108
},
{
"Name": "Aarhus N",
"PostCode": "8200",
"Latitude": 56.1663,
"Longitude": 10.1987
},
{
"Name": "Aarhus V",
"PostCode": "8210",
"Latitude": 56.1663,
"Longitude": 10.1987
},
{
"Name": "Åbyhøj",
"PostCode": "8230",
"Latitude": 56.1563,
"Longitude": 10.1653
},
{
"Name": "Beder",
"PostCode": "8330",
"Latitude": 56.0602,
"Longitude": 10.2118
},
{
"Name": "Brabrand",
"PostCode": "8220",
"Latitude": 56.1531,
"Longitude": 10.1057
},
{
"Name": "Egå",
"PostCode": "8250",
"Latitude": 56.2136,
"Longitude": 10.2644
},
{
"Name": "Galten",
"PostCode": "8464",
"Latitude": 56.35,
"Longitude": 10.05
},
{
"Name": "Harlev J",
"PostCode": "8462",
"Latitude": 56.35,
"Longitude": 10.05
},
{
"Name": "Hasselager",
"PostCode": "8361",
"Latitude": 56.1007,
"Longitude": 10.1065
},
{
"Name": "Hinnerup",
"PostCode": "8382",
"Latitude": 56.2661,
"Longitude": 10.063
},
{
"Name": "Hjortshøj",
"PostCode": "8530",
"Latitude": 56.2481,
"Longitude": 10.2653
},
{
"Name": "Højbjerg",
"PostCode": "8270",
"Latitude": 56.1112,
"Longitude": 10.2099
},
{
"Name": "Hørning",
"PostCode": "8362",
"Latitude": 56.087,
"Longitude": 10.0372
},
{
"Name": "Hornslet",
"PostCode": "8543",
"Latitude": 56.3155,
"Longitude": 10.3204
},
{
"Name": "Lystrup",
"PostCode": "8520",
"Latitude": 56.4984,
"Longitude": 10.4689
},
{
"Name": "Malling",
"PostCode": "8340",
"Latitude": 56.0363,
"Longitude": 10.1963
},
{
"Name": "Mårslet",
"PostCode": "8320",
"Latitude": 56.0636,
"Longitude": 10.1623
},
{
"Name": "Odder",
"PostCode": "8300",
"Latitude": 55.9731,
"Longitude": 10.153
},
{
"Name": "Risskov",
"PostCode": "8240",
"Latitude": 56.1972,
"Longitude": 10.248
},
{
"Name": "Risskov Ø",
"PostCode": "8245",
"Latitude": 56.1972,
"Longitude": 10.248
},
{
"Name": "Sabro",
"PostCode": "8471",
"Latitude": 56.2133,
"Longitude": 10.0344
},
{
"Name": "Skanderborg",
"PostCode": "8660",
"Latitude": 56.0399,
"Longitude": 9.9272
},
{
"Name": "Skødstrup",
"PostCode": "8541",
"Latitude": 56.2635,
"Longitude": 10.3041
},
{
"Name": "Solbjerg",
"PostCode": "8355",
"Latitude": 56.0427,
"Longitude": 10.0863
},
{
"Name": "Tilst",
"PostCode": "8381",
"Latitude": 56.1938,
"Longitude": 10.1128
},
{
"Name": "Tranbjerg J",
"PostCode": "8310",
"Latitude": 56.0901,
"Longitude": 10.1194
},
{
"Name": "Trige",
"PostCode": "8380",
"Latitude": 56.2529,
"Longitude": 10.1484
},
{
"Name": "Viby J",
"PostCode": "8260",
"Latitude": 56.1663,
"Longitude": 10.1987
}
]
}
]
},
{
"Name": "Ikast-Brande Kommune",
"Code": "756",
"Communities": [
{
"Places": [
{
"Name": "Bording",
"PostCode": "7441",
"Latitude": 56.1441,
"Longitude": 9.2765
},
{
"Name": "Brande",
"PostCode": "7330",
"Latitude": 55.9381,
"Longitude": 9.1218
},
{
"Name": "Bryrup",
"PostCode": "8654",
"Latitude": 56.0228,
"Longitude": 9.5183
},
{
"Name": "Ejstrupholm",
"PostCode": "7361",
"Latitude": 55.9841,
"Longitude": 9.2818
},
{
"Name": "Engesvang",
"PostCode": "7442",
"Latitude": 56.1707,
"Longitude": 9.3495
},
{
"Name": "Hampen",
"PostCode": "7362",
"Latitude": 56.019,
"Longitude": 9.3551
},
{
"Name": "Herning",
"PostCode": "7400",
"Latitude": 56.1393,
"Longitude": 8.9738
},
{
"Name": "Ikast",
"PostCode": "7430",
"Latitude": 56.1388,
"Longitude": 9.1577
},
{
"Name": "Klovborg",
"PostCode": "8765",
"Latitude": 55.9319,
"Longitude": 9.491
},
{
"Name": "Nørre Snede",
"PostCode": "8766",
"Latitude": 55.9644,
"Longitude": 9.3932
},
{
"Name": "Silkeborg",
"PostCode": "8600",
"Latitude": 56.1697,
"Longitude": 9.5451
},
{
"Name": "Sunds",
"PostCode": "7451",
"Latitude": 56.2042,
"Longitude": 9.0127
},
{
"Name": "Tørring",
"PostCode": "7160",
"Latitude": 55.85,
"Longitude": 9.4833
}
]
}
]
},
{
"Name": "Ringkøbing-Skjern Kommune",
"Code": "760",
"Communities": [
{
"Places": [
{
"Name": "Hemmet",
"PostCode": "6893",
"Latitude": 55.8502,
"Longitude": 8.3756
},
{
"Name": "Herning",
"PostCode": "7400",
"Latitude": 56.1393,
"Longitude": 8.9738
},
{
"Name": "Hvide Sande",
"PostCode": "6960",
"Latitude": 56.0045,
"Longitude": 8.1294
},
{
"Name": "Kibæk",
"PostCode": "6933",
"Latitude": 56.0317,
"Longitude": 8.857
},
{
"Name": "Lem St",
"PostCode": "6940",
"Latitude": 56.1419,
"Longitude": 8.4606
},
{
"Name": "Nørre Nebel",
"PostCode": "6830",
"Latitude": 55.7798,
"Longitude": 8.2952
},
{
"Name": "Ølgod",
"PostCode": "6870",
"Latitude": 55.8068,
"Longitude": 8.6286
},
{
"Name": "Ørnhøj",
"PostCode": "6973",
"Latitude": 56.1987,
"Longitude": 8.5645
},
{
"Name": "Ringkøbing",
"PostCode": "6950",
"Latitude": 56.0901,
"Longitude": 8.244
},
{
"Name": "Skjern",
"PostCode": "6900",
"Latitude": 55.95,
"Longitude": 8.5
},
{
"Name": "Sønder Felding",
"PostCode": "7280",
"Latitude": 55.9376,
"Longitude": 8.7794
},
{
"Name": "Spjald",
"PostCode": "6971",
"Latitude": 56.1286,
"Longitude": 8.5084
},
{
"Name": "Stakroge",
"PostCode": "7270",
"Latitude": 55.8901,
"Longitude": 8.8473
},
{
"Name": "Tarm",
"PostCode": "6880",
"Latitude": 55.9086,
"Longitude": 8.5304
},
{
"Name": "Tim",
"PostCode": "6980",
"Latitude": 56.1956,
"Longitude": 8.3079
},
{
"Name": "Ulfborg",
"PostCode": "6990",
"Latitude": 56.2673,
"Longitude": 8.3217
},
{
"Name": "Videbæk",
"PostCode": "6920",
"Latitude": 56.0876,
"Longitude": 8.6285
},
{
"Name": "Vildbjerg",
"PostCode": "7480",
"Latitude": 56.2,
"Longitude": 8.7667
}
]
}
]
},
{
"Name": "Hedensted Kommune",
"Code": "766",
"Communities": [
{
"Places": [
{
"Name": "Barrit",
"PostCode": "7150",
"Latitude": 55.7118,
"Longitude": 9.8904
},
{
"Name": "Daugård",
"PostCode": "8721",
"Latitude": 55.7351,
"Longitude": 9.703
},
{
"Name": "Flemming",
"PostCode": "8762",
"Latitude": 55.8687,
"Longitude": 9.6675
},
{
"Name": "Give",
"PostCode": "7323",
"Latitude": 55.8398,
"Longitude": 9.25
},
{
"Name": "Hedensted",
"PostCode": "8722",
"Latitude": 55.7704,
"Longitude": 9.7011
},
{
"Name": "Hornsyld",
"PostCode": "8783",
"Latitude": 55.7526,
"Longitude": 9.8512
},
{
"Name": "Horsens",
"PostCode": "8700",
"Latitude": 55.8607,
"Longitude": 9.8503
},
{
"Name": "Juelsminde",
"PostCode": "7130",
"Latitude": 55.7088,
"Longitude": 10.0167
},
{
"Name": "Løsning",
"PostCode": "8723",
"Latitude": 55.8024,
"Longitude": 9.6954
},
{
"Name": "Nørre Snede",
"PostCode": "8766",
"Latitude": 55.9644,
"Longitude": 9.3932
},
{
"Name": "Rask Mølle",
"PostCode": "8763",
"Latitude": 55.8721,
"Longitude": 9.6135
},
{
"Name": "Stenderup",
"PostCode": "8781",
"Latitude": 55.7921,
"Longitude": 9.8097
},
{
"Name": "Stouby",
"PostCode": "7140",
"Latitude": 55.7025,
"Longitude": 9.7938
},
{
"Name": "Tørring",
"PostCode": "7160",
"Latitude": 55.85,
"Longitude": 9.4833
},
{
"Name": "Uldum",
"PostCode": "7171",
"Latitude": 55.8471,
"Longitude": 9.5896
},
{
"Name": "Vejle",
"PostCode": "7100",
"Latitude": 55.7093,
"Longitude": 9.5357
},
{
"Name": "Vejle Øst",
"PostCode": "7120",
"Latitude": 55.758,
"Longitude": 9.4862
}
]
}
]
},
{
"Name": "Skive Kommune",
"Code": "779",
"Communities": [
{
"Places": [
{
"Name": "Fur",
"PostCode": "7884",
"Latitude": 56.5537,
"Longitude": 8.9353
},
{
"Name": "Højslev",
"PostCode": "7840",
"Latitude": 56.5856,
"Longitude": 9.1364
},
{
"Name": "Roslev",
"PostCode": "7870",
"Latitude": 56.7039,
"Longitude": 8.9864
},
{
"Name": "Skive",
"PostCode": "7800",
"Latitude": 56.5638,
"Longitude": 9.0402
},
{
"Name": "Spøttrup",
"PostCode": "7860",
"Latitude": 56.623,
"Longitude": 8.7447
},
{
"Name": "Vinderup",
"PostCode": "7830",
"Latitude": 56.4751,
"Longitude": 8.7908
}
]
}
]
},
{
"Name": "Viborg Kommune",
"Code": "791",
"Communities": [
{
"Places": [
{
"Name": "Aalestrup",
"PostCode": "9620",
"Latitude": 56.6947,
"Longitude": 9.4934
},
{
"Name": "Ans By",
"PostCode": "8643",
"Latitude": 56.1769,
"Longitude": 9.7758
},
{
"Name": "Bjerringbro",
"PostCode": "8850",
"Latitude": 56.378,
"Longitude": 9.6607
},
{
"Name": "Gedsted",
"PostCode": "9631",
"Latitude": 56.6892,
"Longitude": 9.3367
},
{
"Name": "Haderup",
"PostCode": "7540",
"Latitude": 56.3896,
"Longitude": 8.9943
},
{
"Name": "Hobro",
"PostCode": "9500",
"Latitude": 56.6431,
"Longitude": 9.7903
},
{
"Name": "Højslev",
"PostCode": "7840",
"Latitude": 56.5856,
"Longitude": 9.1364
},
{
"Name": "Karup J",
"PostCode": "7470",
"Latitude": 56.1757,
"Longitude": 9.0321
},
{
"Name": "Kjellerup",
"PostCode": "8620",
"Latitude": 56.2858,
"Longitude": 9.4353
},
{
"Name": "Løgstrup",
"PostCode": "8831",
"Latitude": 56.5103,
"Longitude": 9.3354
},
{
"Name": "Møldrup",
"PostCode": "9632",
"Latitude": 56.6167,
"Longitude": 9.5011
},
{
"Name": "Rødkærsbro",
"PostCode": "8840",
"Latitude": 56.3531,
"Longitude": 9.5051
},
{
"Name": "Skals",
"PostCode": "8832",
"Latitude": 56.5568,
"Longitude": 9.4038
},
{
"Name": "Skive",
"PostCode": "7800",
"Latitude": 56.5638,
"Longitude": 9.0402
},
{
"Name": "Stoholm Jyll",
"PostCode": "7850",
"Latitude": 56.5537,
"Longitude": 8.9353
},
{
"Name": "Tjele",
"PostCode": "8830",
"Latitude": 56.5118,
"Longitude": 9.6137
},
{
"Name": "Ulstrup",
"PostCode": "8860",
"Latitude": 56.3899,
"Longitude": 9.7935
},
{
"Name": "Viborg",
"PostCode": "8800",
"Latitude": 56.4532,
"Longitude": 9.402
}
]
}
]
}
]
},
{
"Name": "Region Syddanmark",
"Code": "83",
"Provinces": [
{
"Name": "Middelfart Kommune",
"Code": "410",
"Communities": [
{
"Places": [
{
"Name": "Aarup",
"PostCode": "5560",
"Latitude": 55.3732,
"Longitude": 10.0413
},
{
"Name": "Asperup",
"PostCode": "5466",
"Latitude": 55.4843,
"Longitude": 9.908
},
{
"Name": "Brenderup Fyn",
"PostCode": "5464",
"Latitude": 55.4663,
"Longitude": 10.0398
},
{
"Name": "Ejby",
"PostCode": "5592",
"Latitude": 55.4301,
"Longitude": 9.9297
},
{
"Name": "Gelsted",
"PostCode": "5591",
"Latitude": 55.3988,
"Longitude": 9.9731
},
{
"Name": "Harndrup",
"PostCode": "5463",
"Latitude": 55.4666,
"Longitude": 10.0216
},
{
"Name": "Middelfart",
"PostCode": "5500",
"Latitude": 55.382,
"Longitude": 10.2694
},
{
"Name": "Nørre Aaby",
"PostCode": "5580",
"Latitude": 55.4611,
"Longitude": 9.8794
}
]
}
]
},
{
"Name": "Assens Kommune",
"Code": "420",
"Communities": [
{
"Places": [
{
"Name": "Aarup",
"PostCode": "5560",
"Latitude": 55.3732,
"Longitude": 10.0413
},
{
"Name": "Assens",
"PostCode": "5610",
"Latitude": 55.2702,
"Longitude": 9.9008
},
{
"Name": "Ebberup",
"PostCode": "5631",
"Latitude": 55.2433,
"Longitude": 9.9821
},
{
"Name": "Glamsbjerg",
"PostCode": "5620",
"Latitude": 55.2724,
"Longitude": 10.1048
},
{
"Name": "Haarby",
"PostCode": "5683",
"Latitude": 55.215,
"Longitude": 10.1226
},
{
"Name": "Millinge",
"PostCode": "5642",
"Latitude": 55.135,
"Longitude": 10.1994
},
{
"Name": "Tommerup",
"PostCode": "5690",
"Latitude": 55.3195,
"Longitude": 10.2066
},
{
"Name": "Vissenbjerg",
"PostCode": "5492",
"Latitude": 55.3848,
"Longitude": 10.1378
}
]
}
]
},
{
"Name": "Faaborg-Midtfyn Kommune",
"Code": "430",
"Communities": [
{
"Places": [
{
"Name": "Årslev",
"PostCode": "5792",
"Latitude": 55.3035,
"Longitude": 10.4643
},
{
"Name": "Broby",
"PostCode": "5672",
"Latitude": 55.2107,
"Longitude": 10.1198
},
{
"Name": "Faaborg",
"PostCode": "5600",
"Latitude": 55.0951,
"Longitude": 10.2423
},
{
"Name": "Ferritslev Fyn",
"PostCode": "5863",
"Latitude": 55.2064,
"Longitude": 10.6852
},
{
"Name": "Gislev",
"PostCode": "5854",
"Latitude": 55.2181,
"Longitude": 10.6022
},
{
"Name": "Kværndrup",
"PostCode": "5772",
"Latitude": 55.1775,
"Longitude": 10.5255
},
{
"Name": "Langeskov",
"PostCode": "5550",
"Latitude": 55.3565,
"Longitude": 10.5845
},
{
"Name": "Millinge",
"PostCode": "5642",
"Latitude": 55.135,
"Longitude": 10.1994
},
{
"Name": "Ørbæk",
"PostCode": "5853",
"Latitude": 55.2585,
"Longitude": 10.6708
},
{
"Name": "Ringe",
"PostCode": "5750",
"Latitude": 55.2451,
"Longitude": 10.4706
},
{
"Name": "Ryslinge",
"PostCode": "5856",
"Latitude": 55.2416,
"Longitude": 10.5367
},
{
"Name": "Stenstrup",
"PostCode": "5771",
"Latitude": 55.1335,
"Longitude": 10.5047
},
{
"Name": "Vester Skerninge",
"PostCode": "5762",
"Latitude": 55.0732,
"Longitude": 10.4554
}
]
}
]
},
{
"Name": "Kerteminde Kommune",
"Code": "440",
"Communities": [
{
"Places": [
{
"Name": "Dalby",
"PostCode": "5380",
"Latitude": 55.517,
"Longitude": 10.6592
},
{
"Name": "Ferritslev Fyn",
"PostCode": "5863",
"Latitude": 55.2064,
"Longitude": 10.6852
},
{
"Name": "Kerteminde",
"PostCode": "5300",
"Latitude": 55.449,
"Longitude": 10.6577
},
{
"Name": "Langeskov",
"PostCode": "5550",
"Latitude": 55.3565,
"Longitude": 10.5845
},
{
"Name": "Marslev",
"PostCode": "5290",
"Latitude": 55.3902,
"Longitude": 10.5201
},
{
"Name": "Martofte",
"PostCode": "5390",
"Latitude": 55.5464,
"Longitude": 10.6578
},
{
"Name": "Mesinge",
"PostCode": "5370",
"Latitude": 55.4986,
"Longitude": 10.647
},
{
"Name": "Munkebo",
"PostCode": "5330",
"Latitude": 55.4618,
"Longitude": 10.5558
},
{
"Name": "Rynkeby",
"PostCode": "5350",
"Latitude": 55.4008,
"Longitude": 10.6137
},
{
"Name": "Ullerslev",
"PostCode": "5540",
"Latitude": 55.3617,
"Longitude": 10.6519
}
]
}
]
},
{
"Name": "Nyborg Kommune",
"Code": "450",
"Communities": [
{
"Places": [
{
"Name": "Frørup",
"PostCode": "5871",
"Latitude": 55.2424,
"Longitude": 10.7156
},
{
"Name": "Hesselager",
"PostCode": "5874",
"Latitude": 55.1755,
"Longitude": 10.7452
},
{
"Name": "Langeskov",
"PostCode": "5550",
"Latitude": 55.3565,
"Longitude": 10.5845
},
{
"Name": "Nyborg",
"PostCode": "5800",
"Latitude": 55.3127,
"Longitude": 10.7896
},
{
"Name": "Ørbæk",
"PostCode": "5853",
"Latitude": 55.2585,
"Longitude": 10.6708
},
{
"Name": "Ullerslev",
"PostCode": "5540",
"Latitude": 55.3617,
"Longitude": 10.6519
}
]
}
]
},
{
"Name": "Odense Kommune",
"Code": "461",
"Communities": [
{
"Places": [
{
"Name": "Agedrup",
"PostCode": "5320",
"Latitude": 55.4324,
"Longitude": 10.4888
},
{
"Name": "Blommenslyst",
"PostCode": "5491",
"Latitude": 55.3895,
"Longitude": 10.2629
},
{
"Name": "Munkebo",
"PostCode": "5330",
"Latitude": 55.4618,
"Longitude": 10.5558
},
{
"Name": "Odense C",
"PostCode": "5000",
"Latitude": 55.3959,
"Longitude": 10.3883
},
{
"Name": "Odense M",
"PostCode": "5230",
"Latitude": 55.3902,
"Longitude": 10.5201
},
{
"Name": "Odense N",
"PostCode": "5270",
"Latitude": 55.3902,
"Longitude": 10.5201
},
{
"Name": "Odense NØ",
"PostCode": "5240",
"Latitude": 55.3902,
"Longitude": 10.5201
},
{
"Name": "Odense NV",
"PostCode": "5210",
"Latitude": 55.3902,
"Longitude": 10.5201
},
{
"Name": "Odense S",
"PostCode": "5260",
"Latitude": 55.3902,
"Longitude": 10.5201
},
{
"Name": "Odense SØ",
"PostCode": "5220",
"Latitude": 55.3902,
"Longitude": 10.5201
},
{
"Name": "Odense SV",
"PostCode": "5250",
"Latitude": 55.3902,
"Longitude": 10.5201
},
{
"Name": "Odense V",
"PostCode": "5200",
"Latitude": 55.3902,
"Longitude": 10.5201
},
{
"Name": "Vissenbjerg",
"PostCode": "5492",
"Latitude": 55.3848,
"Longitude": 10.1378
}
]
}
]
},
{
"Name": "Svendborg Kommune",
"Code": "479",
"Communities": [
{
"Places": [
{
"Name": "Gislev",
"PostCode": "5854",
"Latitude": 55.2181,
"Longitude": 10.6022
},
{
"Name": "Gudbjerg Sydfyn",
"PostCode": "5892",
"Latitude": 55.2064,
"Longitude": 10.6852
},
{
"Name": "Gudme",
"PostCode": "5884",
"Latitude": 55.1498,
"Longitude": 10.708
},
{
"Name": "Hesselager",
"PostCode": "5874",
"Latitude": 55.1755,
"Longitude": 10.7452
},
{
"Name": "Kværndrup",
"PostCode": "5772",
"Latitude": 55.1775,
"Longitude": 10.5255
},
{
"Name": "Oure",
"PostCode": "5883",
"Latitude": 55.1197,
"Longitude": 10.7234
},
{
"Name": "Skårup Fyn",
"PostCode": "5881",
"Latitude": 55.1251,
"Longitude": 10.7146
},
{
"Name": "Stenstrup",
"PostCode": "5771",
"Latitude": 55.1335,
"Longitude": 10.5047
},
{
"Name": "Svendborg",
"PostCode": "5700",
"Latitude": 55.0598,
"Longitude": 10.6068
},
{
"Name": "Vejstrup",
"PostCode": "5882",
"Latitude": 55.1059,
"Longitude": 10.7124
},
{
"Name": "Vester Skerninge",
"PostCode": "5762",
"Latitude": 55.0732,
"Longitude": 10.4554
}
]
}
]
},
{
"Name": "Nordfyns Kommune",
"Code": "480",
"Communities": [
{
"Places": [
{
"Name": "Aarup",
"PostCode": "5560",
"Latitude": 55.3732,
"Longitude": 10.0413
},
{
"Name": "Blommenslyst",
"PostCode": "5491",
"Latitude": 55.3895,
"Longitude": 10.2629
},
{
"Name": "Bogense",
"PostCode": "5400",
"Latitude": 55.5669,
"Longitude": 10.0886
},
{
"Name": "Morud",
"PostCode": "5462",
"Latitude": 55.4481,
"Longitude": 10.1896
},
{
"Name": "Odense N",
"PostCode": "5270",
"Latitude": 55.3902,
"Longitude": 10.5201
},
{
"Name": "Otterup",
"PostCode": "5450",
"Latitude": 55.5153,
"Longitude": 10.3976
},
{
"Name": "Skamby",
"PostCode": "5485",
"Latitude": 55.5208,
"Longitude": 10.2749
},
{
"Name": "Søndersø",
"PostCode": "5471",
"Latitude": 55.4853,
"Longitude": 10.2554
},
{
"Name": "Veflinge",
"PostCode": "5474",
"Latitude": 55.4755,
"Longitude": 10.1602
},
{
"Name": "Vissenbjerg",
"PostCode": "5492",
"Latitude": 55.3848,
"Longitude": 10.1378
}
]
}
]
},
{
"Name": "Langeland Kommune",
"Code": "482",
"Communities": [
{
"Places": [
{
"Name": "Bagenkop",
"PostCode": "5935",
"Latitude": 54.7498,
"Longitude": 10.676
},
{
"Name": "Humble",
"PostCode": "5932",
"Latitude": 54.8297,
"Longitude": 10.6996
},
{
"Name": "Rudkøbing",
"PostCode": "5900",
"Latitude": 54.9364,
"Longitude": 10.7102
},
{
"Name": "Tranekær",
"PostCode": "5953",
"Latitude": 54.9976,
"Longitude": 10.8438
}
]
}
]
},
{
"Name": "Ærø Kommune",
"Code": "492",
"Communities": [
{
"Places": [
{
"Name": "Ærøskøbing",
"PostCode": "5970",
"Latitude": 54.888,
"Longitude": 10.4112
},
{
"Name": "Marstal",
"PostCode": "5960",
"Latitude": 54.8562,
"Longitude": 10.5173
},
{
"Name": "Søby Ærø",
"PostCode": "5985",
"Latitude": 54.8763,
"Longitude": 10.643
}
]
}
]
},
{
"Name": "Haderslev Kommune",
"Code": "510",
"Communities": [
{
"Places": [
{
"Name": "Agerskov",
"PostCode": "6534",
"Latitude": 55.1289,
"Longitude": 9.1355
},
{
"Name": "Bevtoft",
"PostCode": "6541",
"Latitude": 55.2018,
"Longitude": 9.2147
},
{
"Name": "Christiansfeld",
"PostCode": "6070",
"Latitude": 55.3582,
"Longitude": 9.487
},
{
"Name": "Gram",
"PostCode": "6510",
"Latitude": 55.2895,
"Longitude": 9.0491
},
{
"Name": "Haderslev",
"PostCode": "6100",
"Latitude": 55.2538,
"Longitude": 9.4898
},
{
"Name": "Hejls",
"PostCode": "6094",
"Latitude": 55.3831,
"Longitude": 9.5765
},
{
"Name": "Rødding",
"PostCode": "6630",
"Latitude": 55.3657,
"Longitude": 9.0632
},
{
"Name": "Sommersted",
"PostCode": "6560",
"Latitude": 55.3187,
"Longitude": 9.2956
},
{
"Name": "Toftlund",
"PostCode": "6520",
"Latitude": 55.1886,
"Longitude": 9.0693
},
{
"Name": "Vojens",
"PostCode": "6500",
"Latitude": 55.2464,
"Longitude": 9.306
}
]
}
]
},
{
"Name": "Billund Kommune",
"Code": "530",
"Communities": [
{
"Places": [
{
"Name": "Ansager",
"PostCode": "6823",
"Latitude": 55.7031,
"Longitude": 8.7586
},
{
"Name": "Billund",
"PostCode": "7190",
"Latitude": 55.7335,
"Longitude": 9.1079
},
{
"Name": "Grindsted",
"PostCode": "7200",
"Latitude": 55.754,
"Longitude": 8.9123
},
{
"Name": "Hejnsvig",
"PostCode": "7250",
"Latitude": 55.6953,
"Longitude": 8.9973
},
{
"Name": "Hovborg",
"PostCode": "6682",
"Latitude": 55.6081,
"Longitude": 8.9396
},
{
"Name": "Sønder Omme",
"PostCode": "7260",
"Latitude": 55.8398,
"Longitude": 8.8972
},
{
"Name": "Stakroge",
"PostCode": "7270",
"Latitude": 55.8901,
"Longitude": 8.8473
},
{
"Name": "Vorbasse",
"PostCode": "6623",
"Latitude": 55.6299,
"Longitude": 9.0824
}
]
}
]
},
{
"Name": "Sønderborg Kommune",
"Code": "540",
"Communities": [
{
"Places": [
{
"Name": "Augustenborg",
"PostCode": "6440",
"Latitude": 54.952,
"Longitude": 9.8722
},
{
"Name": "Broager",
"PostCode": "6310",
"Latitude": 54.8874,
"Longitude": 9.681
},
{
"Name": "Egernsund",
"PostCode": "6320",
"Latitude": 54.9054,
"Longitude": 9.6071
},
{
"Name": "Gråsten",
"PostCode": "6300",
"Latitude": 54.9192,
"Longitude": 9.5952
},
{
"Name": "Nordborg",
"PostCode": "6430",
"Latitude": 55.0573,
"Longitude": 9.7408
},
{
"Name": "Sønderborg",
"PostCode": "6400",
"Latitude": 54.9093,
"Longitude": 9.8074
},
{
"Name": "Sydals",
"PostCode": "6470",
"Latitude": 54.994,
"Longitude": 9.7903
}
]
}
]
},
{
"Name": "Tønder Kommune",
"Code": "550",
"Communities": [
{
"Places": [
{
"Name": "Agerskov",
"PostCode": "6534",
"Latitude": 55.1289,
"Longitude": 9.1355
},
{
"Name": "Bevtoft",
"PostCode": "6541",
"Latitude": 55.2018,
"Longitude": 9.2147
},
{
"Name": "Branderup J",
"PostCode": "6535",
"Latitude": 55.1289,
"Longitude": 9.1355
},
{
"Name": "Bredebro",
"PostCode": "6261",
"Latitude": 55.0548,
"Longitude": 8.8293
},
{
"Name": "Højer",
"PostCode": "6280",
"Latitude": 54.9634,
"Longitude": 8.6985
},
{
"Name": "Løgumkloster",
"PostCode": "6240",
"Latitude": 55.0594,
"Longitude": 8.9551
},
{
"Name": "Rømø",
"PostCode": "6792",
"Latitude": 55.1132,
"Longitude": 8.5428
},
{
"Name": "Skærbæk",
"PostCode": "6780",
"Latitude": 55.1574,
"Longitude": 8.769
},
{
"Name": "Toftlund",
"PostCode": "6520",
"Latitude": 55.1886,
"Longitude": 9.0693
},
{
"Name": "Tønder",
"PostCode": "6270",
"Latitude": 54.9331,
"Longitude": 8.8667
}
]
}
]
},
{
"Name": "Esbjerg Kommune",
"Code": "561",
"Communities": [
{
"Places": [
{
"Name": "Årre",
"PostCode": "6818",
"Latitude": 55.5725,
"Longitude": 8.6675
},
{
"Name": "Bramming",
"PostCode": "6740",
"Latitude": 55.4695,
"Longitude": 8.7001
},
{
"Name": "Esbjerg",
"PostCode": "6700",
"Latitude": 55.4703,
"Longitude": 8.4519
},
{
"Name": "Esbjerg N",
"PostCode": "6715",
"Latitude": 55.4187,
"Longitude": 8.6685
},
{
"Name": "Esbjerg Ø",
"PostCode": "6705",
"Latitude": 55.4703,
"Longitude": 8.4519
},
{
"Name": "Esbjerg V",
"PostCode": "6710",
"Latitude": 55.4187,
"Longitude": 8.6685
},
{
"Name": "Føvling",
"PostCode": "6683",
"Latitude": 55.4521,
"Longitude": 8.9396
},
{
"Name": "Gørding",
"PostCode": "6690",
"Latitude": 55.4746,
"Longitude": 8.7974
},
{
"Name": "Gredstedbro",
"PostCode": "6771",
"Latitude": 55.3983,
"Longitude": 8.7391
},
{
"Name": "Holsted",
"PostCode": "6670",
"Latitude": 55.5109,
"Longitude": 8.9187
},
{
"Name": "Ribe",
"PostCode": "6760",
"Latitude": 55.3305,
"Longitude": 8.7697
},
{
"Name": "Tjæreborg",
"PostCode": "6731",
"Latitude": 55.4646,
"Longitude": 8.5797
}
]
}
]
},
{
"Name": "Fanø Kommune",
"Code": "563",
"Communities": [
{
"Places": [
{
"Name": "Fanø",
"PostCode": "6720",
"Latitude": 55.435,
"Longitude": 8.3679
}
]
}
]
},
{
"Name": "Varde Kommune",
"Code": "573",
"Communities": [
{
"Places": [
{
"Name": "Agerbæk",
"PostCode": "6753",
"Latitude": 55.6,
"Longitude": 8.8
},
{
"Name": "Ansager",
"PostCode": "6823",
"Latitude": 55.7031,
"Longitude": 8.7586
},
{
"Name": "Årre",
"PostCode": "6818",
"Latitude": 55.5725,
"Longitude": 8.6675
},
{
"Name": "Billum",
"PostCode": "6852",
"Latitude": 55.6167,
"Longitude": 8.3333
},
{
"Name": "Blåvand",
"PostCode": "6857",
"Latitude": 55.5529,
"Longitude": 8.1198
},
{
"Name": "Grindsted",
"PostCode": "7200",
"Latitude": 55.754,
"Longitude": 8.9123
},
{
"Name": "Henne",
"PostCode": "6854",
"Latitude": 55.7317,
"Longitude": 8.2209
},
{
"Name": "Hovborg",
"PostCode": "6682",
"Latitude": 55.6081,
"Longitude": 8.9396
},
{
"Name": "Janderup Vestj",
"PostCode": "6851",
"Latitude": 55.6336,
"Longitude": 8.2018
},
{
"Name": "Nørre Nebel",
"PostCode": "6830",
"Latitude": 55.7798,
"Longitude": 8.2952
},
{
"Name": "Oksbøl",
"PostCode": "6840",
"Latitude": 55.6268,
"Longitude": 8.2876
},
{
"Name": "Ølgod",
"PostCode": "6870",
"Latitude": 55.8068,
"Longitude": 8.6286
},
{
"Name": "Outrup",
"PostCode": "6855",
"Latitude": 55.6336,
"Longitude": 8.2018
},
{
"Name": "Tarm",
"PostCode": "6880",
"Latitude": 55.9086,
"Longitude": 8.5304
},
{
"Name": "Tistrup",
"PostCode": "6862",
"Latitude": 55.7172,
"Longitude": 8.6043
},
{
"Name": "Varde",
"PostCode": "6800",
"Latitude": 55.6211,
"Longitude": 8.4807
},
{
"Name": "Vejers Strand",
"PostCode": "6853",
"Latitude": 55.6333,
"Longitude": 8.1333
}
]
}
]
},
{
"Name": "Vejen Kommune",
"Code": "575",
"Communities": [
{
"Places": [
{
"Name": "Agerbæk",
"PostCode": "6753",
"Latitude": 55.6,
"Longitude": 8.8
},
{
"Name": "Bække",
"PostCode": "6622",
"Latitude": 55.5703,
"Longitude": 9.1397
},
{
"Name": "Brørup",
"PostCode": "6650",
"Latitude": 55.4819,
"Longitude": 9.0176
},
{
"Name": "Føvling",
"PostCode": "6683",
"Latitude": 55.4521,
"Longitude": 8.9396
},
{
"Name": "Gesten",
"PostCode": "6621",
"Latitude": 55.5253,
"Longitude": 9.2076
},
{
"Name": "Glejbjerg",
"PostCode": "6752",
"Latitude": 55.5667,
"Longitude": 8.8333
},
{
"Name": "Gørding",
"PostCode": "6690",
"Latitude": 55.4746,
"Longitude": 8.7974
},
{
"Name": "Holsted",
"PostCode": "6670",
"Latitude": 55.5109,
"Longitude": 8.9187
},
{
"Name": "Hovborg",
"PostCode": "6682",
"Latitude": 55.6081,
"Longitude": 8.9396
},
{
"Name": "Lintrup",
"PostCode": "6660",
"Latitude": 55.5544,
"Longitude": 8.9278
},
{
"Name": "Rødding",
"PostCode": "6630",
"Latitude": 55.3657,
"Longitude": 9.0632
},
{
"Name": "Vejen",
"PostCode": "6600",
"Latitude": 55.4812,
"Longitude": 9.1379
},
{
"Name": "Vorbasse",
"PostCode": "6623",
"Latitude": 55.6299,
"Longitude": 9.0824
}
]
}
]
},
{
"Name": "Aabenraa Kommune",
"Code": "580",
"Communities": [
{
"Places": [
{
"Name": "Aabenraa",
"PostCode": "6200",
"Latitude": 55.0443,
"Longitude": 9.4174
},
{
"Name": "Agerskov",
"PostCode": "6534",
"Latitude": 55.1289,
"Longitude": 9.1355
},
{
"Name": "Bolderslev",
"PostCode": "6392",
"Latitude": 54.9925,
"Longitude": 9.284
},
{
"Name": "Bylderup-Bov",
"PostCode": "6372",
"Latitude": 54.9387,
"Longitude": 9.0857
},
{
"Name": "Kruså",
"PostCode": "6340",
"Latitude": 54.851,
"Longitude": 9.4013
},
{
"Name": "Padborg",
"PostCode": "6330",
"Latitude": 54.8266,
"Longitude": 9.3625
},
{
"Name": "Rødekro",
"PostCode": "6230",
"Latitude": 55.0702,
"Longitude": 9.3164
},
{
"Name": "Tinglev",
"PostCode": "6360",
"Latitude": 54.931,
"Longitude": 9.2524
}
]
}
]
},
{
"Name": "Fredericia Kommune",
"Code": "607",
"Communities": [
{
"Places": [
{
"Name": "Fredericia",
"PostCode": "7000",
"Latitude": 55.5657,
"Longitude": 9.7526
},
{
"Name": "Fredericia",
"PostCode": "7007",
"Latitude": 55.5657,
"Longitude": 9.7526
}
]
}
]
},
{
"Name": "Kolding Kommune",
"Code": "621",
"Communities": [
{
"Places": [
{
"Name": "Almind",
"PostCode": "6051",
"Latitude": 55.5649,
"Longitude": 9.487
},
{
"Name": "Bjert",
"PostCode": "6091",
"Latitude": 55.4077,
"Longitude": 9.5738
},
{
"Name": "Christiansfeld",
"PostCode": "6070",
"Latitude": 55.3582,
"Longitude": 9.487
},
{
"Name": "Egtved",
"PostCode": "6040",
"Latitude": 55.618,
"Longitude": 9.301
},
{
"Name": "Haderslev",
"PostCode": "6100",
"Latitude": 55.2538,
"Longitude": 9.4898
},
{
"Name": "Hejls",
"PostCode": "6094",
"Latitude": 55.3831,
"Longitude": 9.5765
},
{
"Name": "Jordrup",
"PostCode": "6064",
"Latitude": 55.558,
"Longitude": 9.3122
},
{
"Name": "Kolding",
"PostCode": "6000",
"Latitude": 55.4904,
"Longitude": 9.4722
},
{
"Name": "Lunderskov",
"PostCode": "6640",
"Latitude": 55.4838,
"Longitude": 9.2992
},
{
"Name": "Nordborg",
"PostCode": "6430",
"Latitude": 55.0573,
"Longitude": 9.7408
},
{
"Name": "Sjølund",
"PostCode": "6093",
"Latitude": 55.4024,
"Longitude": 9.5302
},
{
"Name": "Sommersted",
"PostCode": "6560",
"Latitude": 55.3187,
"Longitude": 9.2956
},
{
"Name": "Sønder Stenderup",
"PostCode": "6092",
"Latitude": 55.4623,
"Longitude": 9.6119
},
{
"Name": "Vamdrup",
"PostCode": "6580",
"Latitude": 55.4276,
"Longitude": 9.2843
},
{
"Name": "Viuf",
"PostCode": "6052",
"Latitude": 55.5853,
"Longitude": 9.4924
}
]
}
]
},
{
"Name": "Vejle Kommune",
"Code": "630",
"Communities": [
{
"Places": [
{
"Name": "Billund",
"PostCode": "7190",
"Latitude": 55.7335,
"Longitude": 9.1079
},
{
"Name": "Børkop",
"PostCode": "7080",
"Latitude": 55.6379,
"Longitude": 9.6482
},
{
"Name": "Brande",
"PostCode": "7330",
"Latitude": 55.9381,
"Longitude": 9.1218
},
{
"Name": "Bredsten",
"PostCode": "7182",
"Latitude": 55.7013,
"Longitude": 9.385
},
{
"Name": "Egtved",
"PostCode": "6040",
"Latitude": 55.618,
"Longitude": 9.301
},
{
"Name": "Ejstrupholm",
"PostCode": "7361",
"Latitude": 55.9841,
"Longitude": 9.2818
},
{
"Name": "Fredericia",
"PostCode": "7000",
"Latitude": 55.5657,
"Longitude": 9.7526
},
{
"Name": "Gadbjerg",
"PostCode": "7321",
"Latitude": 55.7715,
"Longitude": 9.3248
},
{
"Name": "Give",
"PostCode": "7323",
"Latitude": 55.8398,
"Longitude": 9.25
},
{
"Name": "Grindsted",
"PostCode": "7200",
"Latitude": 55.754,
"Longitude": 8.9123
},
{
"Name": "Jelling",
"PostCode": "7300",
"Latitude": 55.7559,
"Longitude": 9.4258
},
{
"Name": "Randbøl",
"PostCode": "7183",
"Latitude": 55.6943,
"Longitude": 9.2475
},
{
"Name": "Tørring",
"PostCode": "7160",
"Latitude": 55.85,
"Longitude": 9.4833
},
{
"Name": "Vandel",
"PostCode": "7184",
"Latitude": 55.7085,
"Longitude": 9.2133
},
{
"Name": "Vejle",
"PostCode": "7100",
"Latitude": 55.7093,
"Longitude": 9.5357
},
{
"Name": "Vejle Øst",
"PostCode": "7120",
"Latitude": 55.758,
"Longitude": 9.4862
},
{
"Name": "Viuf",
"PostCode": "6052",
"Latitude": 55.5853,
"Longitude": 9.4924
},
{
"Name": "Vonge",
"PostCode": "7173",
"Latitude": 55.8604,
"Longitude": 9.4194
},
{
"Name": "Vorbasse",
"PostCode": "6623",
"Latitude": 55.6299,
"Longitude": 9.0824
}
]
}
]
}
]
},
{
"Name": "Region Hovedstaden",
"Code": "84",
"Provinces": [
{
"Name": "Københavns Kommune",
"Code": "101",
"Communities": [
{
"Places": [
{
"Name": "Brønshøj",
"PostCode": "2700",
"Latitude": 55.7057,
"Longitude": 12.4964
},
{
"Name": "Centraltastning",
"PostCode": "1513",
"Latitude": 55.6711,
"Longitude": 12.5653
},
{
"Name": "Frederiksberg",
"PostCode": "2000",
"Latitude": 55.6794,
"Longitude": 12.5346
},
{
"Name": "Frederiksberg C",
"PostCode": "1810",
"Latitude": 55.6794,
"Longitude": 12.5346
},
{
"Name": "Hellerup",
"PostCode": "2900",
"Latitude": 55.732,
"Longitude": 12.5709
},
{
"Name": "Kastrup",
"PostCode": "2770",
"Latitude": 55.6352,
"Longitude": 12.6489
},
{
"Name": "København C",
"PostCode": "0900",
"Latitude": 57.048,
"Longitude": 9.9187
},
{
"Name": "København C",
"PostCode": "0999",
"Latitude": 57.7209,
"Longitude": 10.5839
},
{
"Name": "København K",
"PostCode": "1000",
"Latitude": 55.6759,
"Longitude": 12.5655
},
{
"Name": "København K",
"PostCode": "1050",
"Latitude": 55.6759,
"Longitude": 12.5655
},
{
"Name": "København K",
"PostCode": "1051",
"Latitude": 55.6759,
"Longitude": 12.5655
},
{
"Name": "København K",
"PostCode": "1052",
"Latitude": 55.6759,
"Longitude": 12.5655
},
{
"Name": "København K",
"PostCode": "1053",
"Latitude": 55.6759,
"Longitude": 12.5655
},
{
"Name": "København K",
"PostCode": "1054",
"Latitude": 55.6759,
"Longitude": 12.5655
},
{
"Name": "København K",
"PostCode": "1055",
"Latitude": 55.6759,
"Longitude": 12.5655
},
{
"Name": "København K",
"PostCode": "1056",
"Latitude": 55.6759,
"Longitude": 12.5655
},
{
"Name": "København K",
"PostCode": "1057",
"Latitude": 55.6759,
"Longitude": 12.5655
},
{
"Name": "København K",
"PostCode": "1058",
"Latitude": 55.6759,
"Longitude": 12.5655
},
{
"Name": "København K",
"PostCode": "1059",
"Latitude": 55.6759,
"Longitude": 12.5655
},
{
"Name": "København K",
"PostCode": "1060",
"Latitude": 55.6759,
"Longitude": 12.5655
},
{
"Name": "København K",
"PostCode": "1061",
"Latitude": 55.6759,
"Longitude": 12.5655
},
{
"Name": "København K",
"PostCode": "1062",
"Latitude": 55.6759,
"Longitude": 12.5655
},
{
"Name": "København K",
"PostCode": "1063",
"Latitude": 55.6759,
"Longitude": 12.5655
},
{
"Name": "København K",
"PostCode": "1064",
"Latitude": 55.6759,
"Longitude": 12.5655
},
{
"Name": "København K",
"PostCode": "1065",
"Latitude": 55.6759,
"Longitude": 12.5655
},
{
"Name": "København K",
"PostCode": "1066",
"Latitude": 55.6759,
"Longitude": 12.5655
},
{
"Name": "København K",
"PostCode": "1067",
"Latitude": 55.6759,
"Longitude": 12.5655
},
{
"Name": "København K",
"PostCode": "1068",
"Latitude": 55.6759,
"Longitude": 12.5655
},
{
"Name": "København K",
"PostCode": "1069",
"Latitude": 55.6759,
"Longitude": 12.5655
},
{
"Name": "København K",
"PostCode": "1070",
"Latitude": 55.6759,
"Longitude": 12.5655
},
{
"Name": "København K",
"PostCode": "1071",
"Latitude": 55.6759,
"Longitude": 12.5655
},
{
"Name": "København K",
"PostCode": "1072",
"Latitude": 55.6759,
"Longitude": 12.5655
},
{
"Name": "København K",
"PostCode": "1073",
"Latitude": 55.6759,
"Longitude": 12.5655
},
{
"Name": "København K",
"PostCode": "1074",
"Latitude": 55.6759,
"Longitude": 12.5655
},
{
"Name": "København K",
"PostCode": "1092",
"Latitude": 55.6759,
"Longitude": 12.5655
},
{
"Name": "København K",
"PostCode": "1093",
"Latitude": 55.6759,
"Longitude": 12.5655
},
{
"Name": "København K",
"PostCode": "1095",
"Latitude": 55.6759,
"Longitude": 12.5655
},
{
"Name": "København K",
"PostCode": "1098",
"Latitude": 55.6759,
"Longitude": 12.5655
},
{
"Name": "København K",
"PostCode": "1100",
"Latitude": 55.6759,
"Longitude": 12.5655
},
{
"Name": "København K",
"PostCode": "1101",
"Latitude": 55.6759,
"Longitude": 12.5655
},
{
"Name": "København K",
"PostCode": "1102",
"Latitude": 55.6759,
"Longitude": 12.5655
},
{
"Name": "København K",
"PostCode": "1103",
"Latitude": 55.6759,
"Longitude": 12.5655
},
{
"Name": "København K",
"PostCode": "1104",
"Latitude": 55.6759,
"Longitude": 12.5655
},
{
"Name": "København K",
"PostCode": "1105",
"Latitude": 55.6759,
"Longitude": 12.5655
},
{
"Name": "København K",
"PostCode": "1106",
"Latitude": 55.6759,
"Longitude": 12.5655
},
{
"Name": "København K",
"PostCode": "1107",
"Latitude": 55.6759,
"Longitude": 12.5655
},
{
"Name": "København K",
"PostCode": "1110",
"Latitude": 55.6759,
"Longitude": 12.5655
},
{
"Name": "København K",
"PostCode": "1111",
"Latitude": 55.6759,
"Longitude": 12.5655
},
{
"Name": "København K",
"PostCode": "1112",
"Latitude": 55.6759,
"Longitude": 12.5655
},
{
"Name": "København K",
"PostCode": "1113",
"Latitude": 55.6759,
"Longitude": 12.5655
},
{
"Name": "København K",
"PostCode": "1114",
"Latitude": 55.6759,
"Longitude": 12.5655
},
{
"Name": "København K",
"PostCode": "1115",
"Latitude": 55.6759,
"Longitude": 12.5655
},
{
"Name": "København K",
"PostCode": "1116",
"Latitude": 55.6759,
"Longitude": 12.5655
},
{
"Name": "København K",
"PostCode": "1117",
"Latitude": 55.6759,
"Longitude": 12.5655
},
{
"Name": "København K",
"PostCode": "1118",
"Latitude": 55.6759,
"Longitude": 12.5655
},
{
"Name": "København K",
"PostCode": "1119",
"Latitude": 55.6759,
"Longitude": 12.5655
},
{
"Name": "København K",
"PostCode": "1120",
"Latitude": 55.6759,
"Longitude": 12.5655
},
{
"Name": "København K",
"PostCode": "1121",
"Latitude": 55.6759,
"Longitude": 12.5655
},
{
"Name": "København K",
"PostCode": "1122",
"Latitude": 55.6759,
"Longitude": 12.5655
},
{
"Name": "København K",
"PostCode": "1123",
"Latitude": 55.6759,
"Longitude": 12.5655
},
{
"Name": "København K",
"PostCode": "1124",
"Latitude": 55.6759,
"Longitude": 12.5655
},
{
"Name": "København K",
"PostCode": "1125",
"Latitude": 55.6759,
"Longitude": 12.5655
},
{
"Name": "København K",
"PostCode": "1126",
"Latitude": 55.6759,
"Longitude": 12.5655
},
{
"Name": "København K",
"PostCode": "1127",
"Latitude": 55.6759,
"Longitude": 12.5655
},
{
"Name": "København K",
"PostCode": "1128",
"Latitude": 55.6759,
"Longitude": 12.5655
},
{
"Name": "København K",
"PostCode": "1129",
"Latitude": 55.6759,
"Longitude": 12.5655
},
{
"Name": "København K",
"PostCode": "1130",
"Latitude": 55.6759,
"Longitude": 12.5655
},
{
"Name": "København K",
"PostCode": "1131",
"Latitude": 55.6759,
"Longitude": 12.5655
},
{
"Name": "København K",
"PostCode": "1140",
"Latitude": 55.6759,
"Longitude": 12.5655
},
{
"Name": "København K",
"PostCode": "1147",
"Latitude": 55.6759,
"Longitude": 12.5655
},
{
"Name": "København K",
"PostCode": "1148",
"Latitude": 55.6759,
"Longitude": 12.5655
},
{
"Name": "København K",
"PostCode": "1150",
"Latitude": 55.6759,
"Longitude": 12.5655
},
{
"Name": "København K",
"PostCode": "1151",
"Latitude": 55.6759,
"Longitude": 12.5655
},
{
"Name": "København K",
"PostCode": "1152",
"Latitude": 55.6759,
"Longitude": 12.5655
},
{
"Name": "København K",
"PostCode": "1153",
"Latitude": 55.6759,
"Longitude": 12.5655
},
{
"Name": "København K",
"PostCode": "1154",
"Latitude": 55.6759,
"Longitude": 12.5655
},
{
"Name": "København K",
"PostCode": "1155",
"Latitude": 55.6759,
"Longitude": 12.5655
},
{
"Name": "København K",
"PostCode": "1156",
"Latitude": 55.6759,
"Longitude": 12.5655
},
{
"Name": "København K",
"PostCode": "1157",
"Latitude": 55.6759,
"Longitude": 12.5655
},
{
"Name": "København K",
"PostCode": "1158",
"Latitude": 55.6759,
"Longitude": 12.5655
},
{
"Name": "København K",
"PostCode": "1159",
"Latitude": 55.6759,
"Longitude": 12.5655
},
{
"Name": "København K",
"PostCode": "1160",
"Latitude": 55.6759,
"Longitude": 12.5655
},
{
"Name": "København K",
"PostCode": "1161",
"Latitude": 55.6759,
"Longitude": 12.5655
},
{
"Name": "København K",
"PostCode": "1162",
"Latitude": 55.6759,
"Longitude": 12.5655
},
{
"Name": "København K",
"PostCode": "1164",
"Latitude": 55.6759,
"Longitude": 12.5655
},
{
"Name": "København K",
"PostCode": "1165",
"Latitude": 55.6759,
"Longitude": 12.5655
},
{
"Name": "København K",
"PostCode": "1166",
"Latitude": 55.6759,
"Longitude": 12.5655
},
{
"Name": "København K",
"PostCode": "1167",
"Latitude": 55.6759,
"Longitude": 12.5655
},
{
"Name": "København K",
"PostCode": "1168",
"Latitude": 55.6759,
"Longitude": 12.5655
},
{
"Name": "København K",
"PostCode": "1169",
"Latitude": 55.6759,
"Longitude": 12.5655
},
{
"Name": "København K",
"PostCode": "1170",
"Latitude": 55.6759,
"Longitude": 12.5655
},
{
"Name": "København K",
"PostCode": "1171",
"Latitude": 55.6759,
"Longitude": 12.5655
},
{
"Name": "København K",
"PostCode": "1172",
"Latitude": 55.6759,
"Longitude": 12.5655
},
{
"Name": "København K",
"PostCode": "1173",
"Latitude": 55.6759,
"Longitude": 12.5655
},
{
"Name": "København K",
"PostCode": "1174",
"Latitude": 55.6759,
"Longitude": 12.5655
},
{
"Name": "København K",
"PostCode": "1175",
"Latitude": 55.6759,
"Longitude": 12.5655
},
{
"Name": "København K",
"PostCode": "1200",
"Latitude": 55.6759,
"Longitude": 12.5655
},
{
"Name": "København K",
"PostCode": "1201",
"Latitude": 55.6759,
"Longitude": 12.5655
},
{
"Name": "København K",
"PostCode": "1202",
"Latitude": 55.6759,
"Longitude": 12.5655
},
{
"Name": "København K",
"PostCode": "1203",
"Latitude": 55.6759,
"Longitude": 12.5655
},
{
"Name": "København K",
"PostCode": "1204",
"Latitude": 55.6759,
"Longitude": 12.5655
},
{
"Name": "København K",
"PostCode": "1205",
"Latitude": 55.6759,
"Longitude": 12.5655
},
{
"Name": "København K",
"PostCode": "1206",
"Latitude": 55.6759,
"Longitude": 12.5655
},
{
"Name": "København K",
"PostCode": "1207",
"Latitude": 55.6759,
"Longitude": 12.5655
},
{
"Name": "København K",
"PostCode": "1208",
"Latitude": 55.6759,
"Longitude": 12.5655
},
{
"Name": "København K",
"PostCode": "1209",
"Latitude": 55.6759,
"Longitude": 12.5655
},
{
"Name": "København K",
"PostCode": "1210",
"Latitude": 55.6759,
"Longitude": 12.5655
},
{
"Name": "København K",
"PostCode": "1211",
"Latitude": 55.6759,
"Longitude": 12.5655
},
{
"Name": "København K",
"PostCode": "1213",
"Latitude": 55.6759,
"Longitude": 12.5655
},
{
"Name": "København K",
"PostCode": "1214",
"Latitude": 55.6759,
"Longitude": 12.5655
},
{
"Name": "København K",
"PostCode": "1215",
"Latitude": 55.6759,
"Longitude": 12.5655
},
{
"Name": "København K",
"PostCode": "1216",
"Latitude": 55.6759,
"Longitude": 12.5655
},
{
"Name": "København K",
"PostCode": "1217",
"Latitude": 55.6759,
"Longitude": 12.5655
},
{
"Name": "København K",
"PostCode": "1218",
"Latitude": 55.6759,
"Longitude": 12.5655
},
{
"Name": "København K",
"PostCode": "1219",
"Latitude": 55.6759,
"Longitude": 12.5655
},
{
"Name": "København K",
"PostCode": "1220",
"Latitude": 55.6759,
"Longitude": 12.5655
},
{
"Name": "København K",
"PostCode": "1221",
"Latitude": 55.6759,
"Longitude": 12.5655
},
{
"Name": "København K",
"PostCode": "1240",
"Latitude": 55.6759,
"Longitude": 12.5655
},
{
"Name": "København K",
"PostCode": "1250",
"Latitude": 55.6759,
"Longitude": 12.5655
},
{
"Name": "København K",
"PostCode": "1251",
"Latitude": 55.6759,
"Longitude": 12.5655
},
{
"Name": "København K",
"PostCode": "1253",
"Latitude": 55.6759,
"Longitude": 12.5655
},
{
"Name": "København K",
"PostCode": "1254",
"Latitude": 55.6759,
"Longitude": 12.5655
},
{
"Name": "København K",
"PostCode": "1255",
"Latitude": 55.6759,
"Longitude": 12.5655
},
{
"Name": "København K",
"PostCode": "1256",
"Latitude": 55.6759,
"Longitude": 12.5655
},
{
"Name": "København K",
"PostCode": "1257",
"Latitude": 55.6759,
"Longitude": 12.5655
},
{
"Name": "København K",
"PostCode": "1259",
"Latitude": 55.6759,
"Longitude": 12.5655
},
{
"Name": "København K",
"PostCode": "1260",
"Latitude": 55.6759,
"Longitude": 12.5655
},
{
"Name": "København K",
"PostCode": "1261",
"Latitude": 55.6759,
"Longitude": 12.5655
},
{
"Name": "København K",
"PostCode": "1263",
"Latitude": 55.6759,
"Longitude": 12.5655
},
{
"Name": "København K",
"PostCode": "1264",
"Latitude": 55.6759,
"Longitude": 12.5655
},
{
"Name": "København K",
"PostCode": "1265",
"Latitude": 55.6759,
"Longitude": 12.5655
},
{
"Name": "København K",
"PostCode": "1266",
"Latitude": 55.6759,
"Longitude": 12.5655
},
{
"Name": "København K",
"PostCode": "1267",
"Latitude": 55.6759,
"Longitude": 12.5655
},
{
"Name": "København K",
"PostCode": "1268",
"Latitude": 55.6759,
"Longitude": 12.5655
},
{
"Name": "København K",
"PostCode": "1270",
"Latitude": 55.6759,
"Longitude": 12.5655
},
{
"Name": "København K",
"PostCode": "1271",
"Latitude": 55.6759,
"Longitude": 12.5655
},
{
"Name": "København K",
"PostCode": "1291",
"Latitude": 55.6759,
"Longitude": 12.5655
},
{
"Name": "København K",
"PostCode": "1300",
"Latitude": 55.6759,
"Longitude": 12.5655
},
{
"Name": "København K",
"PostCode": "1301",
"Latitude": 55.6759,
"Longitude": 12.5655
},
{
"Name": "København K",
"PostCode": "1302",
"Latitude": 55.6759,
"Longitude": 12.5655
},
{
"Name": "København K",
"PostCode": "1303",
"Latitude": 55.6759,
"Longitude": 12.5655
},
{
"Name": "København K",
"PostCode": "1304",
"Latitude": 55.6759,
"Longitude": 12.5655
},
{
"Name": "København K",
"PostCode": "1306",
"Latitude": 55.6759,
"Longitude": 12.5655
},
{
"Name": "København K",
"PostCode": "1307",
"Latitude": 55.6759,
"Longitude": 12.5655
},
{
"Name": "København K",
"PostCode": "1308",
"Latitude": 55.6759,
"Longitude": 12.5655
},
{
"Name": "København K",
"PostCode": "1309",
"Latitude": 55.6759,
"Longitude": 12.5655
},
{
"Name": "København K",
"PostCode": "1310",
"Latitude": 55.6759,
"Longitude": 12.5655
},
{
"Name": "København K",
"PostCode": "1311",
"Latitude": 55.6759,
"Longitude": 12.5655
},
{
"Name": "København K",
"PostCode": "1312",
"Latitude": 55.6759,
"Longitude": 12.5655
},
{
"Name": "København K",
"PostCode": "1313",
"Latitude": 55.6759,
"Longitude": 12.5655
},
{
"Name": "København K",
"PostCode": "1314",
"Latitude": 55.6759,
"Longitude": 12.5655
},
{
"Name": "København K",
"PostCode": "1315",
"Latitude": 55.6759,
"Longitude": 12.5655
},
{
"Name": "København K",
"PostCode": "1316",
"Latitude": 55.6759,
"Longitude": 12.5655
},
{
"Name": "København K",
"PostCode": "1317",
"Latitude": 55.6759,
"Longitude": 12.5655
},
{
"Name": "København K",
"PostCode": "1318",
"Latitude": 55.6759,
"Longitude": 12.5655
},
{
"Name": "København K",
"PostCode": "1319",
"Latitude": 55.6759,
"Longitude": 12.5655
},
{
"Name": "København K",
"PostCode": "1320",
"Latitude": 55.6759,
"Longitude": 12.5655
},
{
"Name": "København K",
"PostCode": "1321",
"Latitude": 55.6759,
"Longitude": 12.5655
},
{
"Name": "København K",
"PostCode": "1322",
"Latitude": 55.6759,
"Longitude": 12.5655
},
{
"Name": "København K",
"PostCode": "1323",
"Latitude": 55.6759,
"Longitude": 12.5655
},
{
"Name": "København K",
"PostCode": "1324",
"Latitude": 55.6759,
"Longitude": 12.5655
},
{
"Name": "København K",
"PostCode": "1325",
"Latitude": 55.6759,
"Longitude": 12.5655
},
{
"Name": "København K",
"PostCode": "1326",
"Latitude": 55.6759,
"Longitude": 12.5655
},
{
"Name": "København K",
"PostCode": "1327",
"Latitude": 55.6759,
"Longitude": 12.5655
},
{
"Name": "København K",
"PostCode": "1328",
"Latitude": 55.6759,
"Longitude": 12.5655
},
{
"Name": "København K",
"PostCode": "1329",
"Latitude": 55.6759,
"Longitude": 12.5655
},
{
"Name": "København K",
"PostCode": "1350",
"Latitude": 55.6759,
"Longitude": 12.5655
},
{
"Name": "København K",
"PostCode": "1352",
"Latitude": 55.6759,
"Longitude": 12.5655
},
{
"Name": "København K",
"PostCode": "1353",
"Latitude": 55.6759,
"Longitude": 12.5655
},
{
"Name": "København K",
"PostCode": "1354",
"Latitude": 55.6759,
"Longitude": 12.5655
},
{
"Name": "København K",
"PostCode": "1355",
"Latitude": 55.6759,
"Longitude": 12.5655
},
{
"Name": "København K",
"PostCode": "1356",
"Latitude": 55.6759,
"Longitude": 12.5655
},
{
"Name": "København K",
"PostCode": "1357",
"Latitude": 55.6759,
"Longitude": 12.5655
},
{
"Name": "København K",
"PostCode": "1358",
"Latitude": 55.6759,
"Longitude": 12.5655
},
{
"Name": "København K",
"PostCode": "1359",
"Latitude": 55.6759,
"Longitude": 12.5655
},
{
"Name": "København K",
"PostCode": "1360",
"Latitude": 55.6759,
"Longitude": 12.5655
},
{
"Name": "København K",
"PostCode": "1361",
"Latitude": 55.6759,
"Longitude": 12.5655
},
{
"Name": "København K",
"PostCode": "1362",
"Latitude": 55.6759,
"Longitude": 12.5655
},
{
"Name": "København K",
"PostCode": "1363",
"Latitude": 55.6759,
"Longitude": 12.5655
},
{
"Name": "København K",
"PostCode": "1364",
"Latitude": 55.6759,
"Longitude": 12.5655
},
{
"Name": "København K",
"PostCode": "1365",
"Latitude": 55.6759,
"Longitude": 12.5655
},
{
"Name": "København K",
"PostCode": "1366",
"Latitude": 55.6759,
"Longitude": 12.5655
},
{
"Name": "København K",
"PostCode": "1367",
"Latitude": 55.6759,
"Longitude": 12.5655
},
{
"Name": "København K",
"PostCode": "1368",
"Latitude": 55.6759,
"Longitude": 12.5655
},
{
"Name": "København K",
"PostCode": "1369",
"Latitude": 55.6759,
"Longitude": 12.5655
},
{
"Name": "København K",
"PostCode": "1370",
"Latitude": 55.6759,
"Longitude": 12.5655
},
{
"Name": "København K",
"PostCode": "1371",
"Latitude": 55.6759,
"Longitude": 12.5655
},
{
"Name": "København K",
"PostCode": "1400",
"Latitude": 55.6759,
"Longitude": 12.5655
},
{
"Name": "København K",
"PostCode": "1401",
"Latitude": 55.6759,
"Longitude": 12.5655
},
{
"Name": "København K",
"PostCode": "1402",
"Latitude": 55.6759,
"Longitude": 12.5655
},
{
"Name": "København K",
"PostCode": "1403",
"Latitude": 55.6759,
"Longitude": 12.5655
},
{
"Name": "København K",
"PostCode": "1406",
"Latitude": 55.6759,
"Longitude": 12.5655
},
{
"Name": "København K",
"PostCode": "1407",
"Latitude": 55.6759,
"Longitude": 12.5655
},
{
"Name": "København K",
"PostCode": "1408",
"Latitude": 55.6759,
"Longitude": 12.5655
},
{
"Name": "København K",
"PostCode": "1409",
"Latitude": 55.6759,
"Longitude": 12.5655
},
{
"Name": "København K",
"PostCode": "1410",
"Latitude": 55.6759,
"Longitude": 12.5655
},
{
"Name": "København K",
"PostCode": "1411",
"Latitude": 55.6759,
"Longitude": 12.5655
},
{
"Name": "København K",
"PostCode": "1412",
"Latitude": 55.6759,
"Longitude": 12.5655
},
{
"Name": "København K",
"PostCode": "1413",
"Latitude": 55.6759,
"Longitude": 12.5655
},
{
"Name": "København K",
"PostCode": "1414",
"Latitude": 55.6759,
"Longitude": 12.5655
},
{
"Name": "København K",
"PostCode": "1415",
"Latitude": 55.6759,
"Longitude": 12.5655
},
{
"Name": "København K",
"PostCode": "1416",
"Latitude": 55.6759,
"Longitude": 12.5655
},
{
"Name": "København K",
"PostCode": "1417",
"Latitude": 55.6759,
"Longitude": 12.5655
},
{
"Name": "København K",
"PostCode": "1418",
"Latitude": 55.6759,
"Longitude": 12.5655
},
{
"Name": "København K",
"PostCode": "1419",
"Latitude": 55.6759,
"Longitude": 12.5655
},
{
"Name": "København K",
"PostCode": "1420",
"Latitude": 55.6759,
"Longitude": 12.5655
},
{
"Name": "København K",
"PostCode": "1421",
"Latitude": 55.6759,
"Longitude": 12.5655
},
{
"Name": "København K",
"PostCode": "1422",
"Latitude": 55.6759,
"Longitude": 12.5655
},
{
"Name": "København K",
"PostCode": "1423",
"Latitude": 55.6759,
"Longitude": 12.5655
},
{
"Name": "København K",
"PostCode": "1424",
"Latitude": 55.6759,
"Longitude": 12.5655
},
{
"Name": "København K",
"PostCode": "1425",
"Latitude": 55.6759,
"Longitude": 12.5655
},
{
"Name": "København K",
"PostCode": "1426",
"Latitude": 55.6759,
"Longitude": 12.5655
},
{
"Name": "København K",
"PostCode": "1427",
"Latitude": 55.6759,
"Longitude": 12.5655
},
{
"Name": "København K",
"PostCode": "1428",
"Latitude": 55.6759,
"Longitude": 12.5655
},
{
"Name": "København K",
"PostCode": "1429",
"Latitude": 55.6759,
"Longitude": 12.5655
},
{
"Name": "København K",
"PostCode": "1430",
"Latitude": 55.6759,
"Longitude": 12.5655
},
{
"Name": "København K",
"PostCode": "1431",
"Latitude": 55.6759,
"Longitude": 12.5655
},
{
"Name": "København K",
"PostCode": "1432",
"Latitude": 55.6759,
"Longitude": 12.5655
},
{
"Name": "København K",
"PostCode": "1433",
"Latitude": 55.6759,
"Longitude": 12.5655
},
{
"Name": "København K",
"PostCode": "1434",
"Latitude": 55.6759,
"Longitude": 12.5655
},
{
"Name": "København K",
"PostCode": "1435",
"Latitude": 55.6759,
"Longitude": 12.5655
},
{
"Name": "København K",
"PostCode": "1436",
"Latitude": 55.6759,
"Longitude": 12.5655
},
{
"Name": "København K",
"PostCode": "1437",
"Latitude": 55.6759,
"Longitude": 12.5655
},
{
"Name": "København K",
"PostCode": "1438",
"Latitude": 55.6759,
"Longitude": 12.5655
},
{
"Name": "København K",
"PostCode": "1439",
"Latitude": 55.6759,
"Longitude": 12.5655
},
{
"Name": "København K",
"PostCode": "1440",
"Latitude": 55.6759,
"Longitude": 12.5655
},
{
"Name": "København K",
"PostCode": "1441",
"Latitude": 55.6759,
"Longitude": 12.5655
},
{
"Name": "København K",
"PostCode": "1448",
"Latitude": 55.6759,
"Longitude": 12.5655
},
{
"Name": "København K",
"PostCode": "1450",
"Latitude": 55.6759,
"Longitude": 12.5655
},
{
"Name": "København K",
"PostCode": "1451",
"Latitude": 55.6759,
"Longitude": 12.5655
},
{
"Name": "København K",
"PostCode": "1452",
"Latitude": 55.6759,
"Longitude": 12.5655
},
{
"Name": "København K",
"PostCode": "1453",
"Latitude": 55.6759,
"Longitude": 12.5655
},
{
"Name": "København K",
"PostCode": "1454",
"Latitude": 55.6759,
"Longitude": 12.5655
},
{
"Name": "København K",
"PostCode": "1455",
"Latitude": 55.6759,
"Longitude": 12.5655
},
{
"Name": "København K",
"PostCode": "1456",
"Latitude": 55.6759,
"Longitude": 12.5655
},
{
"Name": "København K",
"PostCode": "1457",
"Latitude": 55.6759,
"Longitude": 12.5655
},
{
"Name": "København K",
"PostCode": "1458",
"Latitude": 55.6759,
"Longitude": 12.5655
},
{
"Name": "København K",
"PostCode": "1459",
"Latitude": 55.6759,
"Longitude": 12.5655
},
{
"Name": "København K",
"PostCode": "1460",
"Latitude": 55.6759,
"Longitude": 12.5655
},
{
"Name": "København K",
"PostCode": "1462",
"Latitude": 55.6759,
"Longitude": 12.5655
},
{
"Name": "København K",
"PostCode": "1463",
"Latitude": 55.6759,
"Longitude": 12.5655
},
{
"Name": "København K",
"PostCode": "1464",
"Latitude": 55.6759,
"Longitude": 12.5655
},
{
"Name": "København K",
"PostCode": "1466",
"Latitude": 55.6759,
"Longitude": 12.5655
},
{
"Name": "København K",
"PostCode": "1467",
"Latitude": 55.6759,
"Longitude": 12.5655
},
{
"Name": "København K",
"PostCode": "1468",
"Latitude": 55.6759,
"Longitude": 12.5655
},
{
"Name": "København K",
"PostCode": "1470",
"Latitude": 55.6759,
"Longitude": 12.5655
},
{
"Name": "København K",
"PostCode": "1471",
"Latitude": 55.6759,
"Longitude": 12.5655
},
{
"Name": "København K",
"PostCode": "1472",
"Latitude": 55.6759,
"Longitude": 12.5655
},
{
"Name": "København N",
"PostCode": "2200",
"Latitude": 55.6759,
"Longitude": 12.5655
},
{
"Name": "København NV",
"PostCode": "2400",
"Latitude": 55.6759,
"Longitude": 12.5655
},
{
"Name": "København Ø",
"PostCode": "2100",
"Latitude": 55.6759,
"Longitude": 12.5655
},
{
"Name": "København S",
"PostCode": "2300",
"Latitude": 55.6759,
"Longitude": 12.5655
},
{
"Name": "København SV",
"PostCode": "2450",
"Latitude": 55.6759,
"Longitude": 12.5655
},
{
"Name": "København V",
"PostCode": "1500",
"Latitude": 55.6759,
"Longitude": 12.5655
},
{
"Name": "København V",
"PostCode": "1550",
"Latitude": 55.6759,
"Longitude": 12.5655
},
{
"Name": "København V",
"PostCode": "1551",
"Latitude": 55.6759,
"Longitude": 12.5655
},
{
"Name": "København V",
"PostCode": "1552",
"Latitude": 55.6759,
"Longitude": 12.5655
},
{
"Name": "København V",
"PostCode": "1553",
"Latitude": 55.6759,
"Longitude": 12.5655
},
{
"Name": "København V",
"PostCode": "1554",
"Latitude": 55.6759,
"Longitude": 12.5655
},
{
"Name": "København V",
"PostCode": "1555",
"Latitude": 55.6759,
"Longitude": 12.5655
},
{
"Name": "København V",
"PostCode": "1556",
"Latitude": 55.6759,
"Longitude": 12.5655
},
{
"Name": "København V",
"PostCode": "1557",
"Latitude": 55.6759,
"Longitude": 12.5655
},
{
"Name": "København V",
"PostCode": "1558",
"Latitude": 55.6759,
"Longitude": 12.5655
},
{
"Name": "København V",
"PostCode": "1559",
"Latitude": 55.6759,
"Longitude": 12.5655
},
{
"Name": "København V",
"PostCode": "1560",
"Latitude": 55.6759,
"Longitude": 12.5655
},
{
"Name": "København V",
"PostCode": "1561",
"Latitude": 55.6759,
"Longitude": 12.5655
},
{
"Name": "København V",
"PostCode": "1562",
"Latitude": 55.6759,
"Longitude": 12.5655
},
{
"Name": "København V",
"PostCode": "1563",
"Latitude": 55.6759,
"Longitude": 12.5655
},
{
"Name": "København V",
"PostCode": "1564",
"Latitude": 55.6759,
"Longitude": 12.5655
},
{
"Name": "København V",
"PostCode": "1566",
"Latitude": 55.6759,
"Longitude": 12.5655
},
{
"Name": "København V",
"PostCode": "1567",
"Latitude": 55.6759,
"Longitude": 12.5655
},
{
"Name": "København V",
"PostCode": "1568",
"Latitude": 55.6759,
"Longitude": 12.5655
},
{
"Name": "København V",
"PostCode": "1569",
"Latitude": 55.6759,
"Longitude": 12.5655
},
{
"Name": "København V",
"PostCode": "1570",
"Latitude": 55.6759,
"Longitude": 12.5655
},
{
"Name": "København V",
"PostCode": "1571",
"Latitude": 55.6759,
"Longitude": 12.5655
},
{
"Name": "København V",
"PostCode": "1572",
"Latitude": 55.6759,
"Longitude": 12.5655
},
{
"Name": "København V",
"PostCode": "1573",
"Latitude": 55.6759,
"Longitude": 12.5655
},
{
"Name": "København V",
"PostCode": "1574",
"Latitude": 55.6759,
"Longitude": 12.5655
},
{
"Name": "København V",
"PostCode": "1575",
"Latitude": 55.6759,
"Longitude": 12.5655
},
{
"Name": "København V",
"PostCode": "1576",
"Latitude": 55.6759,
"Longitude": 12.5655
},
{
"Name": "København V",
"PostCode": "1577",
"Latitude": 55.6759,
"Longitude": 12.5655
},
{
"Name": "København V",
"PostCode": "1592",
"Latitude": 55.6759,
"Longitude": 12.5655
},
{
"Name": "København V",
"PostCode": "1599",
"Latitude": 55.6759,
"Longitude": 12.5655
},
{
"Name": "København V",
"PostCode": "1600",
"Latitude": 55.6759,
"Longitude": 12.5655
},
{
"Name": "København V",
"PostCode": "1601",
"Latitude": 55.6759,
"Longitude": 12.5655
},
{
"Name": "København V",
"PostCode": "1602",
"Latitude": 55.6759,
"Longitude": 12.5655
},
{
"Name": "København V",
"PostCode": "1603",
"Latitude": 55.6759,
"Longitude": 12.5655
},
{
"Name": "København V",
"PostCode": "1604",
"Latitude": 55.6759,
"Longitude": 12.5655
},
{
"Name": "København V",
"PostCode": "1606",
"Latitude": 55.6759,
"Longitude": 12.5655
},
{
"Name": "København V",
"PostCode": "1607",
"Latitude": 55.6759,
"Longitude": 12.5655
},
{
"Name": "København V",
"PostCode": "1608",
"Latitude": 55.6759,
"Longitude": 12.5655
},
{
"Name": "København V",
"PostCode": "1609",
"Latitude": 55.6759,
"Longitude": 12.5655
},
{
"Name": "København V",
"PostCode": "1610",
"Latitude": 55.6759,
"Longitude": 12.5655
},
{
"Name": "København V",
"PostCode": "1611",
"Latitude": 55.6759,
"Longitude": 12.5655
},
{
"Name": "København V",
"PostCode": "1612",
"Latitude": 55.6759,
"Longitude": 12.5655
},
{
"Name": "København V",
"PostCode": "1613",
"Latitude": 55.6759,
"Longitude": 12.5655
},
{
"Name": "København V",
"PostCode": "1614",
"Latitude": 55.6759,
"Longitude": 12.5655
},
{
"Name": "København V",
"PostCode": "1615",
"Latitude": 55.6759,
"Longitude": 12.5655
},
{
"Name": "København V",
"PostCode": "1616",
"Latitude": 55.6759,
"Longitude": 12.5655
},
{
"Name": "København V",
"PostCode": "1617",
"Latitude": 55.6759,
"Longitude": 12.5655
},
{
"Name": "København V",
"PostCode": "1618",
"Latitude": 55.6759,
"Longitude": 12.5655
},
{
"Name": "København V",
"PostCode": "1619",
"Latitude": 55.6759,
"Longitude": 12.5655
},
{
"Name": "København V",
"PostCode": "1620",
"Latitude": 55.6759,
"Longitude": 12.5655
},
{
"Name": "København V",
"PostCode": "1621",
"Latitude": 55.6759,
"Longitude": 12.5655
},
{
"Name": "København V",
"PostCode": "1622",
"Latitude": 55.6759,
"Longitude": 12.5655
},
{
"Name": "København V",
"PostCode": "1623",
"Latitude": 55.6759,
"Longitude": 12.5655
},
{
"Name": "København V",
"PostCode": "1624",
"Latitude": 55.6759,
"Longitude": 12.5655
},
{
"Name": "København V",
"PostCode": "1630",
"Latitude": 55.6759,
"Longitude": 12.5655
},
{
"Name": "København V",
"PostCode": "1631",
"Latitude": 55.6759,
"Longitude": 12.5655
},
{
"Name": "København V",
"PostCode": "1632",
"Latitude": 55.6759,
"Longitude": 12.5655
},
{
"Name": "København V",
"PostCode": "1633",
"Latitude": 55.6759,
"Longitude": 12.5655
},
{
"Name": "København V",
"PostCode": "1634",
"Latitude": 55.6759,
"Longitude": 12.5655
},
{
"Name": "København V",
"PostCode": "1635",
"Latitude": 55.6759,
"Longitude": 12.5655
},
{
"Name": "København V",
"PostCode": "1650",
"Latitude": 55.6759,
"Longitude": 12.5655
},
{
"Name": "København V",
"PostCode": "1651",
"Latitude": 55.6759,
"Longitude": 12.5655
},
{
"Name": "København V",
"PostCode": "1652",
"Latitude": 55.6759,
"Longitude": 12.5655
},
{
"Name": "København V",
"PostCode": "1653",
"Latitude": 55.6759,
"Longitude": 12.5655
},
{
"Name": "København V",
"PostCode": "1654",
"Latitude": 55.6759,
"Longitude": 12.5655
},
{
"Name": "København V",
"PostCode": "1655",
"Latitude": 55.6759,
"Longitude": 12.5655
},
{
"Name": "København V",
"PostCode": "1656",
"Latitude": 55.6759,
"Longitude": 12.5655
},
{
"Name": "København V",
"PostCode": "1657",
"Latitude": 55.6759,
"Longitude": 12.5655
},
{
"Name": "København V",
"PostCode": "1658",
"Latitude": 55.6759,
"Longitude": 12.5655
},
{
"Name": "København V",
"PostCode": "1659",
"Latitude": 55.6759,
"Longitude": 12.5655
},
{
"Name": "København V",
"PostCode": "1660",
"Latitude": 55.6759,
"Longitude": 12.5655
},
{
"Name": "København V",
"PostCode": "1661",
"Latitude": 55.6759,
"Longitude": 12.5655
},
{
"Name": "København V",
"PostCode": "1662",
"Latitude": 55.6759,
"Longitude": 12.5655
},
{
"Name": "København V",
"PostCode": "1663",
"Latitude": 55.6759,
"Longitude": 12.5655
},
{
"Name": "København V",
"PostCode": "1664",
"Latitude": 55.6759,
"Longitude": 12.5655
},
{
"Name": "København V",
"PostCode": "1665",
"Latitude": 55.6759,
"Longitude": 12.5655
},
{
"Name": "København V",
"PostCode": "1666",
"Latitude": 55.6759,
"Longitude": 12.5655
},
{
"Name": "København V",
"PostCode": "1667",
"Latitude": 55.6759,
"Longitude": 12.5655
},
{
"Name": "København V",
"PostCode": "1668",
"Latitude": 55.6759,
"Longitude": 12.5655
},
{
"Name": "København V",
"PostCode": "1669",
"Latitude": 55.6759,
"Longitude": 12.5655
},
{
"Name": "København V",
"PostCode": "1670",
"Latitude": 55.6759,
"Longitude": 12.5655
},
{
"Name": "København V",
"PostCode": "1671",
"Latitude": 55.6759,
"Longitude": 12.5655
},
{
"Name": "København V",
"PostCode": "1672",
"Latitude": 55.6759,
"Longitude": 12.5655
},
{
"Name": "København V",
"PostCode": "1673",
"Latitude": 55.6759,
"Longitude": 12.5655
},
{
"Name": "København V",
"PostCode": "1674",
"Latitude": 55.6759,
"Longitude": 12.5655
},
{
"Name": "København V",
"PostCode": "1675",
"Latitude": 55.6759,
"Longitude": 12.5655
},
{
"Name": "København V",
"PostCode": "1676",
"Latitude": 55.6759,
"Longitude": 12.5655
},
{
"Name": "København V",
"PostCode": "1677",
"Latitude": 55.6759,
"Longitude": 12.5655
},
{
"Name": "København V",
"PostCode": "1699",
"Latitude": 55.6759,
"Longitude": 12.5655
},
{
"Name": "København V",
"PostCode": "1700",
"Latitude": 55.6759,
"Longitude": 12.5655
},
{
"Name": "København V",
"PostCode": "1701",
"Latitude": 55.6759,
"Longitude": 12.5655
},
{
"Name": "København V",
"PostCode": "1702",
"Latitude": 55.6759,
"Longitude": 12.5655
},
{
"Name": "København V",
"PostCode": "1703",
"Latitude": 55.6759,
"Longitude": 12.5655
},
{
"Name": "København V",
"PostCode": "1704",
"Latitude": 55.6759,
"Longitude": 12.5655
},
{
"Name": "København V",
"PostCode": "1705",
"Latitude": 55.6759,
"Longitude": 12.5655
},
{
"Name": "København V",
"PostCode": "1706",
"Latitude": 55.6759,
"Longitude": 12.5655
},
{
"Name": "København V",
"PostCode": "1707",
"Latitude": 55.6759,
"Longitude": 12.5655
},
{
"Name": "København V",
"PostCode": "1708",
"Latitude": 55.6759,
"Longitude": 12.5655
},
{
"Name": "København V",
"PostCode": "1709",
"Latitude": 55.6759,
"Longitude": 12.5655
},
{
"Name": "København V",
"PostCode": "1710",
"Latitude": 55.6759,
"Longitude": 12.5655
},
{
"Name": "København V",
"PostCode": "1711",
"Latitude": 55.6759,
"Longitude": 12.5655
},
{
"Name": "København V",
"PostCode": "1712",
"Latitude": 55.6759,
"Longitude": 12.5655
},
{
"Name": "København V",
"PostCode": "1714",
"Latitude": 55.6759,
"Longitude": 12.5655
},
{
"Name": "København V",
"PostCode": "1715",
"Latitude": 55.6759,
"Longitude": 12.5655
},
{
"Name": "København V",
"PostCode": "1716",
"Latitude": 55.6759,
"Longitude": 12.5655
},
{
"Name": "København V",
"PostCode": "1717",
"Latitude": 55.6759,
"Longitude": 12.5655
},
{
"Name": "København V",
"PostCode": "1718",
"Latitude": 55.6759,
"Longitude": 12.5655
},
{
"Name": "København V",
"PostCode": "1719",
"Latitude": 55.6759,
"Longitude": 12.5655
},
{
"Name": "København V",
"PostCode": "1720",
"Latitude": 55.6759,
"Longitude": 12.5655
},
{
"Name": "København V",
"PostCode": "1721",
"Latitude": 55.6759,
"Longitude": 12.5655
},
{
"Name": "København V",
"PostCode": "1722",
"Latitude": 55.6759,
"Longitude": 12.5655
},
{
"Name": "København V",
"PostCode": "1723",
"Latitude": 55.6759,
"Longitude": 12.5655
},
{
"Name": "København V",
"PostCode": "1724",
"Latitude": 55.6759,
"Longitude": 12.5655
},
{
"Name": "København V",
"PostCode": "1725",
"Latitude": 55.6759,
"Longitude": 12.5655
},
{
"Name": "København V",
"PostCode": "1726",
"Latitude": 55.6759,
"Longitude": 12.5655
},
{
"Name": "København V",
"PostCode": "1727",
"Latitude": 55.6759,
"Longitude": 12.5655
},
{
"Name": "København V",
"PostCode": "1728",
"Latitude": 55.6759,
"Longitude": 12.5655
},
{
"Name": "København V",
"PostCode": "1729",
"Latitude": 55.6759,
"Longitude": 12.5655
},
{
"Name": "København V",
"PostCode": "1730",
"Latitude": 55.6759,
"Longitude": 12.5655
},
{
"Name": "København V",
"PostCode": "1731",
"Latitude": 55.6759,
"Longitude": 12.5655
},
{
"Name": "København V",
"PostCode": "1732",
"Latitude": 55.6759,
"Longitude": 12.5655
},
{
"Name": "København V",
"PostCode": "1733",
"Latitude": 55.6759,
"Longitude": 12.5655
},
{
"Name": "København V",
"PostCode": "1734",
"Latitude": 55.6759,
"Longitude": 12.5655
},
{
"Name": "København V",
"PostCode": "1735",
"Latitude": 55.6759,
"Longitude": 12.5655
},
{
"Name": "København V",
"PostCode": "1736",
"Latitude": 55.6759,
"Longitude": 12.5655
},
{
"Name": "København V",
"PostCode": "1737",
"Latitude": 55.6759,
"Longitude": 12.5655
},
{
"Name": "København V",
"PostCode": "1738",
"Latitude": 55.6759,
"Longitude": 12.5655
},
{
"Name": "København V",
"PostCode": "1739",
"Latitude": 55.6759,
"Longitude": 12.5655
},
{
"Name": "København V",
"PostCode": "1749",
"Latitude": 55.6759,
"Longitude": 12.5655
},
{
"Name": "København V",
"PostCode": "1750",
"Latitude": 55.6759,
"Longitude": 12.5655
},
{
"Name": "København V",
"PostCode": "1751",
"Latitude": 55.6759,
"Longitude": 12.5655
},
{
"Name": "København V",
"PostCode": "1752",
"Latitude": 55.6759,
"Longitude": 12.5655
},
{
"Name": "København V",
"PostCode": "1753",
"Latitude": 55.6759,
"Longitude": 12.5655
},
{
"Name": "København V",
"PostCode": "1754",
"Latitude": 55.6759,
"Longitude": 12.5655
},
{
"Name": "København V",
"PostCode": "1755",
"Latitude": 55.6759,
"Longitude": 12.5655
},
{
"Name": "København V",
"PostCode": "1756",
"Latitude": 55.6759,
"Longitude": 12.5655
},
{
"Name": "København V",
"PostCode": "1757",
"Latitude": 55.6759,
"Longitude": 12.5655
},
{
"Name": "København V",
"PostCode": "1758",
"Latitude": 55.6759,
"Longitude": 12.5655
},
{
"Name": "København V",
"PostCode": "1759",
"Latitude": 55.6759,
"Longitude": 12.5655
},
{
"Name": "København V",
"PostCode": "1760",
"Latitude": 55.6759,
"Longitude": 12.5655
},
{
"Name": "København V",
"PostCode": "1761",
"Latitude": 55.6759,
"Longitude": 12.5655
},
{
"Name": "København V",
"PostCode": "1762",
"Latitude": 55.6759,
"Longitude": 12.5655
},
{
"Name": "København V",
"PostCode": "1763",
"Latitude": 55.6759,
"Longitude": 12.5655
},
{
"Name": "København V",
"PostCode": "1764",
"Latitude": 55.6759,
"Longitude": 12.5655
},
{
"Name": "København V",
"PostCode": "1765",
"Latitude": 55.6759,
"Longitude": 12.5655
},
{
"Name": "København V",
"PostCode": "1766",
"Latitude": 55.6759,
"Longitude": 12.5655
},
{
"Name": "København V",
"PostCode": "1770",
"Latitude": 55.6759,
"Longitude": 12.5655
},
{
"Name": "København V",
"PostCode": "1771",
"Latitude": 55.6759,
"Longitude": 12.5655
},
{
"Name": "København V",
"PostCode": "1772",
"Latitude": 55.6759,
"Longitude": 12.5655
},
{
"Name": "København V",
"PostCode": "1773",
"Latitude": 55.6759,
"Longitude": 12.5655
},
{
"Name": "København V",
"PostCode": "1774",
"Latitude": 55.6759,
"Longitude": 12.5655
},
{
"Name": "København V",
"PostCode": "1775",
"Latitude": 55.6759,
"Longitude": 12.5655
},
{
"Name": "København V",
"PostCode": "1777",
"Latitude": 55.6759,
"Longitude": 12.5655
},
{
"Name": "København V",
"PostCode": "1780",
"Latitude": 55.6759,
"Longitude": 12.5655
},
{
"Name": "København V",
"PostCode": "1785",
"Latitude": 55.6759,
"Longitude": 12.5655
},
{
"Name": "København V",
"PostCode": "1786",
"Latitude": 55.6759,
"Longitude": 12.5655
},
{
"Name": "København V",
"PostCode": "1787",
"Latitude": 55.6759,
"Longitude": 12.5655
},
{
"Name": "København V",
"PostCode": "1790",
"Latitude": 55.6759,
"Longitude": 12.5655
},
{
"Name": "København V",
"PostCode": "1799",
"Latitude": 55.6759,
"Longitude": 12.5655
},
{
"Name": "Nordhavn",
"PostCode": "2150",
"Latitude": 55.6759,
"Longitude": 12.5655
},
{
"Name": "Rødovre",
"PostCode": "2610",
"Latitude": 55.6806,
"Longitude": 12.4537
},
{
"Name": "Søborg",
"PostCode": "2860",
"Latitude": 55.7302,
"Longitude": 12.5098
},
{
"Name": "Udland",
"PostCode": "0960",
"Latitude": 56.804,
"Longitude": 9.5144
},
{
"Name": "Valby",
"PostCode": "2500",
"Latitude": 55.6581,
"Longitude": 12.5241
},
{
"Name": "Vanløse",
"PostCode": "2720",
"Latitude": 55.6836,
"Longitude": 12.4871
},
{
"Name": "Vildbjerg",
"PostCode": "7480",
"Latitude": 56.2,
"Longitude": 8.7667
}
]
}
]
},
{
"Name": "Frederiksberg Kommune",
"Code": "147",
"Communities": [
{
"Places": [
{
"Name": "Frederiksberg",
"PostCode": "2000",
"Latitude": 55.6794,
"Longitude": 12.5346
},
{
"Name": "Frederiksberg C",
"PostCode": "1800",
"Latitude": 55.6794,
"Longitude": 12.5346
},
{
"Name": "Frederiksberg C",
"PostCode": "1801",
"Latitude": 55.6794,
"Longitude": 12.5346
},
{
"Name": "Frederiksberg C",
"PostCode": "1802",
"Latitude": 55.6794,
"Longitude": 12.5346
},
{
"Name": "Frederiksberg C",
"PostCode": "1803",
"Latitude": 55.6794,
"Longitude": 12.5346
},
{
"Name": "Frederiksberg C",
"PostCode": "1804",
"Latitude": 55.6794,
"Longitude": 12.5346
},
{
"Name": "Frederiksberg C",
"PostCode": "1805",
"Latitude": 55.6794,
"Longitude": 12.5346
},
{
"Name": "Frederiksberg C",
"PostCode": "1806",
"Latitude": 55.6794,
"Longitude": 12.5346
},
{
"Name": "Frederiksberg C",
"PostCode": "1807",
"Latitude": 55.6794,
"Longitude": 12.5346
},
{
"Name": "Frederiksberg C",
"PostCode": "1808",
"Latitude": 55.6794,
"Longitude": 12.5346
},
{
"Name": "Frederiksberg C",
"PostCode": "1809",
"Latitude": 55.6794,
"Longitude": 12.5346
},
{
"Name": "Frederiksberg C",
"PostCode": "1810",
"Latitude": 55.6794,
"Longitude": 12.5346
},
{
"Name": "Frederiksberg C",
"PostCode": "1811",
"Latitude": 55.6794,
"Longitude": 12.5346
},
{
"Name": "Frederiksberg C",
"PostCode": "1812",
"Latitude": 55.6794,
"Longitude": 12.5346
},
{
"Name": "Frederiksberg C",
"PostCode": "1813",
"Latitude": 55.6794,
"Longitude": 12.5346
},
{
"Name": "Frederiksberg C",
"PostCode": "1814",
"Latitude": 55.6794,
"Longitude": 12.5346
},
{
"Name": "Frederiksberg C",
"PostCode": "1815",
"Latitude": 55.6794,
"Longitude": 12.5346
},
{
"Name": "Frederiksberg C",
"PostCode": "1816",
"Latitude": 55.6794,
"Longitude": 12.5346
},
{
"Name": "Frederiksberg C",
"PostCode": "1817",
"Latitude": 55.6794,
"Longitude": 12.5346
},
{
"Name": "Frederiksberg C",
"PostCode": "1818",
"Latitude": 55.6794,
"Longitude": 12.5346
},
{
"Name": "Frederiksberg C",
"PostCode": "1819",
"Latitude": 55.6794,
"Longitude": 12.5346
},
{
"Name": "Frederiksberg C",
"PostCode": "1820",
"Latitude": 55.6794,
"Longitude": 12.5346
},
{
"Name": "Frederiksberg C",
"PostCode": "1822",
"Latitude": 55.6794,
"Longitude": 12.5346
},
{
"Name": "Frederiksberg C",
"PostCode": "1823",
"Latitude": 55.6794,
"Longitude": 12.5346
},
{
"Name": "Frederiksberg C",
"PostCode": "1824",
"Latitude": 55.6794,
"Longitude": 12.5346
},
{
"Name": "Frederiksberg C",
"PostCode": "1825",
"Latitude": 55.6794,
"Longitude": 12.5346
},
{
"Name": "Frederiksberg C",
"PostCode": "1826",
"Latitude": 55.6794,
"Longitude": 12.5346
},
{
"Name": "Frederiksberg C",
"PostCode": "1827",
"Latitude": 55.6794,
"Longitude": 12.5346
},
{
"Name": "Frederiksberg C",
"PostCode": "1828",
"Latitude": 55.6794,
"Longitude": 12.5346
},
{
"Name": "Frederiksberg C",
"PostCode": "1829",
"Latitude": 55.6794,
"Longitude": 12.5346
},
{
"Name": "Frederiksberg C",
"PostCode": "1850",
"Latitude": 55.6794,
"Longitude": 12.5346
},
{
"Name": "Frederiksberg C",
"PostCode": "1851",
"Latitude": 55.6794,
"Longitude": 12.5346
},
{
"Name": "Frederiksberg C",
"PostCode": "1852",
"Latitude": 55.6794,
"Longitude": 12.5346
},
{
"Name": "Frederiksberg C",
"PostCode": "1853",
"Latitude": 55.6794,
"Longitude": 12.5346
},
{
"Name": "Frederiksberg C",
"PostCode": "1854",
"Latitude": 55.6794,
"Longitude": 12.5346
},
{
"Name": "Frederiksberg C",
"PostCode": "1855",
"Latitude": 55.6794,
"Longitude": 12.5346
},
{
"Name": "Frederiksberg C",
"PostCode": "1856",
"Latitude": 55.6794,
"Longitude": 12.5346
},
{
"Name": "Frederiksberg C",
"PostCode": "1857",
"Latitude": 55.6794,
"Longitude": 12.5346
},
{
"Name": "Frederiksberg C",
"PostCode": "1860",
"Latitude": 55.6794,
"Longitude": 12.5346
},
{
"Name": "Frederiksberg C",
"PostCode": "1861",
"Latitude": 55.6794,
"Longitude": 12.5346
},
{
"Name": "Frederiksberg C",
"PostCode": "1862",
"Latitude": 55.6794,
"Longitude": 12.5346
},
{
"Name": "Frederiksberg C",
"PostCode": "1863",
"Latitude": 55.6794,
"Longitude": 12.5346
},
{
"Name": "Frederiksberg C",
"PostCode": "1864",
"Latitude": 55.6794,
"Longitude": 12.5346
},
{
"Name": "Frederiksberg C",
"PostCode": "1865",
"Latitude": 55.6794,
"Longitude": 12.5346
},
{
"Name": "Frederiksberg C",
"PostCode": "1866",
"Latitude": 55.6794,
"Longitude": 12.5346
},
{
"Name": "Frederiksberg C",
"PostCode": "1867",
"Latitude": 55.6794,
"Longitude": 12.5346
},
{
"Name": "Frederiksberg C",
"PostCode": "1868",
"Latitude": 55.6794,
"Longitude": 12.5346
},
{
"Name": "Frederiksberg C",
"PostCode": "1870",
"Latitude": 55.6794,
"Longitude": 12.5346
},
{
"Name": "Frederiksberg C",
"PostCode": "1871",
"Latitude": 55.6794,
"Longitude": 12.5346
},
{
"Name": "Frederiksberg C",
"PostCode": "1872",
"Latitude": 55.6794,
"Longitude": 12.5346
},
{
"Name": "Frederiksberg C",
"PostCode": "1873",
"Latitude": 55.6794,
"Longitude": 12.5346
},
{
"Name": "Frederiksberg C",
"PostCode": "1874",
"Latitude": 55.6794,
"Longitude": 12.5346
},
{
"Name": "Frederiksberg C",
"PostCode": "1875",
"Latitude": 55.6794,
"Longitude": 12.5346
},
{
"Name": "Frederiksberg C",
"PostCode": "1876",
"Latitude": 55.6794,
"Longitude": 12.5346
},
{
"Name": "Frederiksberg C",
"PostCode": "1877",
"Latitude": 55.6794,
"Longitude": 12.5346
},
{
"Name": "Frederiksberg C",
"PostCode": "1878",
"Latitude": 55.6794,
"Longitude": 12.5346
},
{
"Name": "Frederiksberg C",
"PostCode": "1879",
"Latitude": 55.6794,
"Longitude": 12.5346
},
{
"Name": "Frederiksberg C",
"PostCode": "1900",
"Latitude": 55.6794,
"Longitude": 12.5346
},
{
"Name": "Frederiksberg C",
"PostCode": "1901",
"Latitude": 55.6794,
"Longitude": 12.5346
},
{
"Name": "Frederiksberg C",
"PostCode": "1902",
"Latitude": 55.6794,
"Longitude": 12.5346
},
{
"Name": "Frederiksberg C",
"PostCode": "1903",
"Latitude": 55.6794,
"Longitude": 12.5346
},
{
"Name": "Frederiksberg C",
"PostCode": "1904",
"Latitude": 55.6794,
"Longitude": 12.5346
},
{
"Name": "Frederiksberg C",
"PostCode": "1905",
"Latitude": 55.6794,
"Longitude": 12.5346
},
{
"Name": "Frederiksberg C",
"PostCode": "1906",
"Latitude": 55.6794,
"Longitude": 12.5346
},
{
"Name": "Frederiksberg C",
"PostCode": "1908",
"Latitude": 55.6794,
"Longitude": 12.5346
},
{
"Name": "Frederiksberg C",
"PostCode": "1909",
"Latitude": 55.6794,
"Longitude": 12.5346
},
{
"Name": "Frederiksberg C",
"PostCode": "1910",
"Latitude": 55.6794,
"Longitude": 12.5346
},
{
"Name": "Frederiksberg C",
"PostCode": "1911",
"Latitude": 55.6794,
"Longitude": 12.5346
},
{
"Name": "Frederiksberg C",
"PostCode": "1912",
"Latitude": 55.6794,
"Longitude": 12.5346
},
{
"Name": "Frederiksberg C",
"PostCode": "1913",
"Latitude": 55.6794,
"Longitude": 12.5346
},
{
"Name": "Frederiksberg C",
"PostCode": "1914",
"Latitude": 55.6794,
"Longitude": 12.5346
},
{
"Name": "Frederiksberg C",
"PostCode": "1915",
"Latitude": 55.6794,
"Longitude": 12.5346
},
{
"Name": "Frederiksberg C",
"PostCode": "1916",
"Latitude": 55.6794,
"Longitude": 12.5346
},
{
"Name": "Frederiksberg C",
"PostCode": "1917",
"Latitude": 55.6794,
"Longitude": 12.5346
},
{
"Name": "Frederiksberg C",
"PostCode": "1920",
"Latitude": 55.6794,
"Longitude": 12.5346
},
{
"Name": "Frederiksberg C",
"PostCode": "1921",
"Latitude": 55.6794,
"Longitude": 12.5346
},
{
"Name": "Frederiksberg C",
"PostCode": "1922",
"Latitude": 55.6794,
"Longitude": 12.5346
},
{
"Name": "Frederiksberg C",
"PostCode": "1923",
"Latitude": 55.6794,
"Longitude": 12.5346
},
{
"Name": "Frederiksberg C",
"PostCode": "1924",
"Latitude": 55.6794,
"Longitude": 12.5346
},
{
"Name": "Frederiksberg C",
"PostCode": "1925",
"Latitude": 55.6794,
"Longitude": 12.5346
},
{
"Name": "Frederiksberg C",
"PostCode": "1926",
"Latitude": 55.6794,
"Longitude": 12.5346
},
{
"Name": "Frederiksberg C",
"PostCode": "1927",
"Latitude": 55.6794,
"Longitude": 12.5346
},
{
"Name": "Frederiksberg C",
"PostCode": "1928",
"Latitude": 55.6794,
"Longitude": 12.5346
},
{
"Name": "Frederiksberg C",
"PostCode": "1950",
"Latitude": 55.6794,
"Longitude": 12.5346
},
{
"Name": "Frederiksberg C",
"PostCode": "1951",
"Latitude": 55.6794,
"Longitude": 12.5346
},
{
"Name": "Frederiksberg C",
"PostCode": "1952",
"Latitude": 55.6794,
"Longitude": 12.5346
},
{
"Name": "Frederiksberg C",
"PostCode": "1953",
"Latitude": 55.6794,
"Longitude": 12.5346
},
{
"Name": "Frederiksberg C",
"PostCode": "1954",
"Latitude": 55.6794,
"Longitude": 12.5346
},
{
"Name": "Frederiksberg C",
"PostCode": "1955",
"Latitude": 55.6794,
"Longitude": 12.5346
},
{
"Name": "Frederiksberg C",
"PostCode": "1956",
"Latitude": 55.6794,
"Longitude": 12.5346
},
{
"Name": "Frederiksberg C",
"PostCode": "1957",
"Latitude": 55.6794,
"Longitude": 12.5346
},
{
"Name": "Frederiksberg C",
"PostCode": "1958",
"Latitude": 55.6794,
"Longitude": 12.5346
},
{
"Name": "Frederiksberg C",
"PostCode": "1959",
"Latitude": 55.6794,
"Longitude": 12.5346
},
{
"Name": "Frederiksberg C",
"PostCode": "1960",
"Latitude": 55.6794,
"Longitude": 12.5346
},
{
"Name": "Frederiksberg C",
"PostCode": "1961",
"Latitude": 55.6794,
"Longitude": 12.5346
},
{
"Name": "Frederiksberg C",
"PostCode": "1962",
"Latitude": 55.6794,
"Longitude": 12.5346
},
{
"Name": "Frederiksberg C",
"PostCode": "1963",
"Latitude": 55.6794,
"Longitude": 12.5346
},
{
"Name": "Frederiksberg C",
"PostCode": "1964",
"Latitude": 55.6794,
"Longitude": 12.5346
},
{
"Name": "Frederiksberg C",
"PostCode": "1965",
"Latitude": 55.6794,
"Longitude": 12.5346
},
{
"Name": "Frederiksberg C",
"PostCode": "1966",
"Latitude": 55.6794,
"Longitude": 12.5346
},
{
"Name": "Frederiksberg C",
"PostCode": "1967",
"Latitude": 55.6794,
"Longitude": 12.5346
},
{
"Name": "Frederiksberg C",
"PostCode": "1970",
"Latitude": 55.6794,
"Longitude": 12.5346
},
{
"Name": "Frederiksberg C",
"PostCode": "1971",
"Latitude": 55.6794,
"Longitude": 12.5346
},