[
{
"Name": "Capital Region",
"Code": "17",
"Provinces": [
{
"Name": "Copenhagen",
"Code": "101",
"Communities": [
{
"Places": [
{
"Name": "Brønshøj",
"PostCode": "2700",
"Location": {
"Latitude": 55.7069,
"Longitude": 12.4845
}
},
{
"Name": "København K",
"PostCode": "1050",
"Location": {
"Latitude": 55.6806,
"Longitude": 12.5857
}
},
{
"Name": "København K",
"PostCode": "1051",
"Location": {
"Latitude": 55.68,
"Longitude": 12.5906
}
},
{
"Name": "København K",
"PostCode": "1052",
"Location": {
"Latitude": 55.6789,
"Longitude": 12.5901
}
},
{
"Name": "København K",
"PostCode": "1053",
"Location": {
"Latitude": 55.678,
"Longitude": 12.5907
}
},
{
"Name": "København K",
"PostCode": "1054",
"Location": {
"Latitude": 55.678,
"Longitude": 12.5888
}
},
{
"Name": "København K",
"PostCode": "1055",
"Location": {
"Latitude": 55.6781,
"Longitude": 12.5877
}
},
{
"Name": "København K",
"PostCode": "1056",
"Location": {
"Latitude": 55.6794,
"Longitude": 12.5883
}
},
{
"Name": "København K",
"PostCode": "1057",
"Location": {
"Latitude": 55.6784,
"Longitude": 12.5893
}
},
{
"Name": "København K",
"PostCode": "1058",
"Location": {
"Latitude": 55.6773,
"Longitude": 12.59
}
},
{
"Name": "København K",
"PostCode": "1059",
"Location": {
"Latitude": 55.6767,
"Longitude": 12.5869
}
},
{
"Name": "København K",
"PostCode": "1060",
"Location": {
"Latitude": 55.6778,
"Longitude": 12.5851
}
},
{
"Name": "København K",
"PostCode": "1061",
"Location": {
"Latitude": 55.6775,
"Longitude": 12.5813
}
},
{
"Name": "København K",
"PostCode": "1062",
"Location": {
"Latitude": 55.6775,
"Longitude": 12.582
}
},
{
"Name": "København K",
"PostCode": "1063",
"Location": {
"Latitude": 55.678,
"Longitude": 12.5838
}
},
{
"Name": "København K",
"PostCode": "1064",
"Location": {
"Latitude": 55.6784,
"Longitude": 12.5841
}
},
{
"Name": "København K",
"PostCode": "1065",
"Location": {
"Latitude": 55.678,
"Longitude": 12.5812
}
},
{
"Name": "København K",
"PostCode": "1066",
"Location": {
"Latitude": 55.6777,
"Longitude": 12.5822
}
},
{
"Name": "København K",
"PostCode": "1067",
"Location": {
"Latitude": 55.6787,
"Longitude": 12.5817
}
},
{
"Name": "København K",
"PostCode": "1068",
"Location": {
"Latitude": 55.6779,
"Longitude": 12.5828
}
},
{
"Name": "København K",
"PostCode": "1069",
"Location": {
"Latitude": 55.6785,
"Longitude": 12.5832
}
},
{
"Name": "København K",
"PostCode": "1070",
"Location": {
"Latitude": 55.6786,
"Longitude": 12.5835
}
},
{
"Name": "København K",
"PostCode": "1071",
"Location": {
"Latitude": 55.6781,
"Longitude": 12.5832
}
},
{
"Name": "København K",
"PostCode": "1072",
"Location": {
"Latitude": 55.6785,
"Longitude": 12.5807
}
},
{
"Name": "København K",
"PostCode": "1073",
"Location": {
"Latitude": 55.6788,
"Longitude": 12.5804
}
},
{
"Name": "København K",
"PostCode": "1074",
"Location": {
"Latitude": 55.6796,
"Longitude": 12.5836
}
},
{
"Name": "København K",
"PostCode": "1100",
"Location": {
"Latitude": 55.6798,
"Longitude": 12.5827
}
},
{
"Name": "København K",
"PostCode": "1101",
"Location": {
"Latitude": 55.6812,
"Longitude": 12.5826
}
},
{
"Name": "København K",
"PostCode": "1102",
"Location": {
"Latitude": 55.6808,
"Longitude": 12.5827
}
},
{
"Name": "København K",
"PostCode": "1103",
"Location": {
"Latitude": 55.6808,
"Longitude": 12.584
}
},
{
"Name": "København K",
"PostCode": "1104",
"Location": {
"Latitude": 55.6813,
"Longitude": 12.584
}
},
{
"Name": "København K",
"PostCode": "1105",
"Location": {
"Latitude": 55.6802,
"Longitude": 12.5821
}
},
{
"Name": "København K",
"PostCode": "1106",
"Location": {
"Latitude": 55.6804,
"Longitude": 12.5812
}
},
{
"Name": "København K",
"PostCode": "1107",
"Location": {
"Latitude": 55.6813,
"Longitude": 12.583
}
},
{
"Name": "København K",
"PostCode": "1110",
"Location": {
"Latitude": 55.6817,
"Longitude": 12.5823
}
},
{
"Name": "København K",
"PostCode": "1111",
"Location": {
"Latitude": 55.682,
"Longitude": 12.581
}
},
{
"Name": "København K",
"PostCode": "1112",
"Location": {
"Latitude": 55.6807,
"Longitude": 12.5801
}
},
{
"Name": "København K",
"PostCode": "1113",
"Location": {
"Latitude": 55.6801,
"Longitude": 12.58
}
},
{
"Name": "København K",
"PostCode": "1114",
"Location": {
"Latitude": 55.6807,
"Longitude": 12.5792
}
},
{
"Name": "København K",
"PostCode": "1115",
"Location": {
"Latitude": 55.681,
"Longitude": 12.5784
}
},
{
"Name": "København K",
"PostCode": "1116",
"Location": {
"Latitude": 55.6818,
"Longitude": 12.5796
}
},
{
"Name": "København K",
"PostCode": "1117",
"Location": {
"Latitude": 55.6814,
"Longitude": 12.5808
}
},
{
"Name": "København K",
"PostCode": "1118",
"Location": {
"Latitude": 55.6811,
"Longitude": 12.5807
}
},
{
"Name": "København K",
"PostCode": "1119",
"Location": {
"Latitude": 55.6825,
"Longitude": 12.5769
}
},
{
"Name": "København K",
"PostCode": "1120",
"Location": {
"Latitude": 55.6824,
"Longitude": 12.5786
}
},
{
"Name": "København K",
"PostCode": "1121",
"Location": {
"Latitude": 55.6828,
"Longitude": 12.5788
}
},
{
"Name": "København K",
"PostCode": "1122",
"Location": {
"Latitude": 55.6826,
"Longitude": 12.5797
}
},
{
"Name": "København K",
"PostCode": "1123",
"Location": {
"Latitude": 55.6835,
"Longitude": 12.5776
}
},
{
"Name": "København K",
"PostCode": "1124",
"Location": {
"Latitude": 55.6832,
"Longitude": 12.5762
}
},
{
"Name": "København K",
"PostCode": "1125",
"Location": {
"Latitude": 55.6823,
"Longitude": 12.5763
}
},
{
"Name": "København K",
"PostCode": "1126",
"Location": {
"Latitude": 55.6822,
"Longitude": 12.5752
}
},
{
"Name": "København K",
"PostCode": "1127",
"Location": {
"Latitude": 55.6829,
"Longitude": 12.5756
}
},
{
"Name": "København K",
"PostCode": "1128",
"Location": {
"Latitude": 55.6828,
"Longitude": 12.5746
}
},
{
"Name": "København K",
"PostCode": "1129",
"Location": {
"Latitude": 55.6831,
"Longitude": 12.5744
}
},
{
"Name": "København K",
"PostCode": "1130",
"Location": {
"Latitude": 55.6835,
"Longitude": 12.574
}
},
{
"Name": "København K",
"PostCode": "1131",
"Location": {
"Latitude": 55.6839,
"Longitude": 12.5739
}
},
{
"Name": "København K",
"PostCode": "1150",
"Location": {
"Latitude": 55.6806,
"Longitude": 12.5775
}
},
{
"Name": "København K",
"PostCode": "1151",
"Location": {
"Latitude": 55.6798,
"Longitude": 12.5773
}
},
{
"Name": "København K",
"PostCode": "1152",
"Location": {
"Latitude": 55.6804,
"Longitude": 12.5769
}
},
{
"Name": "København K",
"PostCode": "1153",
"Location": {
"Latitude": 55.6797,
"Longitude": 12.577
}
},
{
"Name": "København K",
"PostCode": "1154",
"Location": {
"Latitude": 55.6797,
"Longitude": 12.5759
}
},
{
"Name": "København K",
"PostCode": "1155",
"Location": {
"Latitude": 55.68,
"Longitude": 12.5754
}
},
{
"Name": "København K",
"PostCode": "1156",
"Location": {
"Latitude": 55.6795,
"Longitude": 12.5752
}
},
{
"Name": "København K",
"PostCode": "1157",
"Location": {
"Latitude": 55.6792,
"Longitude": 12.5753
}
},
{
"Name": "København K",
"PostCode": "1158",
"Location": {
"Latitude": 55.6786,
"Longitude": 12.5736
}
},
{
"Name": "København K",
"PostCode": "1159",
"Location": {
"Latitude": 55.6798,
"Longitude": 12.5747
}
},
{
"Name": "København K",
"PostCode": "1160",
"Location": {
"Latitude": 55.6788,
"Longitude": 12.578
}
},
{
"Name": "København K",
"PostCode": "1161",
"Location": {
"Latitude": 55.6786,
"Longitude": 12.575
}
},
{
"Name": "København K",
"PostCode": "1162",
"Location": {
"Latitude": 55.6789,
"Longitude": 12.5742
}
},
{
"Name": "København K",
"PostCode": "1164",
"Location": {
"Latitude": 55.6783,
"Longitude": 12.5735
}
},
{
"Name": "København K",
"PostCode": "1165",
"Location": {
"Latitude": 55.6809,
"Longitude": 12.5712
}
},
{
"Name": "København K",
"PostCode": "1166",
"Location": {
"Latitude": 55.6791,
"Longitude": 12.5731
}
},
{
"Name": "København K",
"PostCode": "1167",
"Location": {
"Latitude": 55.6791,
"Longitude": 12.5715
}
},
{
"Name": "København K",
"PostCode": "1168",
"Location": {
"Latitude": 55.6799,
"Longitude": 12.5722
}
},
{
"Name": "København K",
"PostCode": "1169",
"Location": {
"Latitude": 55.6806,
"Longitude": 12.5746
}
},
{
"Name": "København K",
"PostCode": "1170",
"Location": {
"Latitude": 55.6802,
"Longitude": 12.5747
}
},
{
"Name": "København K",
"PostCode": "1171",
"Location": {
"Latitude": 55.6814,
"Longitude": 12.5726
}
},
{
"Name": "København K",
"PostCode": "1172",
"Location": {
"Latitude": 55.6808,
"Longitude": 12.5734
}
},
{
"Name": "København K",
"PostCode": "1173",
"Location": {
"Latitude": 55.6817,
"Longitude": 12.574
}
},
{
"Name": "København K",
"PostCode": "1174",
"Location": {
"Latitude": 55.6823,
"Longitude": 12.5728
}
},
{
"Name": "København K",
"PostCode": "1175",
"Location": {
"Latitude": 55.6824,
"Longitude": 12.5738
}
},
{
"Name": "København K",
"PostCode": "1200",
"Location": {
"Latitude": 55.6784,
"Longitude": 12.58
}
},
{
"Name": "København K",
"PostCode": "1201",
"Location": {
"Latitude": 55.6781,
"Longitude": 12.5781
}
},
{
"Name": "København K",
"PostCode": "1202",
"Location": {
"Latitude": 55.6777,
"Longitude": 12.5784
}
},
{
"Name": "København K",
"PostCode": "1203",
"Location": {
"Latitude": 55.6764,
"Longitude": 12.5761
}
},
{
"Name": "København K",
"PostCode": "1204",
"Location": {
"Latitude": 55.6765,
"Longitude": 12.5755
}
},
{
"Name": "København K",
"PostCode": "1205",
"Location": {
"Latitude": 55.6771,
"Longitude": 12.5765
}
},
{
"Name": "København K",
"PostCode": "1206",
"Location": {
"Latitude": 55.6775,
"Longitude": 12.5771
}
},
{
"Name": "København K",
"PostCode": "1207",
"Location": {
"Latitude": 55.6781,
"Longitude": 12.5766
}
},
{
"Name": "København K",
"PostCode": "1208",
"Location": {
"Latitude": 55.6771,
"Longitude": 12.5753
}
},
{
"Name": "København K",
"PostCode": "1209",
"Location": {
"Latitude": 55.678,
"Longitude": 12.5753
}
},
{
"Name": "København K",
"PostCode": "1210",
"Location": {
"Latitude": 55.6775,
"Longitude": 12.575
}
},
{
"Name": "København K",
"PostCode": "1211",
"Location": {
"Latitude": 55.6776,
"Longitude": 12.5747
}
},
{
"Name": "København K",
"PostCode": "1212",
"Location": {
"Latitude": 55.6769,
"Longitude": 12.5789
}
},
{
"Name": "København K",
"PostCode": "1213",
"Location": {
"Latitude": 55.6764,
"Longitude": 12.5783
}
},
{
"Name": "København K",
"PostCode": "1214",
"Location": {
"Latitude": 55.6747,
"Longitude": 12.579
}
},
{
"Name": "København K",
"PostCode": "1215",
"Location": {
"Latitude": 55.6756,
"Longitude": 12.5846
}
},
{
"Name": "København K",
"PostCode": "1216",
"Location": {
"Latitude": 55.6752,
"Longitude": 12.584
}
},
{
"Name": "København K",
"PostCode": "1218",
"Location": {
"Latitude": 55.6757,
"Longitude": 12.5795
}
},
{
"Name": "København K",
"PostCode": "1219",
"Location": {
"Latitude": 55.6731,
"Longitude": 12.5818
}
},
{
"Name": "København K",
"PostCode": "1220",
"Location": {
"Latitude": 55.6742,
"Longitude": 12.5772
}
},
{
"Name": "København K",
"PostCode": "1221",
"Location": {
"Latitude": 55.6743,
"Longitude": 12.5845
}
},
{
"Name": "København K",
"PostCode": "1250",
"Location": {
"Latitude": 55.6815,
"Longitude": 12.5915
}
},
{
"Name": "København K",
"PostCode": "1251",
"Location": {
"Latitude": 55.6798,
"Longitude": 12.5935
}
},
{
"Name": "København K",
"PostCode": "1252",
"Location": {
"Latitude": 55.6813,
"Longitude": 12.5953
}
},
{
"Name": "København K",
"PostCode": "1253",
"Location": {
"Latitude": 55.6831,
"Longitude": 12.594
}
},
{
"Name": "København K",
"PostCode": "1254",
"Location": {
"Latitude": 55.6809,
"Longitude": 12.5901
}
},
{
"Name": "København K",
"PostCode": "1255",
"Location": {
"Latitude": 55.6811,
"Longitude": 12.5887
}
},
{
"Name": "København K",
"PostCode": "1256",
"Location": {
"Latitude": 55.6848,
"Longitude": 12.5936
}
},
{
"Name": "København K",
"PostCode": "1257",
"Location": {
"Latitude": 55.6842,
"Longitude": 12.5929
}
},
{
"Name": "København K",
"PostCode": "1259",
"Location": {
"Latitude": 55.69,
"Longitude": 12.5995
}
},
{
"Name": "København K",
"PostCode": "1260",
"Location": {
"Latitude": 55.6839,
"Longitude": 12.59
}
},
{
"Name": "København K",
"PostCode": "1261",
"Location": {
"Latitude": 55.6819,
"Longitude": 12.5869
}
},
{
"Name": "København K",
"PostCode": "1263",
"Location": {
"Latitude": 55.6875,
"Longitude": 12.5935
}
},
{
"Name": "København K",
"PostCode": "1264",
"Location": {
"Latitude": 55.685,
"Longitude": 12.5879
}
},
{
"Name": "København K",
"PostCode": "1265",
"Location": {
"Latitude": 55.6849,
"Longitude": 12.5902
}
},
{
"Name": "København K",
"PostCode": "1266",
"Location": {
"Latitude": 55.6878,
"Longitude": 12.5911
}
},
{
"Name": "København K",
"PostCode": "1267",
"Location": {
"Latitude": 55.6884,
"Longitude": 12.5907
}
},
{
"Name": "København K",
"PostCode": "1268",
"Location": {
"Latitude": 55.6888,
"Longitude": 12.5903
}
},
{
"Name": "København K",
"PostCode": "1270",
"Location": {
"Latitude": 55.689,
"Longitude": 12.591
}
},
{
"Name": "København K",
"PostCode": "1271",
"Location": {
"Latitude": 55.6892,
"Longitude": 12.5898
}
},
{
"Name": "København K",
"PostCode": "1300",
"Location": {
"Latitude": 55.685,
"Longitude": 12.5863
}
},
{
"Name": "København K",
"PostCode": "1301",
"Location": {
"Latitude": 55.6832,
"Longitude": 12.5856
}
},
{
"Name": "København K",
"PostCode": "1302",
"Location": {
"Latitude": 55.6839,
"Longitude": 12.5862
}
},
{
"Name": "København K",
"PostCode": "1303",
"Location": {
"Latitude": 55.686,
"Longitude": 12.5882
}
},
{
"Name": "København K",
"PostCode": "1304",
"Location": {
"Latitude": 55.6846,
"Longitude": 12.5843
}
},
{
"Name": "København K",
"PostCode": "1306",
"Location": {
"Latitude": 55.6857,
"Longitude": 12.5834
}
},
{
"Name": "København K",
"PostCode": "1307",
"Location": {
"Latitude": 55.6878,
"Longitude": 12.5789
}
},
{
"Name": "København K",
"PostCode": "1308",
"Location": {
"Latitude": 55.6866,
"Longitude": 12.5847
}
},
{
"Name": "København K",
"PostCode": "1309",
"Location": {
"Latitude": 55.6873,
"Longitude": 12.5836
}
},
{
"Name": "København K",
"PostCode": "1310",
"Location": {
"Latitude": 55.6864,
"Longitude": 12.5884
}
},
{
"Name": "København K",
"PostCode": "1311",
"Location": {
"Latitude": 55.6872,
"Longitude": 12.5868
}
},
{
"Name": "København K",
"PostCode": "1312",
"Location": {
"Latitude": 55.6875,
"Longitude": 12.5858
}
},
{
"Name": "København K",
"PostCode": "1313",
"Location": {
"Latitude": 55.6875,
"Longitude": 12.5871
}
},
{
"Name": "København K",
"PostCode": "1314",
"Location": {
"Latitude": 55.6878,
"Longitude": 12.5869
}
},
{
"Name": "København K",
"PostCode": "1315",
"Location": {
"Latitude": 55.6876,
"Longitude": 12.5879
}
},
{
"Name": "København K",
"PostCode": "1316",
"Location": {
"Latitude": 55.6881,
"Longitude": 12.583
}
},
{
"Name": "København K",
"PostCode": "1317",
"Location": {
"Latitude": 55.689,
"Longitude": 12.5829
}
},
{
"Name": "København K",
"PostCode": "1318",
"Location": {
"Latitude": 55.6885,
"Longitude": 12.5848
}
},
{
"Name": "København K",
"PostCode": "1319",
"Location": {
"Latitude": 55.6882,
"Longitude": 12.5872
}
},
{
"Name": "København K",
"PostCode": "1320",
"Location": {
"Latitude": 55.6886,
"Longitude": 12.5873
}
},
{
"Name": "København K",
"PostCode": "1321",
"Location": {
"Latitude": 55.6879,
"Longitude": 12.5894
}
},
{
"Name": "København K",
"PostCode": "1322",
"Location": {
"Latitude": 55.6889,
"Longitude": 12.5873
}
},
{
"Name": "København K",
"PostCode": "1323",
"Location": {
"Latitude": 55.6897,
"Longitude": 12.5857
}
},
{
"Name": "København K",
"PostCode": "1324",
"Location": {
"Latitude": 55.6891,
"Longitude": 12.588
}
},
{
"Name": "København K",
"PostCode": "1325",
"Location": {
"Latitude": 55.6895,
"Longitude": 12.5876
}
},
{
"Name": "København K",
"PostCode": "1326",
"Location": {
"Latitude": 55.6897,
"Longitude": 12.5879
}
},
{
"Name": "København K",
"PostCode": "1327",
"Location": {
"Latitude": 55.6902,
"Longitude": 12.5876
}
},
{
"Name": "København K",
"PostCode": "1328",
"Location": {
"Latitude": 55.6902,
"Longitude": 12.5882
}
},
{
"Name": "København K",
"PostCode": "1329",
"Location": {
"Latitude": 55.689,
"Longitude": 12.5851
}
},
{
"Name": "København K",
"PostCode": "1350",
"Location": {
"Latitude": 55.6885,
"Longitude": 12.5813
}
},
{
"Name": "København K",
"PostCode": "1352",
"Location": {
"Latitude": 55.6896,
"Longitude": 12.5726
}
},
{
"Name": "København K",
"PostCode": "1353",
"Location": {
"Latitude": 55.6879,
"Longitude": 12.572
}
},
{
"Name": "København K",
"PostCode": "1354",
"Location": {
"Latitude": 55.6893,
"Longitude": 12.5719
}
},
{
"Name": "København K",
"PostCode": "1355",
"Location": {
"Latitude": 55.6891,
"Longitude": 12.5713
}
},
{
"Name": "København K",
"PostCode": "1356",
"Location": {
"Latitude": 55.6869,
"Longitude": 12.5676
}
},
{
"Name": "København K",
"PostCode": "1357",
"Location": {
"Latitude": 55.6884,
"Longitude": 12.569
}
},
{
"Name": "København K",
"PostCode": "1358",
"Location": {
"Latitude": 55.6819,
"Longitude": 12.5701
}
},
{
"Name": "København K",
"PostCode": "1359",
"Location": {
"Latitude": 55.6833,
"Longitude": 12.5655
}
},
{
"Name": "København K",
"PostCode": "1360",
"Location": {
"Latitude": 55.6843,
"Longitude": 12.5698
}
},
{
"Name": "København K",
"PostCode": "1361",
"Location": {
"Latitude": 55.684,
"Longitude": 12.5706
}
},
{
"Name": "København K",
"PostCode": "1362",
"Location": {
"Latitude": 55.6843,
"Longitude": 12.5691
}
},
{
"Name": "København K",
"PostCode": "1363",
"Location": {
"Latitude": 55.6844,
"Longitude": 12.5671
}
},
{
"Name": "København K",
"PostCode": "1364",
"Location": {
"Latitude": 55.683,
"Longitude": 12.5662
}
},
{
"Name": "København K",
"PostCode": "1365",
"Location": {
"Latitude": 55.6821,
"Longitude": 12.5644
}
},
{
"Name": "København K",
"PostCode": "1366",
"Location": {
"Latitude": 55.6833,
"Longitude": 12.5649
}
},
{
"Name": "København K",
"PostCode": "1367",
"Location": {
"Latitude": 55.6831,
"Longitude": 12.5635
}
},
{
"Name": "København K",
"PostCode": "1368",
"Location": {
"Latitude": 55.6815,
"Longitude": 12.5632
}
},
{
"Name": "København K",
"PostCode": "1369",
"Location": {
"Latitude": 55.6808,
"Longitude": 12.5622
}
},
{
"Name": "København K",
"PostCode": "1370",
"Location": {
"Latitude": 55.6833,
"Longitude": 12.563
}
},
{
"Name": "København K",
"PostCode": "1371",
"Location": {
"Latitude": 55.686,
"Longitude": 12.5651
}
},
{
"Name": "København K",
"PostCode": "1400",
"Location": {
"Latitude": 55.6726,
"Longitude": 12.591
}
},
{
"Name": "København K",
"PostCode": "1401",
"Location": {
"Latitude": 55.6752,
"Longitude": 12.5922
}
},
{
"Name": "København K",
"PostCode": "1402",
"Location": {
"Latitude": 55.6724,
"Longitude": 12.5864
}
},
{
"Name": "København K",
"PostCode": "1403",
"Location": {
"Latitude": 55.6755,
"Longitude": 12.594
}
},
{
"Name": "København K",
"PostCode": "1406",
"Location": {
"Latitude": 55.6752,
"Longitude": 12.593
}
},
{
"Name": "København K",
"PostCode": "1407",
"Location": {
"Latitude": 55.6741,
"Longitude": 12.5946
}
},
{
"Name": "København K",
"PostCode": "1408",
"Location": {
"Latitude": 55.6733,
"Longitude": 12.5903
}
},
{
"Name": "København K",
"PostCode": "1409",
"Location": {
"Latitude": 55.6737,
"Longitude": 12.5877
}
},
{
"Name": "København K",
"PostCode": "1410",
"Location": {
"Latitude": 55.672,
"Longitude": 12.5911
}
},
{
"Name": "København K",
"PostCode": "1411",
"Location": {
"Latitude": 55.6704,
"Longitude": 12.5849
}
},
{
"Name": "København K",
"PostCode": "1412",
"Location": {
"Latitude": 55.6706,
"Longitude": 12.586
}
},
{
"Name": "København K",
"PostCode": "1413",
"Location": {
"Latitude": 55.6706,
"Longitude": 12.5866
}
},
{
"Name": "København K",
"PostCode": "1414",
"Location": {
"Latitude": 55.6729,
"Longitude": 12.5908
}
},
{
"Name": "København K",
"PostCode": "1415",
"Location": {
"Latitude": 55.6733,
"Longitude": 12.5929
}
},
{
"Name": "København K",
"PostCode": "1416",
"Location": {
"Latitude": 55.6731,
"Longitude": 12.5931
}
},
{
"Name": "København K",
"PostCode": "1417",
"Location": {
"Latitude": 55.6728,
"Longitude": 12.5924
}
},
{
"Name": "København K",
"PostCode": "1418",
"Location": {
"Latitude": 55.671,
"Longitude": 12.5908
}
},
{
"Name": "København K",
"PostCode": "1419",
"Location": {
"Latitude": 55.6705,
"Longitude": 12.5888
}
},
{
"Name": "København K",
"PostCode": "1420",
"Location": {
"Latitude": 55.6716,
"Longitude": 12.5912
}
},
{
"Name": "København K",
"PostCode": "1421",
"Location": {
"Latitude": 55.6703,
"Longitude": 12.5882
}
},
{
"Name": "København K",
"PostCode": "1422",
"Location": {
"Latitude": 55.6732,
"Longitude": 12.5956
}
},
{
"Name": "København K",
"PostCode": "1423",
"Location": {
"Latitude": 55.6707,
"Longitude": 12.5926
}
},
{
"Name": "København K",
"PostCode": "1424",
"Location": {
"Latitude": 55.6704,
"Longitude": 12.5917
}
},
{
"Name": "København K",
"PostCode": "1425",
"Location": {
"Latitude": 55.6718,
"Longitude": 12.5942
}
},
{
"Name": "København K",
"PostCode": "1426",
"Location": {
"Latitude": 55.6723,
"Longitude": 12.5969
}
},
{
"Name": "København K",
"PostCode": "1427",
"Location": {
"Latitude": 55.6751,
"Longitude": 12.597
}
},
{
"Name": "København K",
"PostCode": "1428",
"Location": {
"Latitude": 55.6758,
"Longitude": 12.5979
}
},
{
"Name": "København K",
"PostCode": "1429",
"Location": {
"Latitude": 55.6755,
"Longitude": 12.5986
}
},
{
"Name": "København K",
"PostCode": "1430",
"Location": {
"Latitude": 55.6764,
"Longitude": 12.5993
}
},
{
"Name": "København K",
"PostCode": "1432",
"Location": {
"Latitude": 55.6878,
"Longitude": 12.6129
}
},
{
"Name": "København K",
"PostCode": "1433",
"Location": {
"Latitude": 55.7119,
"Longitude": 12.6981
}
},
{
"Name": "København K",
"PostCode": "1434",
"Location": {
"Latitude": 55.6797,
"Longitude": 12.6028
}
},
{
"Name": "København K",
"PostCode": "1435",
"Location": {
"Latitude": 55.6806,
"Longitude": 12.6053
}
},
{
"Name": "København K",
"PostCode": "1436",
"Location": {
"Latitude": 55.6775,
"Longitude": 12.6034
}
},
{
"Name": "København K",
"PostCode": "1437",
"Location": {
"Latitude": 55.6801,
"Longitude": 12.6043
}
},
{
"Name": "København K",
"PostCode": "1438",
"Location": {
"Latitude": 55.6823,
"Longitude": 12.6021
}
},
{
"Name": "København K",
"PostCode": "1439",
"Location": {
"Latitude": 55.6865,
"Longitude": 12.6085
}
},
{
"Name": "København K",
"PostCode": "1440",
"Location": {
"Latitude": 55.6748,
"Longitude": 12.6034
}
},
{
"Name": "København K",
"PostCode": "1441",
"Location": {
"Latitude": 55.6769,
"Longitude": 12.6099
}
},
{
"Name": "København K",
"PostCode": "1450",
"Location": {
"Latitude": 55.6775,
"Longitude": 12.5734
}
},
{
"Name": "København K",
"PostCode": "1451",
"Location": {
"Latitude": 55.6801,
"Longitude": 12.5695
}
},
{
"Name": "København K",
"PostCode": "1452",
"Location": {
"Latitude": 55.6795,
"Longitude": 12.5684
}
},
{
"Name": "København K",
"PostCode": "1453",
"Location": {
"Latitude": 55.6791,
"Longitude": 12.5686
}
},
{
"Name": "København K",
"PostCode": "1454",
"Location": {
"Latitude": 55.6784,
"Longitude": 12.5694
}
},
{
"Name": "København K",
"PostCode": "1455",
"Location": {
"Latitude": 55.6785,
"Longitude": 12.5692
}
},
{
"Name": "København K",
"PostCode": "1456",
"Location": {
"Latitude": 55.6777,
"Longitude": 12.57
}
},
{
"Name": "København K",
"PostCode": "1457",
"Location": {
"Latitude": 55.6782,
"Longitude": 12.5719
}
},
{
"Name": "København K",
"PostCode": "1458",
"Location": {
"Latitude": 55.677,
"Longitude": 12.5714
}
},
{
"Name": "København K",
"PostCode": "1459",
"Location": {
"Latitude": 55.6772,
"Longitude": 12.5709
}
},
{
"Name": "København K",
"PostCode": "1460",
"Location": {
"Latitude": 55.6766,
"Longitude": 12.571
}
},
{
"Name": "København K",
"PostCode": "1461",
"Location": {
"Latitude": 55.6768,
"Longitude": 12.5728
}
},
{
"Name": "København K",
"PostCode": "1462",
"Location": {
"Latitude": 55.6763,
"Longitude": 12.5717
}
},
{
"Name": "København K",
"PostCode": "1463",
"Location": {
"Latitude": 55.6758,
"Longitude": 12.5723
}
},
{
"Name": "København K",
"PostCode": "1464",
"Location": {
"Latitude": 55.6765,
"Longitude": 12.5728
}
},
{
"Name": "København K",
"PostCode": "1465",
"Location": {
"Latitude": 55.6761,
"Longitude": 12.5735
}
},
{
"Name": "København K",
"PostCode": "1466",
"Location": {
"Latitude": 55.6768,
"Longitude": 12.5741
}
},
{
"Name": "København K",
"PostCode": "1467",
"Location": {
"Latitude": 55.6761,
"Longitude": 12.5741
}
},
{
"Name": "København K",
"PostCode": "1468",
"Location": {
"Latitude": 55.6755,
"Longitude": 12.5735
}
},
{
"Name": "København K",
"PostCode": "1470",
"Location": {
"Latitude": 55.6751,
"Longitude": 12.574
}
},
{
"Name": "København K",
"PostCode": "1471",
"Location": {
"Latitude": 55.6743,
"Longitude": 12.5756
}
},
{
"Name": "København K",
"PostCode": "1472",
"Location": {
"Latitude": 55.6737,
"Longitude": 12.5765
}
},
{
"Name": "København K",
"PostCode": "1473",
"Location": {
"Latitude": 55.6722,
"Longitude": 12.579
}
},
{
"Name": "København N",
"PostCode": "2200",
"Location": {
"Latitude": 55.6948,
"Longitude": 12.5503
}
},
{
"Name": "København NV",
"PostCode": "2400",
"Location": {
"Latitude": 55.7086,
"Longitude": 12.5263
}
},
{
"Name": "København Ø",
"PostCode": "2100",
"Location": {
"Latitude": 55.7072,
"Longitude": 12.572
}
},
{
"Name": "København S",
"PostCode": "2300",
"Location": {
"Latitude": 55.6511,
"Longitude": 12.603
}
},
{
"Name": "København SV",
"PostCode": "2450",
"Location": {
"Latitude": 55.6484,
"Longitude": 12.5359
}
},
{
"Name": "København V",
"PostCode": "1550",
"Location": {
"Latitude": 55.6761,
"Longitude": 12.5695
}
},
{
"Name": "København V",
"PostCode": "1551",
"Location": {
"Latitude": 55.6788,
"Longitude": 12.566
}
},
{
"Name": "København V",
"PostCode": "1552",
"Location": {
"Latitude": 55.675,
"Longitude": 12.5724
}
},
{
"Name": "København V",
"PostCode": "1553",
"Location": {
"Latitude": 55.6744,
"Longitude": 12.5711
}
},
{
"Name": "København V",
"PostCode": "1554",
"Location": {
"Latitude": 55.6771,
"Longitude": 12.5654
}
},
{
"Name": "København V",
"PostCode": "1555",
"Location": {
"Latitude": 55.6746,
"Longitude": 12.5739
}
},
{
"Name": "København V",
"PostCode": "1556",
"Location": {
"Latitude": 55.6736,
"Longitude": 12.5735
}
},
{
"Name": "København V",
"PostCode": "1557",
"Location": {
"Latitude": 55.6731,
"Longitude": 12.5748
}
},
{
"Name": "København V",
"PostCode": "1558",
"Location": {
"Latitude": 55.672,
"Longitude": 12.577
}
},
{
"Name": "København V",
"PostCode": "1559",
"Location": {
"Latitude": 55.6716,
"Longitude": 12.5776
}
},
{
"Name": "København V",
"PostCode": "1560",
"Location": {
"Latitude": 55.6664,
"Longitude": 12.569
}
},
{
"Name": "København V",
"PostCode": "1561",
"Location": {
"Latitude": 55.6607,
"Longitude": 12.5628
}
},
{
"Name": "København V",
"PostCode": "1562",
"Location": {
"Latitude": 55.6705,
"Longitude": 12.5741
}
},
{
"Name": "København V",
"PostCode": "1563",
"Location": {
"Latitude": 55.6709,
"Longitude": 12.5741
}
},
{
"Name": "København V",
"PostCode": "1564",
"Location": {
"Latitude": 55.672,
"Longitude": 12.5755
}
},
{
"Name": "København V",
"PostCode": "1567",
"Location": {
"Latitude": 55.6703,
"Longitude": 12.5709
}
},
{
"Name": "København V",
"PostCode": "1568",
"Location": {
"Latitude": 55.67,
"Longitude": 12.5713
}
},
{
"Name": "København V",
"PostCode": "1569",
"Location": {
"Latitude": 55.6713,
"Longitude": 12.5708
}
},
{
"Name": "København V",
"PostCode": "1570",
"Location": {
"Latitude": 55.6735,
"Longitude": 12.5642
}
},
{
"Name": "København V",
"PostCode": "1571",
"Location": {
"Latitude": 55.6711,
"Longitude": 12.5728
}
},
{
"Name": "København V",
"PostCode": "1572",
"Location": {
"Latitude": 55.6716,
"Longitude": 12.5732
}
},
{
"Name": "København V",
"PostCode": "1573",
"Location": {
"Latitude": 55.6716,
"Longitude": 12.5745
}
},
{
"Name": "København V",
"PostCode": "1574",
"Location": {
"Latitude": 55.6718,
"Longitude": 12.5724
}
},
{
"Name": "København V",
"PostCode": "1575",
"Location": {
"Latitude": 55.6718,
"Longitude": 12.5709
}
},
{
"Name": "København V",
"PostCode": "1576",
"Location": {
"Latitude": 55.6712,
"Longitude": 12.57
}
},
{
"Name": "København V",
"PostCode": "1577",
"Location": {
"Latitude": 55.669,
"Longitude": 12.5663
}
},
{
"Name": "København V",
"PostCode": "1600",
"Location": {
"Latitude": 55.6801,
"Longitude": 12.5619
}
},
{
"Name": "København V",
"PostCode": "1601",
"Location": {
"Latitude": 55.6782,
"Longitude": 12.56
}
},
{
"Name": "København V",
"PostCode": "1602",
"Location": {
"Latitude": 55.6786,
"Longitude": 12.561
}
},
{
"Name": "København V",
"PostCode": "1603",
"Location": {
"Latitude": 55.6792,
"Longitude": 12.5623
}
},
{
"Name": "København V",
"PostCode": "1604",
"Location": {
"Latitude": 55.6777,
"Longitude": 12.5614
}
},
{
"Name": "København V",
"PostCode": "1605",
"Location": {
"Latitude": 55.6761,
"Longitude": 12.5607
}
},
{
"Name": "København V",
"PostCode": "1606",
"Location": {
"Latitude": 55.6772,
"Longitude": 12.5623
}
},
{
"Name": "København V",
"PostCode": "1607",
"Location": {
"Latitude": 55.6782,
"Longitude": 12.5634
}
},
{
"Name": "København V",
"PostCode": "1608",
"Location": {
"Latitude": 55.6761,
"Longitude": 12.5658
}
},
{
"Name": "København V",
"PostCode": "1609",
"Location": {
"Latitude": 55.6758,
"Longitude": 12.5648
}
},
{
"Name": "København V",
"PostCode": "1610",
"Location": {
"Latitude": 55.6739,
"Longitude": 12.5548
}
},
{
"Name": "København V",
"PostCode": "1611",
"Location": {
"Latitude": 55.676,
"Longitude": 12.5638
}
},
{
"Name": "København V",
"PostCode": "1612",
"Location": {
"Latitude": 55.6752,
"Longitude": 12.562
}
},
{
"Name": "København V",
"PostCode": "1613",
"Location": {
"Latitude": 55.6745,
"Longitude": 12.5617
}
},
{
"Name": "København V",
"PostCode": "1614",
"Location": {
"Latitude": 55.6739,
"Longitude": 12.5606
}
},
{
"Name": "København V",
"PostCode": "1615",
"Location": {
"Latitude": 55.6737,
"Longitude": 12.5591
}
},
{
"Name": "København V",
"PostCode": "1616",
"Location": {
"Latitude": 55.6732,
"Longitude": 12.557
}
},
{
"Name": "København V",
"PostCode": "1617",
"Location": {
"Latitude": 55.673,
"Longitude": 12.5545
}
},
{
"Name": "København V",
"PostCode": "1618",
"Location": {
"Latitude": 55.6736,
"Longitude": 12.551
}
},
{
"Name": "København V",
"PostCode": "1619",
"Location": {
"Latitude": 55.6737,
"Longitude": 12.5501
}
},
{
"Name": "København V",
"PostCode": "1620",
"Location": {
"Latitude": 55.6722,
"Longitude": 12.5507
}
},
{
"Name": "København V",
"PostCode": "1621",
"Location": {
"Latitude": 55.6729,
"Longitude": 12.548
}
},
{
"Name": "København V",
"PostCode": "1622",
"Location": {
"Latitude": 55.6724,
"Longitude": 12.5463
}
},
{
"Name": "København V",
"PostCode": "1623",
"Location": {
"Latitude": 55.6719,
"Longitude": 12.5453
}
},
{
"Name": "København V",
"PostCode": "1624",
"Location": {
"Latitude": 55.6721,
"Longitude": 12.546
}
},
{
"Name": "København V",
"PostCode": "1631",
"Location": {
"Latitude": 55.6827,
"Longitude": 12.5555
}
},
{
"Name": "København V",
"PostCode": "1632",
"Location": {
"Latitude": 55.6827,
"Longitude": 12.5549
}
},
{
"Name": "København V",
"PostCode": "1633",
"Location": {
"Latitude": 55.6823,
"Longitude": 12.5564
}
},
{
"Name": "København V",
"PostCode": "1634",
"Location": {
"Latitude": 55.6819,
"Longitude": 12.5558
}
},
{
"Name": "København V",
"PostCode": "1635",
"Location": {
"Latitude": 55.6829,
"Longitude": 12.5561
}
},
{
"Name": "København V",
"PostCode": "1650",
"Location": {
"Latitude": 55.6697,
"Longitude": 12.5549
}
},
{
"Name": "København V",
"PostCode": "1651",
"Location": {
"Latitude": 55.6722,
"Longitude": 12.5637
}
},
{
"Name": "København V",
"PostCode": "1652",
"Location": {
"Latitude": 55.6718,
"Longitude": 12.5626
}
},
{
"Name": "København V",
"PostCode": "1653",
"Location": {
"Latitude": 55.672,
"Longitude": 12.5612
}
},
{
"Name": "København V",
"PostCode": "1654",
"Location": {
"Latitude": 55.6715,
"Longitude": 12.5595
}
},
{
"Name": "København V",
"PostCode": "1655",
"Location": {
"Latitude": 55.6714,
"Longitude": 12.5581
}
},
{
"Name": "København V",
"PostCode": "1656",
"Location": {
"Latitude": 55.6711,
"Longitude": 12.5568
}
},
{
"Name": "København V",
"PostCode": "1657",
"Location": {
"Latitude": 55.6704,
"Longitude": 12.5558
}
},
{
"Name": "København V",
"PostCode": "1658",
"Location": {
"Latitude": 55.6704,
"Longitude": 12.5548
}
},
{
"Name": "København V",
"PostCode": "1659",
"Location": {
"Latitude": 55.6718,
"Longitude": 12.5545
}
},
{
"Name": "København V",
"PostCode": "1660",
"Location": {
"Latitude": 55.67,
"Longitude": 12.5528
}
},
{
"Name": "København V",
"PostCode": "1661",
"Location": {
"Latitude": 55.6714,
"Longitude": 12.5518
}
},
{
"Name": "København V",
"PostCode": "1662",
"Location": {
"Latitude": 55.6698,
"Longitude": 12.551
}
},
{
"Name": "København V",
"PostCode": "1663",
"Location": {
"Latitude": 55.6692,
"Longitude": 12.5499
}
},
{
"Name": "København V",
"PostCode": "1664",
"Location": {
"Latitude": 55.6719,
"Longitude": 12.5492
}
},
{
"Name": "København V",
"PostCode": "1665",
"Location": {
"Latitude": 55.6687,
"Longitude": 12.549
}
},
{
"Name": "København V",
"PostCode": "1666",
"Location": {
"Latitude": 55.6699,
"Longitude": 12.5485
}
},
{
"Name": "København V",
"PostCode": "1667",
"Location": {
"Latitude": 55.6691,
"Longitude": 12.547
}
},
{
"Name": "København V",
"PostCode": "1668",
"Location": {
"Latitude": 55.6684,
"Longitude": 12.548
}
},
{
"Name": "København V",
"PostCode": "1669",
"Location": {
"Latitude": 55.6672,
"Longitude": 12.5474
}
},
{
"Name": "København V",
"PostCode": "1670",
"Location": {
"Latitude": 55.667,
"Longitude": 12.546
}
},
{
"Name": "København V",
"PostCode": "1671",
"Location": {
"Latitude": 55.6667,
"Longitude": 12.5461
}
},
{
"Name": "København V",
"PostCode": "1672",
"Location": {
"Latitude": 55.6685,
"Longitude": 12.5464
}
},
{
"Name": "København V",
"PostCode": "1673",
"Location": {
"Latitude": 55.668,
"Longitude": 12.5465
}
},
{
"Name": "København V",
"PostCode": "1674",
"Location": {
"Latitude": 55.6685,
"Longitude": 12.5447
}
},
{
"Name": "København V",
"PostCode": "1675",
"Location": {
"Latitude": 55.6665,
"Longitude": 12.5468
}
},
{
"Name": "København V",
"PostCode": "1676",
"Location": {
"Latitude": 55.6662,
"Longitude": 12.5485
}
},
{
"Name": "København V",
"PostCode": "1677",
"Location": {
"Latitude": 55.666,
"Longitude": 12.5469
}
},
{
"Name": "København V",
"PostCode": "1699",
"Location": {
"Latitude": 55.6677,
"Longitude": 12.5619
}
},
{
"Name": "København V",
"PostCode": "1700",
"Location": {
"Latitude": 55.6695,
"Longitude": 12.5597
}
},
{
"Name": "København V",
"PostCode": "1701",
"Location": {
"Latitude": 55.6718,
"Longitude": 12.5633
}
},
{
"Name": "København V",
"PostCode": "1702",
"Location": {
"Latitude": 55.6713,
"Longitude": 12.5637
}
},
{
"Name": "København V",
"PostCode": "1703",
"Location": {
"Latitude": 55.6705,
"Longitude": 12.5629
}
},
{
"Name": "København V",
"PostCode": "1704",
"Location": {
"Latitude": 55.6711,
"Longitude": 12.567
}
},
{
"Name": "København V",
"PostCode": "1705",
"Location": {
"Latitude": 55.6647,
"Longitude": 12.5522
}
},
{
"Name": "København V",
"PostCode": "1706",
"Location": {
"Latitude": 55.6707,
"Longitude": 12.56
}
},
{
"Name": "København V",
"PostCode": "1707",
"Location": {
"Latitude": 55.6718,
"Longitude": 12.5607
}
},
{
"Name": "København V",
"PostCode": "1708",
"Location": {
"Latitude": 55.6696,
"Longitude": 12.5575
}
},
{
"Name": "København V",
"PostCode": "1709",
"Location": {
"Latitude": 55.6685,
"Longitude": 12.5543
}
},
{
"Name": "København V",
"PostCode": "1710",
"Location": {
"Latitude": 55.6703,
"Longitude": 12.5625
}
},
{
"Name": "København V",
"PostCode": "1711",
"Location": {
"Latitude": 55.6679,
"Longitude": 12.5596
}
},
{
"Name": "København V",
"PostCode": "1712",
"Location": {
"Latitude": 55.6683,
"Longitude": 12.5577
}
},
{
"Name": "København V",
"PostCode": "1714",
"Location": {
"Latitude": 55.6663,
"Longitude": 12.5586
}
},
{
"Name": "København V",
"PostCode": "1715",
"Location": {
"Latitude": 55.6686,
"Longitude": 12.5609
}
},
{
"Name": "København V",
"PostCode": "1716",
"Location": {
"Latitude": 55.6689,
"Longitude": 12.5588
}
},
{
"Name": "København V",
"PostCode": "1717",
"Location": {
"Latitude": 55.6667,
"Longitude": 12.5574
}
},
{
"Name": "København V",
"PostCode": "1718",
"Location": {
"Latitude": 55.6666,
"Longitude": 12.5561
}
},
{
"Name": "København V",
"PostCode": "1719",
"Location": {
"Latitude": 55.6663,
"Longitude": 12.5554
}
},
{
"Name": "København V",
"PostCode": "1720",
"Location": {
"Latitude": 55.6654,
"Longitude": 12.5481
}
},
{
"Name": "København V",
"PostCode": "1721",
"Location": {
"Latitude": 55.6663,
"Longitude": 12.5524
}
},
{
"Name": "København V",
"PostCode": "1722",
"Location": {
"Latitude": 55.666,
"Longitude": 12.5548
}
},
{
"Name": "København V",
"PostCode": "1723",
"Location": {
"Latitude": 55.6674,
"Longitude": 12.5524
}
},
{
"Name": "København V",
"PostCode": "1724",
"Location": {
"Latitude": 55.668,
"Longitude": 12.552
}
},
{
"Name": "København V",
"PostCode": "1725",
"Location": {
"Latitude": 55.6655,
"Longitude": 12.5542
}
},
{
"Name": "København V",
"PostCode": "1726",
"Location": {
"Latitude": 55.6654,
"Longitude": 12.5529
}
},
{
"Name": "København V",
"PostCode": "1727",
"Location": {
"Latitude": 55.6651,
"Longitude": 12.5517
}
},
{
"Name": "København V",
"PostCode": "1728",
"Location": {
"Latitude": 55.6648,
"Longitude": 12.5506
}
},
{
"Name": "København V",
"PostCode": "1729",
"Location": {
"Latitude": 55.6646,
"Longitude": 12.5492
}
},
{
"Name": "København V",
"PostCode": "1730",
"Location": {
"Latitude": 55.6644,
"Longitude": 12.5482
}
},
{
"Name": "København V",
"PostCode": "1731",
"Location": {
"Latitude": 55.6641,
"Longitude": 12.5468
}
},
{
"Name": "København V",
"PostCode": "1732",
"Location": {
"Latitude": 55.6639,
"Longitude": 12.5458
}
},
{
"Name": "København V",
"PostCode": "1733",
"Location": {
"Latitude": 55.6637,
"Longitude": 12.5443
}
},
{
"Name": "København V",
"PostCode": "1734",
"Location": {
"Latitude": 55.6652,
"Longitude": 12.5457
}
},
{
"Name": "København V",
"PostCode": "1735",
"Location": {
"Latitude": 55.665,
"Longitude": 12.5452
}
},
{
"Name": "København V",
"PostCode": "1736",
"Location": {
"Latitude": 55.6654,
"Longitude": 12.5441
}
},
{
"Name": "København V",
"PostCode": "1737",
"Location": {
"Latitude": 55.6648,
"Longitude": 12.5444
}
},
{
"Name": "København V",
"PostCode": "1738",
"Location": {
"Latitude": 55.6646,
"Longitude": 12.5437
}
},
{
"Name": "København V",
"PostCode": "1739",
"Location": {
"Latitude": 55.6644,
"Longitude": 12.543
}
},
{
"Name": "København V",
"PostCode": "1749",
"Location": {
"Latitude": 55.6696,
"Longitude": 12.5369
}
},
{
"Name": "København V",
"PostCode": "1750",
"Location": {
"Latitude": 55.6678,
"Longitude": 12.5397
}
},
{
"Name": "København V",
"PostCode": "1751",
"Location": {
"Latitude": 55.6703,
"Longitude": 12.5446
}
},
{
"Name": "København V",
"PostCode": "1752",
"Location": {
"Latitude": 55.6701,
"Longitude": 12.5432
}
},
{
"Name": "København V",
"PostCode": "1753",
"Location": {
"Latitude": 55.6696,
"Longitude": 12.5433
}
},
{
"Name": "København V",
"PostCode": "1754",
"Location": {
"Latitude": 55.6692,
"Longitude": 12.5441
}
},
{
"Name": "København V",
"PostCode": "1755",
"Location": {
"Latitude": 55.6696,
"Longitude": 12.5428
}
},
{
"Name": "København V",
"PostCode": "1756",
"Location": {
"Latitude": 55.6695,
"Longitude": 12.5418
}
},
{
"Name": "København V",
"PostCode": "1757",
"Location": {
"Latitude": 55.6691,
"Longitude": 12.5408
}
},
{
"Name": "København V",
"PostCode": "1758",
"Location": {
"Latitude": 55.6682,
"Longitude": 12.542
}
},
{
"Name": "København V",
"PostCode": "1759",
"Location": {
"Latitude": 55.6686,
"Longitude": 12.5435
}
},
{
"Name": "København V",
"PostCode": "1760",
"Location": {
"Latitude": 55.6657,
"Longitude": 12.5448
}
},
{
"Name": "København V",
"PostCode": "1761",
"Location": {
"Latitude": 55.6666,
"Longitude": 12.5401
}
},
{
"Name": "København V",
"PostCode": "1762",
"Location": {
"Latitude": 55.6651,
"Longitude": 12.5408
}
},
{
"Name": "København V",
"PostCode": "1763",
"Location": {
"Latitude": 55.6651,
"Longitude": 12.5417
}
},
{
"Name": "København V",
"PostCode": "1764",
"Location": {
"Latitude": 55.665,
"Longitude": 12.5408
}
},
{
"Name": "København V",
"PostCode": "1765",
"Location": {
"Latitude": 55.6643,
"Longitude": 12.5391
}
},
{
"Name": "København V",
"PostCode": "1766",
"Location": {
"Latitude": 55.6641,
"Longitude": 12.5407
}
},
{
"Name": "København V",
"PostCode": "1770",
"Location": {
"Latitude": 55.6686,
"Longitude": 12.538
}
},
{
"Name": "København V",
"PostCode": "1771",
"Location": {
"Latitude": 55.6685,
"Longitude": 12.5392
}
},
{
"Name": "København V",
"PostCode": "1772",
"Location": {
"Latitude": 55.6684,
"Longitude": 12.5386
}
},
{
"Name": "København V",
"PostCode": "1773",
"Location": {
"Latitude": 55.6682,
"Longitude": 12.538
}
},
{
"Name": "København V",
"PostCode": "1774",
"Location": {
"Latitude": 55.6678,
"Longitude": 12.5383
}
},
{
"Name": "København V",
"PostCode": "1775",
"Location": {
"Latitude": 55.6679,
"Longitude": 12.5368
}
},
{
"Name": "København V",
"PostCode": "1777",
"Location": {
"Latitude": 55.6675,
"Longitude": 12.5376
}
},
{
"Name": "København V",
"PostCode": "1799",
"Location": {
"Latitude": 55.6661,
"Longitude": 12.5347
}
},
{
"Name": "Nordhavn",
"PostCode": "2150",
"Location": {
"Latitude": 55.7119,
"Longitude": 12.5984
}
},
{
"Name": "Valby",
"PostCode": "2500",
"Location": {
"Latitude": 55.661,
"Longitude": 12.5006
}
},
{
"Name": "Vanløse",
"PostCode": "2720",
"Location": {
"Latitude": 55.6896,
"Longitude": 12.4869
}
}
]
}
]
},
{
"Name": "Frederiksberg Kommune",
"Code": "147",
"Communities": [
{
"Places": [
{
"Name": "Frederiksberg",
"PostCode": "2000",
"Location": {
"Latitude": 55.6825,
"Longitude": 12.5179
}
},
{
"Name": "Frederiksberg C",
"PostCode": "1800",
"Location": {
"Latitude": 55.6707,
"Longitude": 12.5345
}
},
{
"Name": "Frederiksberg C",
"PostCode": "1801",
"Location": {
"Latitude": 55.6693,
"Longitude": 12.5342
}
},
{
"Name": "Frederiksberg C",
"PostCode": "1802",
"Location": {
"Latitude": 55.6698,
"Longitude": 12.534
}
},
{
"Name": "Frederiksberg C",
"PostCode": "1803",
"Location": {
"Latitude": 55.6701,
"Longitude": 12.5335
}
},
{
"Name": "Frederiksberg C",
"PostCode": "1804",
"Location": {
"Latitude": 55.6698,
"Longitude": 12.5322
}
},
{
"Name": "Frederiksberg C",
"PostCode": "1805",
"Location": {
"Latitude": 55.668,
"Longitude": 12.5313
}
},
{
"Name": "Frederiksberg C",
"PostCode": "1806",
"Location": {
"Latitude": 55.6722,
"Longitude": 12.5334
}
},
{
"Name": "Frederiksberg C",
"PostCode": "1807",
"Location": {
"Latitude": 55.6714,
"Longitude": 12.5333
}
},
{
"Name": "Frederiksberg C",
"PostCode": "1808",
"Location": {
"Latitude": 55.6715,
"Longitude": 12.5342
}
},
{
"Name": "Frederiksberg C",
"PostCode": "1809",
"Location": {
"Latitude": 55.6724,
"Longitude": 12.5358
}
},
{
"Name": "Frederiksberg C",
"PostCode": "1810",
"Location": {
"Latitude": 55.6719,
"Longitude": 12.5397
}
},
{
"Name": "Frederiksberg C",
"PostCode": "1811",
"Location": {
"Latitude": 55.673,
"Longitude": 12.5369
}
},
{
"Name": "Frederiksberg C",
"PostCode": "1812",
"Location": {
"Latitude": 55.6721,
"Longitude": 12.5375
}
},
{
"Name": "Frederiksberg C",
"PostCode": "1813",
"Location": {
"Latitude": 55.6722,
"Longitude": 12.5387
}
},
{
"Name": "Frederiksberg C",
"PostCode": "1814",
"Location": {
"Latitude": 55.6724,
"Longitude": 12.5412
}
},
{
"Name": "Frederiksberg C",
"PostCode": "1815",
"Location": {
"Latitude": 55.6728,
"Longitude": 12.5424
}
},
{
"Name": "Frederiksberg C",
"PostCode": "1816",
"Location": {
"Latitude": 55.6728,
"Longitude": 12.5435
}
},
{
"Name": "Frederiksberg C",
"PostCode": "1817",
"Location": {
"Latitude": 55.6722,
"Longitude": 12.543
}
},
{
"Name": "Frederiksberg C",
"PostCode": "1818",
"Location": {
"Latitude": 55.6727,
"Longitude": 12.5446
}
},
{
"Name": "Frederiksberg C",
"PostCode": "1819",
"Location": {
"Latitude": 55.6736,
"Longitude": 12.5496
}
},
{
"Name": "Frederiksberg C",
"PostCode": "1820",
"Location": {
"Latitude": 55.6739,
"Longitude": 12.5418
}
},
{
"Name": "Frederiksberg C",
"PostCode": "1822",
"Location": {
"Latitude": 55.6726,
"Longitude": 12.5458
}
},
{
"Name": "Frederiksberg C",
"PostCode": "1823",
"Location": {
"Latitude": 55.6729,
"Longitude": 12.5454
}
},
{
"Name": "Frederiksberg C",
"PostCode": "1824",
"Location": {
"Latitude": 55.6743,
"Longitude": 12.547
}
},
{
"Name": "Frederiksberg C",
"PostCode": "1825",
"Location": {
"Latitude": 55.6745,
"Longitude": 12.5456
}
},
{
"Name": "Frederiksberg C",
"PostCode": "1826",
"Location": {
"Latitude": 55.6748,
"Longitude": 12.5445
}
},
{
"Name": "Frederiksberg C",
"PostCode": "1827",
"Location": {
"Latitude": 55.6749,
"Longitude": 12.5433
}
},
{
"Name": "Frederiksberg C",
"PostCode": "1828",
"Location": {
"Latitude": 55.675,
"Longitude": 12.542
}
},
{
"Name": "Frederiksberg C",
"PostCode": "1829",
"Location": {
"Latitude": 55.6752,
"Longitude": 12.541
}
},
{
"Name": "Frederiksberg C",
"PostCode": "1850",
"Location": {
"Latitude": 55.6763,
"Longitude": 12.5424
}
},
{
"Name": "Frederiksberg C",
"PostCode": "1851",
"Location": {
"Latitude": 55.6755,
"Longitude": 12.5396
}
},
{
"Name": "Frederiksberg C",
"PostCode": "1852",
"Location": {
"Latitude": 55.6758,
"Longitude": 12.5382
}
},
{
"Name": "Frederiksberg C",
"PostCode": "1853",
"Location": {
"Latitude": 55.6754,
"Longitude": 12.5364
}
},
{
"Name": "Frederiksberg C",
"PostCode": "1854",
"Location": {
"Latitude": 55.6755,
"Longitude": 12.5346
}
},
{
"Name": "Frederiksberg C",
"PostCode": "1855",
"Location": {
"Latitude": 55.6762,
"Longitude": 12.5355
}
},
{
"Name": "Frederiksberg C",
"PostCode": "1856",
"Location": {
"Latitude": 55.6768,
"Longitude": 12.5371
}
},
{
"Name": "Frederiksberg C",
"PostCode": "1857",
"Location": {
"Latitude": 55.6771,
"Longitude": 12.5356
}
},
{
"Name": "Frederiksberg C",
"PostCode": "1860",
"Location": {
"Latitude": 55.6809,
"Longitude": 12.536
}
},
{
"Name": "Frederiksberg C",
"PostCode": "1861",
"Location": {
"Latitude": 55.6793,
"Longitude": 12.5351
}
},
{
"Name": "Frederiksberg C",
"PostCode": "1862",
"Location": {
"Latitude": 55.6795,
"Longitude": 12.536
}
},
{
"Name": "Frederiksberg C",
"PostCode": "1863",
"Location": {
"Latitude": 55.6798,
"Longitude": 12.5375
}
},
{
"Name": "Frederiksberg C",
"PostCode": "1864",
"Location": {
"Latitude": 55.6785,
"Longitude": 12.5383
}
},
{
"Name": "Frederiksberg C",
"PostCode": "1865",
"Location": {
"Latitude": 55.6789,
"Longitude": 12.5386
}
},
{
"Name": "Frederiksberg C",
"PostCode": "1866",
"Location": {
"Latitude": 55.6779,
"Longitude": 12.5382
}
},
{
"Name": "Frederiksberg C",
"PostCode": "1867",
"Location": {
"Latitude": 55.6786,
"Longitude": 12.54
}
},
{
"Name": "Frederiksberg C",
"PostCode": "1868",
"Location": {
"Latitude": 55.6775,
"Longitude": 12.5404
}
},
{
"Name": "Frederiksberg C",
"PostCode": "1870",
"Location": {
"Latitude": 55.6804,
"Longitude": 12.5417
}
},
{
"Name": "Frederiksberg C",
"PostCode": "1871",
"Location": {
"Latitude": 55.6812,
"Longitude": 12.545
}
},
{
"Name": "Frederiksberg C",
"PostCode": "1872",
"Location": {
"Latitude": 55.6803,
"Longitude": 12.5452
}
},
{
"Name": "Frederiksberg C",
"PostCode": "1873",
"Location": {
"Latitude": 55.68,
"Longitude": 12.5444
}
},
{
"Name": "Frederiksberg C",
"PostCode": "1874",
"Location": {
"Latitude": 55.6796,
"Longitude": 12.5465
}
},
{
"Name": "Frederiksberg C",
"PostCode": "1875",
"Location": {
"Latitude": 55.6789,
"Longitude": 12.5452
}
},
{
"Name": "Frederiksberg C",
"PostCode": "1876",
"Location": {
"Latitude": 55.678,
"Longitude": 12.5449
}
},
{
"Name": "Frederiksberg C",
"PostCode": "1877",
"Location": {
"Latitude": 55.677,
"Longitude": 12.5433
}
},
{
"Name": "Frederiksberg C",
"PostCode": "1878",
"Location": {
"Latitude": 55.6768,
"Longitude": 12.5446
}
},
{
"Name": "Frederiksberg C",
"PostCode": "1879",
"Location": {
"Latitude": 55.6802,
"Longitude": 12.5485
}
},
{
"Name": "Frederiksberg C",
"PostCode": "1900",
"Location": {
"Latitude": 55.6778,
"Longitude": 12.555
}
},
{
"Name": "Frederiksberg C",
"PostCode": "1901",
"Location": {
"Latitude": 55.6761,
"Longitude": 12.5464
}
},
{
"Name": "Frederiksberg C",
"PostCode": "1902",
"Location": {
"Latitude": 55.6774,
"Longitude": 12.5481
}
},
{
"Name": "Frederiksberg C",
"PostCode": "1903",
"Location": {
"Latitude": 55.677,
"Longitude": 12.5492
}
},
{
"Name": "Frederiksberg C",
"PostCode": "1904",
"Location": {
"Latitude": 55.6764,
"Longitude": 12.5503
}
},
{
"Name": "Frederiksberg C",
"PostCode": "1905",
"Location": {
"Latitude": 55.6757,
"Longitude": 12.5508
}
},
{
"Name": "Frederiksberg C",
"PostCode": "1906",
"Location": {
"Latitude": 55.6752,
"Longitude": 12.5515
}
},
{
"Name": "Frederiksberg C",
"PostCode": "1908",
"Location": {
"Latitude": 55.6748,
"Longitude": 12.5536
}
},
{
"Name": "Frederiksberg C",
"PostCode": "1909",
"Location": {
"Latitude": 55.6758,
"Longitude": 12.5525
}
},
{
"Name": "Frederiksberg C",
"PostCode": "1910",
"Location": {
"Latitude": 55.6794,
"Longitude": 12.551
}
},
{
"Name": "Frederiksberg C",
"PostCode": "1911",
"Location": {
"Latitude": 55.6781,
"Longitude": 12.5509
}
},
{
"Name": "Frederiksberg C",
"PostCode": "1912",
"Location": {
"Latitude": 55.679,
"Longitude": 12.5512
}
},
{
"Name": "Frederiksberg C",
"PostCode": "1913",
"Location": {
"Latitude": 55.6786,
"Longitude": 12.5524
}
},
{
"Name": "Frederiksberg C",
"PostCode": "1914",
"Location": {
"Latitude": 55.6781,
"Longitude": 12.5536
}
},
{
"Name": "Frederiksberg C",
"PostCode": "1915",
"Location": {
"Latitude": 55.6787,
"Longitude": 12.5531
}
},
{
"Name": "Frederiksberg C",
"PostCode": "1916",
"Location": {
"Latitude": 55.6776,
"Longitude": 12.5554
}
},
{
"Name": "Frederiksberg C",
"PostCode": "1917",
"Location": {
"Latitude": 55.6769,
"Longitude": 12.5552
}
},
{
"Name": "Frederiksberg C",
"PostCode": "1920",
"Location": {
"Latitude": 55.68,
"Longitude": 12.5516
}
},
{
"Name": "Frederiksberg C",
"PostCode": "1921",
"Location": {
"Latitude": 55.6799,
"Longitude": 12.5529
}
},
{
"Name": "Frederiksberg C",
"PostCode": "1922",
"Location": {
"Latitude": 55.6801,
"Longitude": 12.5534
}
},
{
"Name": "Frederiksberg C",
"PostCode": "1923",
"Location": {
"Latitude": 55.6811,
"Longitude": 12.5503
}
},
{
"Name": "Frederiksberg C",
"PostCode": "1924",
"Location": {
"Latitude": 55.6812,
"Longitude": 12.5514
}
},
{
"Name": "Frederiksberg C",
"PostCode": "1925",
"Location": {
"Latitude": 55.6808,
"Longitude": 12.5536
}
},
{
"Name": "Frederiksberg C",
"PostCode": "1926",
"Location": {
"Latitude": 55.6801,
"Longitude": 12.556
}
},
{
"Name": "Frederiksberg C",
"PostCode": "1927",
"Location": {
"Latitude": 55.6794,
"Longitude": 12.5557
}
},
{
"Name": "Frederiksberg C",
"PostCode": "1928",
"Location": {
"Latitude": 55.6788,
"Longitude": 12.5558
}
},
{
"Name": "Frederiksberg C",
"PostCode": "1950",
"Location": {
"Latitude": 55.6817,
"Longitude": 12.5371
}
},
{
"Name": "Frederiksberg C",
"PostCode": "1951",
"Location": {
"Latitude": 55.6821,
"Longitude": 12.5364
}
},
{
"Name": "Frederiksberg C",
"PostCode": "1952",
"Location": {
"Latitude": 55.6824,
"Longitude": 12.537
}
},
{
"Name": "Frederiksberg C",
"PostCode": "1953",
"Location": {
"Latitude": 55.6828,
"Longitude": 12.5377
}
},
{
"Name": "Frederiksberg C",
"PostCode": "1954",
"Location": {
"Latitude": 55.6839,
"Longitude": 12.5392
}
},
{
"Name": "Frederiksberg C",
"PostCode": "1955",
"Location": {
"Latitude": 55.6836,
"Longitude": 12.5403
}
},
{
"Name": "Frederiksberg C",
"PostCode": "1956",
"Location": {
"Latitude": 55.6835,
"Longitude": 12.5413
}
},
{
"Name": "Frederiksberg C",
"PostCode": "1957",
"Location": {
"Latitude": 55.6832,
"Longitude": 12.5421
}
},
{
"Name": "Frederiksberg C",
"PostCode": "1958",
"Location": {
"Latitude": 55.6848,
"Longitude": 12.5425
}
},
{
"Name": "Frederiksberg C",
"PostCode": "1959",
"Location": {
"Latitude": 55.6858,
"Longitude": 12.5413
}
},
{
"Name": "Frederiksberg C",
"PostCode": "1960",
"Location": {
"Latitude": 55.6847,
"Longitude": 12.5512
}
},
{
"Name": "Frederiksberg C",
"PostCode": "1961",
"Location": {
"Latitude": 55.6816,
"Longitude": 12.5471
}
},
{
"Name": "Frederiksberg C",
"PostCode": "1962",
"Location": {
"Latitude": 55.6824,
"Longitude": 12.5475
}
},
{
"Name": "Frederiksberg C",
"PostCode": "1963",
"Location": {
"Latitude": 55.6813,
"Longitude": 12.5481
}
},
{
"Name": "Frederiksberg C",
"PostCode": "1964",
"Location": {
"Latitude": 55.6842,
"Longitude": 12.548
}
},
{
"Name": "Frederiksberg C",
"PostCode": "1965",
"Location": {
"Latitude": 55.6833,
"Longitude": 12.5483
}
},
{
"Name": "Frederiksberg C",
"PostCode": "1966",
"Location": {
"Latitude": 55.6833,
"Longitude": 12.5508
}
},
{
"Name": "Frederiksberg C",
"PostCode": "1967",
"Location": {
"Latitude": 55.6843,
"Longitude": 12.5499
}
},
{
"Name": "Frederiksberg C",
"PostCode": "1970",
"Location": {
"Latitude": 55.6826,
"Longitude": 12.5499
}
},
{
"Name": "Frederiksberg C",
"PostCode": "1971",
"Location": {
"Latitude": 55.6841,
"Longitude": 12.5521
}
},
{
"Name": "Frederiksberg C",
"PostCode": "1972",
"Location": {
"Latitude": 55.6836,
"Longitude": 12.5526
}
},
{
"Name": "Frederiksberg C",
"PostCode": "1973",
"Location": {
"Latitude": 55.6835,
"Longitude": 12.5538
}
},
{
"Name": "Frederiksberg C",
"PostCode": "1974",
"Location": {
"Latitude": 55.6828,
"Longitude": 12.5543
}
}
]
}
]
},
{
"Name": "Ballerup Kommune",
"Code": "151",
"Communities": [
{
"Places": [
{
"Name": "Ballerup",
"PostCode": "2750",
"Location": {
"Latitude": 55.7333,
"Longitude": 12.3566
}
},
{
"Name": "Måløv",
"PostCode": "2760",
"Location": {
"Latitude": 55.7513,
"Longitude": 12.3197
}
},
{
"Name": "Skovlunde",
"PostCode": "2740",
"Location": {
"Latitude": 55.7154,
"Longitude": 12.3989
}
}
]
}
]
},
{
"Name": "Brøndby Kommune",
"Code": "153",
"Communities": [
{
"Places": [
{
"Name": "Brøndby",
"PostCode": "2605",
"Location": {
"Latitude": 55.6527,
"Longitude": 12.4132
}
},
{
"Name": "Brøndby Strand",
"PostCode": "2660",
"Location": {
"Latitude": 55.6227,
"Longitude": 12.417
}
}
]
}
]
},
{
"Name": "Dragør Kommune",
"Code": "155",
"PostCode": "2791",
"Communities": [
{
"Places": [
{
"Name": "Dragør",
"PostCode": "2791",
"Location": {
"Latitude": 55.5882,
"Longitude": 12.6482
}
}
],
"PostCode": "2791"
}
]
},
{
"Name": "Gentofte Kommune",
"Code": "157",
"Communities": [
{
"Places": [
{
"Name": "Charlottenlund",
"PostCode": "2920",
"Location": {
"Latitude": 55.7582,
"Longitude": 12.573
}
},
{
"Name": "Dyssegård",
"PostCode": "2870",
"Location": {
"Latitude": 55.7328,
"Longitude": 12.5268
}
},
{
"Name": "Gentofte",
"PostCode": "2820",
"Location": {
"Latitude": 55.751,
"Longitude": 12.5302
}
},
{
"Name": "Hellerup",
"PostCode": "2900",
"Location": {
"Latitude": 55.7344,
"Longitude": 12.5601
}
},
{
"Name": "Klampenborg",
"PostCode": "2930",
"Location": {
"Latitude": 55.7701,
"Longitude": 12.5886
}
}
]
}
]
},
{
"Name": "Gladsaxe Municipality",
"Code": "159",
"Communities": [
{
"Places": [
{
"Name": "Bagsværd",
"PostCode": "2880",
"Location": {
"Latitude": 55.7571,
"Longitude": 12.4558
}
},
{
"Name": "Søborg",
"PostCode": "2860",
"Location": {
"Latitude": 55.7361,
"Longitude": 12.483
}
}
]
}
]
},
{
"Name": "Glostrup Kommune",
"Code": "161",
"PostCode": "2600",
"Communities": [
{
"Places": [
{
"Name": "Glostrup",
"PostCode": "2600",
"Location": {
"Latitude": 55.6813,
"Longitude": 12.4039
}
}
],
"PostCode": "2600"
}
]
},
{
"Name": "Herlev Kommune",
"Code": "163",
"PostCode": "2730",
"Communities": [
{
"Places": [
{
"Name": "Herlev",
"PostCode": "2730",
"Location": {
"Latitude": 55.7338,
"Longitude": 12.4278
}
}
],
"PostCode": "2730"
}
]
},
{
"Name": "Albertslund Kommune",
"Code": "165",
"PostCode": "2620",
"Communities": [
{
"Places": [
{
"Name": "Albertslund",
"PostCode": "2620",
"Location": {
"Latitude": 55.6671,
"Longitude": 12.349
}
}
],
"PostCode": "2620"
}
]
},
{
"Name": "Hvidovre Kommune",
"Code": "167",
"PostCode": "2650",
"Communities": [
{
"Places": [
{
"Name": "Hvidovre",
"PostCode": "2650",
"Location": {
"Latitude": 55.6367,
"Longitude": 12.4717
}
}
],
"PostCode": "2650"
}
]
},
{
"Name": "Høje-Taastrup Kommune",
"Code": "169",
"Communities": [
{
"Places": [
{
"Name": "Hedehusene",
"PostCode": "2640",
"Location": {
"Latitude": 55.6508,
"Longitude": 12.1977
}
},
{
"Name": "Taastrup",
"PostCode": "2630",
"Location": {
"Latitude": 55.65,
"Longitude": 12.2904
}
}
]
}
]
},
{
"Name": "Lyngby-Tårbæk Kommune",
"Code": "173",
"Communities": [
{
"Places": [
{
"Name": "Kongens Lyngby",
"PostCode": "2800",
"Location": {
"Latitude": 55.7801,
"Longitude": 12.5122
}
},
{
"Name": "Virum",
"PostCode": "2830",
"Location": {
"Latitude": 55.7912,
"Longitude": 12.4705
}
}
]
}
]
},
{
"Name": "Rødovre Kommune",
"Code": "175",
"PostCode": "2610",
"Communities": [
{
"Places": [
{
"Name": "Rødovre",
"PostCode": "2610",
"Location": {
"Latitude": 55.6889,
"Longitude": 12.451
}
}
],
"PostCode": "2610"
}
]
},
{
"Name": "Ishøj Kommune",
"Code": "183",
"PostCode": "2635",
"Communities": [
{
"Places": [
{
"Name": "Ishøj",
"PostCode": "2635",
"Location": {
"Latitude": 55.6154,
"Longitude": 12.3395
}
}
],
"PostCode": "2635"
}
]
},
{
"Name": "Tårnby Kommune",
"Code": "185",
"PostCode": "2770",
"Communities": [
{
"Places": [
{
"Name": "Kastrup",
"PostCode": "2770",
"Location": {
"Latitude": 55.6227,
"Longitude": 12.6094
}
}
],
"PostCode": "2770"
}
]
},
{
"Name": "Vallensbæk Kommune",
"Code": "187",
"Communities": [
{
"Places": [
{
"Name": "Vallensbæk",
"PostCode": "2625",
"Location": {
"Latitude": 55.6477,
"Longitude": 12.3623
}
},
{
"Name": "Vallensbæk Strand",
"PostCode": "2665",
"Location": {
"Latitude": 55.6218,
"Longitude": 12.3864
}
}
]
}
]
},
{
"Name": "Furesø Kommune",
"Code": "190",
"Communities": [
{
"Places": [
{
"Name": "Farum",
"PostCode": "3520",
"Location": {
"Latitude": 55.8171,
"Longitude": 12.3713
}
},
{
"Name": "Værløse",
"PostCode": "3500",
"Location": {
"Latitude": 55.7763,
"Longitude": 12.364
}
}
]
}
]
},
{
"Name": "Allerød Kommune",
"Code": "201",
"Communities": [
{
"Places": [
{
"Name": "Allerød",
"PostCode": "3450",
"Location": {
"Latitude": 55.8692,
"Longitude": 12.3484
}
},
{
"Name": "Lynge",
"PostCode": "3540",
"Location": {
"Latitude": 55.8379,
"Longitude": 12.2804
}
}
]
}
]
},
{
"Name": "Fredensborg Kommune",
"Code": "210",
"Communities": [
{
"Places": [
{
"Name": "Fredensborg",
"PostCode": "3480",
"Location": {
"Latitude": 55.9727,
"Longitude": 12.4105
}
},
{
"Name": "Humlebæk",
"PostCode": "3050",
"Location": {
"Latitude": 55.9604,
"Longitude": 12.5221
}
},
{
"Name": "Kokkedal",
"PostCode": "2980",
"Location": {
"Latitude": 55.9115,
"Longitude": 12.4889
}
},
{
"Name": "Nivå",
"PostCode": "2990",
"Location": {
"Latitude": 55.9374,
"Longitude": 12.5002
}
}
]
}
]
},
{
"Name": "Helsingør Kommune",
"Code": "217",
"Communities": [
{
"Places": [
{
"Name": "Ålsgårde",
"PostCode": "3140",
"Location": {
"Latitude": 56.0774,
"Longitude": 12.5283
}
},
{
"Name": "Espergærde",
"PostCode": "3060",
"Location": {
"Latitude": 55.9917,
"Longitude": 12.5419
}
},
{
"Name": "Hellebæk",
"PostCode": "3150",
"Location": {
"Latitude": 56.0668,
"Longitude": 12.5577
}
},
{
"Name": "Helsingør",
"PostCode": "3000",
"Location": {
"Latitude": 56.0337,
"Longitude": 12.5881
}
},
{
"Name": "Hornbæk",
"PostCode": "3100",
"Location": {
"Latitude": 56.084,
"Longitude": 12.4523
}
},
{
"Name": "Kvistgård",
"PostCode": "3490",
"Location": {
"Latitude": 55.9961,
"Longitude": 12.501
}
},
{
"Name": "Snekkersten",
"PostCode": "3070",
"Location": {
"Latitude": 56.0119,
"Longitude": 12.5766
}
},
{
"Name": "Tikøb",
"PostCode": "3080",
"Location": {
"Latitude": 56.029,
"Longitude": 12.4465
}
}
]
}
]
},
{
"Name": "Hillerød Kommune",
"Code": "219",
"Communities": [
{
"Places": [
{
"Name": "Gørløse",
"PostCode": "3330",
"Location": {
"Latitude": 55.8839,
"Longitude": 12.1997
}
},
{
"Name": "Hillerød",
"PostCode": "3400",
"Location": {
"Latitude": 55.9359,
"Longitude": 12.2918
}
},
{
"Name": "Skævinge",
"PostCode": "3320",
"Location": {
"Latitude": 55.9179,
"Longitude": 12.1528
}
}
]
}
]
},
{
"Name": "Hørsholm Kommune",
"Code": "223",
"Communities": [
{
"Places": [
{
"Name": "Hørsholm",
"PostCode": "2970",
"Location": {
"Latitude": 55.8892,
"Longitude": 12.4963
}
},
{
"Name": "Rungsted Kyst",
"PostCode": "2960",
"Location": {
"Latitude": 55.8868,
"Longitude": 12.5306
}
}
]
}
]
},
{
"Name": "Rudersdal Kommune",
"Code": "230",
"Communities": [
{
"Places": [
{
"Name": "Birkerød",
"PostCode": "3460",
"Location": {
"Latitude": 55.8423,
"Longitude": 12.4296
}
},
{
"Name": "Holte",
"PostCode": "2840",
"Location": {
"Latitude": 55.8192,
"Longitude": 12.4855
}
},
{
"Name": "Nærum",
"PostCode": "2850",
"Location": {
"Latitude": 55.8182,
"Longitude": 12.533
}
},
{
"Name": "Skodsborg",
"PostCode": "2942",
"Location": {
"Latitude": 55.8275,
"Longitude": 12.5719
}
},
{
"Name": "Vedbæk",
"PostCode": "2950",
"Location": {
"Latitude": 55.8461,
"Longitude": 12.5454
}
}
]
}
]
},
{
"Name": "Egedal Kommune",
"Code": "240",
"Communities": [
{
"Places": [
{
"Name": "Ølstykke",
"PostCode": "3650",
"Location": {
"Latitude": 55.7836,
"Longitude": 12.1609
}
},
{
"Name": "Smørum",
"PostCode": "2765",
"Location": {
"Latitude": 55.7361,
"Longitude": 12.2977
}
},
{
"Name": "Stenløse",
"PostCode": "3660",
"Location": {
"Latitude": 55.7772,
"Longitude": 12.2177
}
},
{
"Name": "Veksø Sjælland",
"PostCode": "3670",
"Location": {
"Latitude": 55.7576,
"Longitude": 12.2386
}
}
]
}
]
},
{
"Name": "Frederikssund Kommune",
"Code": "250",
"Communities": [
{
"Places": [
{
"Name": "Frederikssund",
"PostCode": "3600",
"Location": {
"Latitude": 55.8383,
"Longitude": 12.0732
}
},
{
"Name": "Jægerspris",
"PostCode": "3630",
"Location": {
"Latitude": 55.8631,
"Longitude": 11.96
}
},
{
"Name": "Skibby",
"PostCode": "4050",
"Location": {
"Latitude": 55.7585,
"Longitude": 11.9552
}
},
{
"Name": "Slangerup",
"PostCode": "3550",
"Location": {
"Latitude": 55.8462,
"Longitude": 12.1744
}
}
]
}
]
},
{
"Name": "Halsnæs Kommune",
"Code": "260",
"Communities": [
{
"Places": [
{
"Name": "Frederiksværk",
"PostCode": "3300",
"Location": {
"Latitude": 55.9787,
"Longitude": 12.0242
}
},
{
"Name": "Hundested",
"PostCode": "3390",
"Location": {
"Latitude": 55.9662,
"Longitude": 11.8782
}
},
{
"Name": "Liseleje",
"PostCode": "3360",
"Location": {
"Latitude": 56.0078,
"Longitude": 11.9679
}
},
{
"Name": "Melby",
"PostCode": "3370",
"Location": {
"Latitude": 55.992,
"Longitude": 11.9718
}
},
{
"Name": "Ølsted",
"PostCode": "3310",
"Location": {
"Latitude": 55.9124,
"Longitude": 12.0604
}
}
]
}
]
},
{
"Name": "Gribskov Kommune",
"Code": "270",
"Communities": [
{
"Places": [
{
"Name": "Dronningmølle",
"PostCode": "3120",
"Location": {
"Latitude": 56.0969,
"Longitude": 12.3818
}
},
{
"Name": "Gilleleje",
"PostCode": "3250",
"Location": {
"Latitude": 56.116,
"Longitude": 12.2866
}
},
{
"Name": "Græsted",
"PostCode": "3230",
"Location": {
"Latitude": 56.0765,
"Longitude": 12.2586
}
},
{
"Name": "Helsinge",
"PostCode": "3200",
"Location": {
"Latitude": 56.016,
"Longitude": 12.1849
}
},
{
"Name": "Tisvildeleje",
"PostCode": "3220",
"Location": {
"Latitude": 56.0579,
"Longitude": 12.0915
}
},
{
"Name": "Vejby",
"PostCode": "3210",
"Location": {
"Latitude": 56.0804,
"Longitude": 12.1437
}
}
]
}
]
},
{
"Name": "Bornholm Kommune",
"Code": "400",
"Communities": [
{
"Places": [
{
"Name": "Aakirkeby",
"PostCode": "3720",
"Location": {
"Latitude": 55.053,
"Longitude": 14.9259
}
},
{
"Name": "Allinge",
"PostCode": "3770",
"Location": {
"Latitude": 55.2654,
"Longitude": 14.805
}
},
{
"Name": "Gudhjem",
"PostCode": "3760",
"Location": {
"Latitude": 55.1964,
"Longitude": 14.9504
}
},
{
"Name": "Hasle",
"PostCode": "3790",
"Location": {
"Latitude": 55.1928,
"Longitude": 14.7193
}
},
{
"Name": "Klemensker",
"PostCode": "3782",
"Location": {
"Latitude": 55.18,
"Longitude": 14.8112
}
},
{
"Name": "Nexø",
"PostCode": "3730",
"Location": {
"Latitude": 55.0428,
"Longitude": 15.1073
}
},
{
"Name": "Østermarie",
"PostCode": "3751",
"Location": {
"Latitude": 55.1385,
"Longitude": 15.0191
}
},
{
"Name": "Rønne",
"PostCode": "3700",
"Location": {
"Latitude": 55.1065,
"Longitude": 14.7247
}
},
{
"Name": "Svaneke",
"PostCode": "3740",
"Location": {
"Latitude": 55.1313,
"Longitude": 15.1295
}
}
]
}
]
}
]
},
{
"Name": "Central Jutland",
"Code": "18",
"Provinces": [
{
"Name": "Horsens Kommune",
"Code": "615",
"Communities": [
{
"Places": [
{
"Name": "Brædstrup",
"PostCode": "8740",
"Location": {
"Latitude": 55.9727,
"Longitude": 9.6192
}
},
{
"Name": "Endelave",
"PostCode": "8789",
"Location": {
"Latitude": 55.755,
"Longitude": 10.284
}
},
{
"Name": "Gedved",
"PostCode": "8751",
"Location": {
"Latitude": 55.9319,
"Longitude": 9.8467
}
},
{
"Name": "Horsens",
"PostCode": "8700",
"Location": {
"Latitude": 55.8623,
"Longitude": 9.8468
}
},
{
"Name": "Hovedgård",
"PostCode": "8732",
"Location": {
"Latitude": 55.9484,
"Longitude": 9.9577
}
},
{
"Name": "Østbirk",
"PostCode": "8752",
"Location": {
"Latitude": 55.9699,
"Longitude": 9.7518
}
}
]
}
]
},
{
"Name": "Herning Kommune",
"Code": "657",
"Communities": [
{
"Places": [
{
"Name": "Aulum",
"PostCode": "7490",
"Location": {
"Latitude": 56.2731,
"Longitude": 8.8037
}
},
{
"Name": "Haderup",
"PostCode": "7540",
"Location": {
"Latitude": 56.3566,
"Longitude": 8.9744
}
},
{
"Name": "Herning",
"PostCode": "7400",
"Location": {
"Latitude": 56.1331,
"Longitude": 8.9736
}
},
{
"Name": "Kibæk",
"PostCode": "6933",
"Location": {
"Latitude": 56.0102,
"Longitude": 8.8682
}
},
{
"Name": "Ørnhøj",
"PostCode": "6973",
"Location": {
"Latitude": 56.1973,
"Longitude": 8.5671
}
},
{
"Name": "Sønder Felding",
"PostCode": "7280",
"Location": {
"Latitude": 55.9411,
"Longitude": 8.7837
}
},
{
"Name": "Sørvad",
"PostCode": "7550",
"Location": {
"Latitude": 56.2605,
"Longitude": 8.6559
}
},
{
"Name": "Stakroge",
"PostCode": "7270",
"Location": {
"Latitude": 55.8965,
"Longitude": 8.847
}
},
{
"Name": "Sunds",
"PostCode": "7451",
"Location": {
"Latitude": 56.2173,
"Longitude": 9.0229
}
},
{
"Name": "Vildbjerg",
"PostCode": "7480",
"Location": {
"Latitude": 56.1877,
"Longitude": 8.7674
}
}
]
}
]
},
{
"Name": "Holstebro Kommune",
"Code": "661",
"Communities": [
{
"Places": [
{
"Name": "Holstebro",
"PostCode": "7500",
"Location": {
"Latitude": 56.363,
"Longitude": 8.6301
}
},
{
"Name": "Ulfborg",
"PostCode": "6990",
"Location": {
"Latitude": 56.2967,
"Longitude": 8.2163
}
},
{
"Name": "Vemb",
"PostCode": "7570",
"Location": {
"Latitude": 56.3474,
"Longitude": 8.3622
}
},
{
"Name": "Vinderup",
"PostCode": "7830",
"Location": {
"Latitude": 56.4743,
"Longitude": 8.7959
}
}
]
}
]
},
{
"Name": "Lemvig Kommune",
"Code": "665",
"Communities": [
{
"Places": [
{
"Name": "Bækmarksbro",
"PostCode": "7660",
"Location": {
"Latitude": 56.4146,
"Longitude": 8.3202
}
},
{
"Name": "Bøvlingbjerg",
"PostCode": "7650",
"Location": {
"Latitude": 56.4376,
"Longitude": 8.2097
}
},
{
"Name": "Harboøre",
"PostCode": "7673",
"Location": {
"Latitude": 56.6012,
"Longitude": 8.1592
}
},
{
"Name": "Lemvig",
"PostCode": "7620",
"Location": {
"Latitude": 56.541,
"Longitude": 8.292
}
},
{
"Name": "Thyborøn",
"PostCode": "7680",
"Location": {
"Latitude": 56.6984,
"Longitude": 8.2122
}
}
]
}
]
},
{
"Name": "Struer Kommune",
"Code": "671",
"Communities": [
{
"Places": [
{
"Name": "Hjerm",
"PostCode": "7560",
"Location": {
"Latitude": 56.4395,
"Longitude": 8.6457
}
},
{
"Name": "Struer",
"PostCode": "7600",
"Location": {
"Latitude": 56.4925,
"Longitude": 8.5722
}
},
{
"Name": "Thyholm",
"PostCode": "7790",
"Location": {
"Latitude": 56.6368,
"Longitude": 8.5454
}
}
]
}
]
},
{
"Name": "Syddjurs Kommune",
"Code": "706",
"Communities": [
{
"Places": [
{
"Name": "Balle",
"PostCode": "8444",
"Location": {
"Latitude": 56.3145,
"Longitude": 10.7922
}
},
{
"Name": "Ebeltoft",
"PostCode": "8400",
"Location": {
"Latitude": 56.2173,
"Longitude": 10.6747
}
},
{
"Name": "Hornslet",
"PostCode": "8543",
"Location": {
"Latitude": 56.3161,
"Longitude": 10.3114
}
},
{
"Name": "Knebel",
"PostCode": "8420",
"Location": {
"Latitude": 56.1792,
"Longitude": 10.4728
}
},
{
"Name": "Kolind",
"PostCode": "8560",
"Location": {
"Latitude": 56.3532,
"Longitude": 10.5908
}
},
{
"Name": "Mørke",
"PostCode": "8544",
"Location": {
"Latitude": 56.3521,
"Longitude": 10.3423
}
},
{
"Name": "Nimtofte",
"PostCode": "8581",
"Location": {
"Latitude": 56.4133,
"Longitude": 10.5803
}
},
{
"Name": "Rønde",
"PostCode": "8410",
"Location": {
"Latitude": 56.3108,
"Longitude": 10.4664
}
},
{
"Name": "Ryomgård",
"PostCode": "8550",
"Location": {
"Latitude": 56.3849,
"Longitude": 10.4826
}
}
]
}
]
},
{
"Name": "Norddjurs Kommune",
"Code": "707",
"Communities": [
{
"Places": [
{
"Name": "Allingåbro",
"PostCode": "8961",
"Location": {
"Latitude": 56.4807,
"Longitude": 10.4173
}
},
{
"Name": "Anholt",
"PostCode": "8592",
"Location": {
"Latitude": 56.7066,
"Longitude": 11.5396
}
},
{
"Name": "Auning",
"PostCode": "8963",
"Location": {
"Latitude": 56.4306,
"Longitude": 10.3752
}
},
{
"Name": "Glesborg",
"PostCode": "8585",
"Location": {
"Latitude": 56.5089,
"Longitude": 10.6657
}
},
{
"Name": "Grenaa",
"PostCode": "8500",
"Location": {
"Latitude": 56.4213,
"Longitude": 10.8743
}
},
{
"Name": "Ørsted",
"PostCode": "8950",
"Location": {
"Latitude": 56.5294,
"Longitude": 10.3334
}
},
{
"Name": "Ørum Djurs",
"PostCode": "8586",
"Location": {
"Latitude": 56.445,
"Longitude": 10.6601
}
},
{
"Name": "Trustrup",
"PostCode": "8570",
"Location": {
"Latitude": 56.3567,
"Longitude": 10.7585
}
}
]
}
]
},
{
"Name": "Favrskov Kommune",
"Code": "710",
"Communities": [
{
"Places": [
{
"Name": "Hadsten",
"PostCode": "8370",
"Location": {
"Latitude": 56.3324,
"Longitude": 10.0663
}
},
{
"Name": "Hammel",
"PostCode": "8450",
"Location": {
"Latitude": 56.2572,
"Longitude": 9.8651
}
},
{
"Name": "Hinnerup",
"PostCode": "8382",
"Location": {
"Latitude": 56.2595,
"Longitude": 10.0657
}
},
{
"Name": "Sporup",
"PostCode": "8472",
"Location": {
"Latitude": 56.2128,
"Longitude": 9.8331
}
},
{
"Name": "Thorsø",
"PostCode": "8881",
"Location": {
"Latitude": 56.3045,
"Longitude": 9.7856
}
},
{
"Name": "Ulstrup",
"PostCode": "8860",
"Location": {
"Latitude": 56.3874,
"Longitude": 9.7928
}
}
]
}
]
},
{
"Name": "Odder Kommune",
"Code": "727",
"Communities": [
{
"Places": [
{
"Name": "Hundslund",
"PostCode": "8350",
"Location": {
"Latitude": 55.913,
"Longitude": 10.0565
}
},
{
"Name": "Odder",
"PostCode": "8300",
"Location": {
"Latitude": 55.9626,
"Longitude": 10.1795
}
},
{
"Name": "Tunø",
"PostCode": "8799",
"Location": {
"Latitude": 55.9512,
"Longitude": 10.4371
}
}
]
}
]
},
{
"Name": "Randers Kommune",
"Code": "730",
"Communities": [
{
"Places": [
{
"Name": "Fårup",
"PostCode": "8990",
"Location": {
"Latitude": 56.5456,
"Longitude": 9.879
}
},
{
"Name": "Gjerlev J",
"PostCode": "8983",
"Location": {
"Latitude": 56.5835,
"Longitude": 10.1393
}
},
{
"Name": "Havndal",
"PostCode": "8970",
"Location": {
"Latitude": 56.6359,
"Longitude": 10.2281
}
},
{
"Name": "Langå",
"PostCode": "8870",
"Location": {
"Latitude": 56.4097,
"Longitude": 9.9173
}
},
{
"Name": "Randers C",
"PostCode": "8900",
"Location": {
"Latitude": 56.464,
"Longitude": 10.0341
}
},
{
"Name": "Randers NØ",
"PostCode": "8930",
"Location": {
"Latitude": 56.4835,
"Longitude": 10.0844
}
},
{
"Name": "Randers NV",
"PostCode": "8920",
"Location": {
"Latitude": 56.4764,
"Longitude": 9.9773
}
},
{
"Name": "Randers SØ",
"PostCode": "8960",
"Location": {
"Latitude": 56.4422,
"Longitude": 10.1127
}
},
{
"Name": "Randers SV",
"PostCode": "8940",
"Location": {
"Latitude": 56.4358,
"Longitude": 10.0334
}
},
{
"Name": "Spentrup",
"PostCode": "8981",
"Location": {
"Latitude": 56.54,
"Longitude": 10.0408
}
}
]
}
]
},
{
"Name": "Silkeborg Kommune",
"Code": "740",
"Communities": [
{
"Places": [
{
"Name": "Ans By",
"PostCode": "8643",
"Location": {
"Latitude": 56.2993,
"Longitude": 9.6023
}
},
{
"Name": "Bryrup",
"PostCode": "8654",
"Location": {
"Latitude": 56.026,
"Longitude": 9.517
}
},
{
"Name": "Fårvang",
"PostCode": "8882",
"Location": {
"Latitude": 56.2703,
"Longitude": 9.7072
}
},
{
"Name": "Gjern",
"PostCode": "8883",
"Location": {
"Latitude": 56.2244,
"Longitude": 9.738
}
},
{
"Name": "Kjellerup",
"PostCode": "8620",
"Location": {
"Latitude": 56.286,
"Longitude": 9.4126
}
},
{
"Name": "Lemming",
"PostCode": "8632",
"Location": {
"Latitude": 56.2401,
"Longitude": 9.5379
}
},
{
"Name": "Silkeborg",
"PostCode": "8600",
"Location": {
"Latitude": 56.1726,
"Longitude": 9.5564
}
},
{
"Name": "Sorring",
"PostCode": "8641",
"Location": {
"Latitude": 56.1772,
"Longitude": 9.7805
}
},
{
"Name": "Them",
"PostCode": "8653",
"Location": {
"Latitude": 56.0898,
"Longitude": 9.5503
}
}
]
}
]
},
{
"Name": "Samsø Kommune",
"Code": "741",
"PostCode": "8305",
"Communities": [
{
"Places": [
{
"Name": "Samsø",
"PostCode": "8305",
"Location": {
"Latitude": 55.8602,
"Longitude": 10.5856
}
}
],
"PostCode": "8305"
}
]
},
{
"Name": "Skanderborg Kommune",
"Code": "746",
"Communities": [
{
"Places": [
{
"Name": "Galten",
"PostCode": "8464",
"Location": {
"Latitude": 56.1563,
"Longitude": 9.9273
}
},
{
"Name": "Hørning",
"PostCode": "8362",
"Location": {
"Latitude": 56.0848,
"Longitude": 10.0333
}
},
{
"Name": "Låsby",
"PostCode": "8670",
"Location": {
"Latitude": 56.1514,
"Longitude": 9.8075
}
},
{
"Name": "Ry",
"PostCode": "8680",
"Location": {
"Latitude": 56.0885,
"Longitude": 9.759
}
},
{
"Name": "Skanderborg",
"PostCode": "8660",
"Location": {
"Latitude": 56.0401,
"Longitude": 9.9302
}
}
]
}
]
},
{
"Name": "Aarhus Kommune",
"Code": "751",
"Communities": [
{
"Places": [
{
"Name": "Aarhus C",
"PostCode": "8000",
"Location": {
"Latitude": 56.1535,
"Longitude": 10.2034
}
},
{
"Name": "Aarhus N",
"PostCode": "8200",
"Location": {
"Latitude": 56.1888,
"Longitude": 10.1901
}
},
{
"Name": "Aarhus V",
"PostCode": "8210",
"Location": {
"Latitude": 56.1712,
"Longitude": 10.1605
}
},
{
"Name": "Åbyhøj",
"PostCode": "8230",
"Location": {
"Latitude": 56.1526,
"Longitude": 10.1602
}
},
{
"Name": "Beder",
"PostCode": "8330",
"Location": {
"Latitude": 56.0578,
"Longitude": 10.2156
}
},
{
"Name": "Brabrand",
"PostCode": "8220",
"Location": {
"Latitude": 56.1578,
"Longitude": 10.1092
}
},
{
"Name": "Egå",
"PostCode": "8250",
"Location": {
"Latitude": 56.2216,
"Longitude": 10.293
}
},
{
"Name": "Harlev J",
"PostCode": "8462",
"Location": {
"Latitude": 56.1449,
"Longitude": 9.9963
}
},
{
"Name": "Hasselager",
"PostCode": "8361",
"Location": {
"Latitude": 56.1077,
"Longitude": 10.0882
}
},
{
"Name": "Hjortshøj",
"PostCode": "8530",
"Location": {
"Latitude": 56.2628,
"Longitude": 10.2499
}
},
{
"Name": "Højbjerg",
"PostCode": "8270",
"Location": {
"Latitude": 56.1119,
"Longitude": 10.1907
}
},
{
"Name": "Lystrup",
"PostCode": "8520",
"Location": {
"Latitude": 56.2374,
"Longitude": 10.2318
}
},
{
"Name": "Malling",
"PostCode": "8340",
"Location": {
"Latitude": 56.036,
"Longitude": 10.2065
}
},
{
"Name": "Mårslet",
"PostCode": "8320",
"Location": {
"Latitude": 56.0698,
"Longitude": 10.1619
}
},
{
"Name": "Risskov",
"PostCode": "8240",
"Location": {
"Latitude": 56.1976,
"Longitude": 10.2292
}
},
{
"Name": "Sabro",
"PostCode": "8471",
"Location": {
"Latitude": 56.2079,
"Longitude": 10.0395
}
},
{
"Name": "Skødstrup",
"PostCode": "8541",
"Location": {
"Latitude": 56.2658,
"Longitude": 10.3144
}
},
{
"Name": "Solbjerg",
"PostCode": "8355",
"Location": {
"Latitude": 56.0396,
"Longitude": 10.0881
}
},
{
"Name": "Tilst",
"PostCode": "8381",
"Location": {
"Latitude": 56.1859,
"Longitude": 10.1089
}
},
{
"Name": "Tranbjerg J",
"PostCode": "8310",
"Location": {
"Latitude": 56.0904,
"Longitude": 10.1318
}
},
{
"Name": "Trige",
"PostCode": "8380",
"Location": {
"Latitude": 56.2648,
"Longitude": 10.1466
}
},
{
"Name": "Viby J",
"PostCode": "8260",
"Location": {
"Latitude": 56.1284,
"Longitude": 10.1421
}
}
]
}
]
},
{
"Name": "Ikast-Brande Kommune",
"Code": "756",
"Communities": [
{
"Places": [
{
"Name": "Bording",
"PostCode": "7441",
"Location": {
"Latitude": 56.1509,
"Longitude": 9.2703
}
},
{
"Name": "Brande",
"PostCode": "7330",
"Location": {
"Latitude": 55.9339,
"Longitude": 9.11
}
},
{
"Name": "Ejstrupholm",
"PostCode": "7361",
"Location": {
"Latitude": 55.9894,
"Longitude": 9.2921
}
},
{
"Name": "Engesvang",
"PostCode": "7442",
"Location": {
"Latitude": 56.1689,
"Longitude": 9.3436
}
},
{
"Name": "Hampen",
"PostCode": "7362",
"Location": {
"Latitude": 56.0173,
"Longitude": 9.3582
}
},
{
"Name": "Ikast",
"PostCode": "7430",
"Location": {
"Latitude": 56.1334,
"Longitude": 9.1573
}
},
{
"Name": "Klovborg",
"PostCode": "8765",
"Location": {
"Latitude": 55.9306,
"Longitude": 9.4903
}
},
{
"Name": "Nørre Snede",
"PostCode": "8766",
"Location": {
"Latitude": 55.9653,
"Longitude": 9.3974
}
}
]
}
]
},
{
"Name": "Ringkøbing-Skjern Kommune",
"Code": "760",
"Communities": [
{
"Places": [
{
"Name": "Hemmet",
"PostCode": "6893",
"Location": {
"Latitude": 55.8418,
"Longitude": 8.3124
}
},
{
"Name": "Hvide Sande",
"PostCode": "6960",
"Location": {
"Latitude": 55.9573,
"Longitude": 8.1433
}
},
{
"Name": "Lem St",
"PostCode": "6940",
"Location": {
"Latitude": 56.0361,
"Longitude": 8.3917
}
},
{
"Name": "Ringkøbing",
"PostCode": "6950",
"Location": {
"Latitude": 56.1039,
"Longitude": 8.2118
}
},
{
"Name": "Skjern",
"PostCode": "6900",
"Location": {
"Latitude": 55.9668,
"Longitude": 8.4999
}
},
{
"Name": "Spjald",
"PostCode": "6971",
"Location": {
"Latitude": 56.137,
"Longitude": 8.5018
}
},
{
"Name": "Tarm",
"PostCode": "6880",
"Location": {
"Latitude": 55.8883,
"Longitude": 8.5146
}
},
{
"Name": "Tim",
"PostCode": "6980",
"Location": {
"Latitude": 56.1977,
"Longitude": 8.2896
}
},
{
"Name": "Videbæk",
"PostCode": "6920",
"Location": {
"Latitude": 56.0762,
"Longitude": 8.6563
}
}
]
}
]
},
{
"Name": "Hedensted Kommune",
"Code": "766",
"Communities": [
{
"Places": [
{
"Name": "Barrit",
"PostCode": "7150",
"Location": {
"Latitude": 55.7131,
"Longitude": 9.8894
}
},
{
"Name": "Daugård",
"PostCode": "8721",
"Location": {
"Latitude": 55.7314,
"Longitude": 9.7117
}
},
{
"Name": "Flemming",
"PostCode": "8762",
"Location": {
"Latitude": 55.8706,
"Longitude": 9.6629
}
},
{
"Name": "Hedensted",
"PostCode": "8722",
"Location": {
"Latitude": 55.7692,
"Longitude": 9.7022
}
},
{
"Name": "Hornsyld",
"PostCode": "8783",
"Location": {
"Latitude": 55.7627,
"Longitude": 9.8514
}
},
{
"Name": "Juelsminde",
"PostCode": "7130",
"Location": {
"Latitude": 55.7519,
"Longitude": 9.9985
}
},
{
"Name": "Løsning",
"PostCode": "8723",
"Location": {
"Latitude": 55.8028,
"Longitude": 9.6973
}
},
{
"Name": "Rask Mølle",
"PostCode": "8763",
"Location": {
"Latitude": 55.875,
"Longitude": 9.6114
}
},
{
"Name": "Stenderup",
"PostCode": "8781",
"Location": {
"Latitude": 55.7903,
"Longitude": 9.8068
}
},
{
"Name": "Stouby",
"PostCode": "7140",
"Location": {
"Latitude": 55.7077,
"Longitude": 9.798
}
},
{
"Name": "Tørring",
"PostCode": "7160",
"Location": {
"Latitude": 55.8592,
"Longitude": 9.504
}
},
{
"Name": "Uldum",
"PostCode": "7171",
"Location": {
"Latitude": 55.8443,
"Longitude": 9.591
}
}
]
}
]
},
{
"Name": "Skive Kommune",
"Code": "779",
"Communities": [
{
"Places": [
{
"Name": "Fur",
"PostCode": "7884",
"Location": {
"Latitude": 56.822,
"Longitude": 9.0224
}
},
{
"Name": "Højslev",
"PostCode": "7840",
"Location": {
"Latitude": 56.5815,
"Longitude": 9.1723
}
},
{
"Name": "Roslev",
"PostCode": "7870",
"Location": {
"Latitude": 56.7234,
"Longitude": 8.9892
}
},
{
"Name": "Skive",
"PostCode": "7800",
"Location": {
"Latitude": 56.5678,
"Longitude": 9.0226
}
},
{
"Name": "Spøttrup",
"PostCode": "7860",
"Location": {
"Latitude": 56.615,
"Longitude": 8.8218
}
}
]
}
]
},
{
"Name": "Viborg Kommune",
"Code": "791",
"Communities": [
{
"Places": [
{
"Name": "Bjerringbro",
"PostCode": "8850",
"Location": {
"Latitude": 56.379,
"Longitude": 9.6515
}
},
{
"Name": "Karup J",
"PostCode": "7470",
"Location": {
"Latitude": 56.3262,
"Longitude": 9.2049
}
},
{
"Name": "Løgstrup",
"PostCode": "8831",
"Location": {
"Latitude": 56.519,
"Longitude": 9.3224
}
},
{
"Name": "Møldrup",
"PostCode": "9632",
"Location": {
"Latitude": 56.6077,
"Longitude": 9.5031
}
},
{
"Name": "Rødkærsbro",
"PostCode": "8840",
"Location": {
"Latitude": 56.3503,
"Longitude": 9.5115
}
},
{
"Name": "Skals",
"PostCode": "8832",
"Location": {
"Latitude": 56.5807,
"Longitude": 9.3716
}
},
{
"Name": "Stoholm Jyll",
"PostCode": "7850",
"Location": {
"Latitude": 56.484,
"Longitude": 9.1354
}
},
{
"Name": "Tjele",
"PostCode": "8830",
"Location": {
"Latitude": 56.502,
"Longitude": 9.6119
}
},
{
"Name": "Viborg",
"PostCode": "8800",
"Location": {
"Latitude": 56.4451,
"Longitude": 9.3909
}
}
]
}
]
}
]
},
{
"Name": "North Denmark",
"Code": "19",
"Provinces": [
{
"Name": "Morsø Kommune",
"Code": "773",
"Communities": [
{
"Places": [
{
"Name": "Erslev",
"PostCode": "7950",
"Location": {
"Latitude": 56.8472,
"Longitude": 8.7063
}
},
{
"Name": "Karby",
"PostCode": "7960",
"Location": {
"Latitude": 56.7533,
"Longitude": 8.5789
}
},
{
"Name": "Nykøbing M",
"PostCode": "7900",
"Location": {
"Latitude": 56.8107,
"Longitude": 8.8325
}
},
{
"Name": "Øster Assels",
"PostCode": "7990",
"Location": {
"Latitude": 56.7025,
"Longitude": 8.7222
}
},
{
"Name": "Redsted M",
"PostCode": "7970",
"Location": {
"Latitude": 56.741,
"Longitude": 8.6453
}
},
{
"Name": "Vils",
"PostCode": "7980",
"Location": {
"Latitude": 56.7585,
"Longitude": 8.7271
}
}
]
}
]
},
{
"Name": "Thisted Kommune",
"Code": "787",
"Communities": [
{
"Places": [
{
"Name": "Bedsted Thy",
"PostCode": "7755",
"Location": {
"Latitude": 56.821,
"Longitude": 8.4021
}
},
{
"Name": "Frøstrup",
"PostCode": "7741",
"Location": {
"Latitude": 57.1063,
"Longitude": 8.9832
}
},
{
"Name": "Hanstholm",
"PostCode": "7730",
"Location": {
"Latitude": 57.107,
"Longitude": 8.6391
}
},
{
"Name": "Hurup Thy",
"PostCode": "7760",
"Location": {
"Latitude": 56.7306,
"Longitude": 8.4147
}
},
{
"Name": "Snedsted",
"PostCode": "7752",
"Location": {
"Latitude": 56.8782,
"Longitude": 8.5045
}
},
{
"Name": "Thisted",
"PostCode": "7700",
"Location": {
"Latitude": 56.9726,
"Longitude": 8.6263
}
},
{
"Name": "Vesløs",
"PostCode": "7742",
"Location": {
"Latitude": 57.022,
"Longitude": 8.9721
}
},
{
"Name": "Vestervig",
"PostCode": "7770",
"Location": {
"Latitude": 56.7726,
"Longitude": 8.2802
}
}
]
}
]
},
{
"Name": "Brønderslev Kommune",
"Code": "810",
"Communities": [
{
"Places": [
{
"Name": "Asaa",
"PostCode": "9340",
"Location": {
"Latitude": 57.1367,
"Longitude": 10.3919
}
},
{
"Name": "Brønderslev",
"PostCode": "9700",
"Location": {
"Latitude": 57.273,
"Longitude": 9.9482
}
},
{
"Name": "Dronninglund",
"PostCode": "9330",
"Location": {
"Latitude": 57.1791,
"Longitude": 10.2976
}
},
{
"Name": "Hjallerup",
"PostCode": "9320",
"Location": {
"Latitude": 57.1772,
"Longitude": 10.1484
}
},
{
"Name": "Jerslev J",
"PostCode": "9740",
"Location": {
"Latitude": 57.2896,
"Longitude": 10.1101
}
}
]
}
]
},
{
"Name": "Frederikshavn Kommune",
"Code": "813",
"Communities": [
{
"Places": [
{
"Name": "Ålbæk",
"PostCode": "9982",
"Location": {
"Latitude": 57.5996,
"Longitude": 10.4044
}
},
{
"Name": "Dybvad",
"PostCode": "9352",
"Location": {
"Latitude": 57.2803,
"Longitude": 10.3281
}
},
{
"Name": "Frederikshavn",
"PostCode": "9900",
"Location": {
"Latitude": 57.4404,
"Longitude": 10.5041
}
},
{
"Name": "Jerup",
"PostCode": "9981",
"Location": {
"Latitude": 57.5261,
"Longitude": 10.4362
}
},
{
"Name": "Østervrå",
"PostCode": "9750",
"Location": {
"Latitude": 57.3401,
"Longitude": 10.2594
}
},
{
"Name": "Sæby",
"PostCode": "9300",
"Location": {
"Latitude": 57.3102,
"Longitude": 10.5013
}
},
{
"Name": "Skagen",
"PostCode": "9990",
"Location": {
"Latitude": 57.7208,
"Longitude": 10.5621
}
},
{
"Name": "Strandby",
"PostCode": "9970",
"Location": {
"Latitude": 57.4956,
"Longitude": 10.4893
}
}
]
}
]
},
{
"Name": "Vesthimmerland Kommune",
"Code": "820",
"Communities": [
{
"Places": [
{
"Name": "Aalestrup",
"PostCode": "9620",
"Location": {
"Latitude": 56.694,
"Longitude": 9.4909
}
},
{
"Name": "Aars",
"PostCode": "9600",
"Location": {
"Latitude": 56.8062,
"Longitude": 9.4964
}
},
{
"Name": "Farsø",
"PostCode": "9640",
"Location": {
"Latitude": 56.7691,
"Longitude": 9.2872
}
},
{
"Name": "Gedsted",
"PostCode": "9631",
"Location": {
"Latitude": 56.6911,
"Longitude": 9.3438
}
},
{
"Name": "Løgstør",
"PostCode": "9670",
"Location": {
"Latitude": 56.9303,
"Longitude": 9.2656
}
},
{
"Name": "Ranum",
"PostCode": "9681",
"Location": {
"Latitude": 56.8967,
"Longitude": 9.2038
}
}
]
}
]
},
{
"Name": "Læso Kommune",
"Code": "825",
"PostCode": "9940",
"Communities": [
{
"Places": [
{
"Name": "Læsø",
"PostCode": "9940",
"Location": {
"Latitude": 57.288,
"Longitude": 11.0146
}
}
],
"PostCode": "9940"
}
]
},
{
"Name": "Rebild Kommune",
"Code": "840",
"Communities": [
{
"Places": [
{
"Name": "Bælum",
"PostCode": "9574",
"Location": {
"Latitude": 56.8271,
"Longitude": 10.1248
}
},
{
"Name": "Nørager",
"PostCode": "9610",
"Location": {
"Latitude": 56.7454,
"Longitude": 9.6701
}
},
{
"Name": "Skørping",
"PostCode": "9520",
"Location": {
"Latitude": 56.8442,
"Longitude": 9.9058
}
},
{
"Name": "Støvring",
"PostCode": "9530",
"Location": {
"Latitude": 56.8945,
"Longitude": 9.8197
}
},
{
"Name": "Suldrup",
"PostCode": "9541",
"Location": {
"Latitude": 56.8479,
"Longitude": 9.6904
}
},
{
"Name": "Terndrup",
"PostCode": "9575",
"Location": {
"Latitude": 56.8125,
"Longitude": 10.0575
}
}
]
}
]
},
{
"Name": "Mariagerfjord Kommune",
"Code": "846",
"Communities": [
{
"Places": [
{
"Name": "Arden",
"PostCode": "9510",
"Location": {
"Latitude": 56.7647,
"Longitude": 9.892
}
},
{
"Name": "Hadsund",
"PostCode": "9560",
"Location": {
"Latitude": 56.7505,
"Longitude": 10.2076
}
},
{
"Name": "Hobro",
"PostCode": "9500",
"Location": {
"Latitude": 56.6469,
"Longitude": 9.7953
}
},
{
"Name": "Mariager",
"PostCode": "9550",
"Location": {
"Latitude": 56.6527,
"Longitude": 10.008
}
}
]
}
]
},
{
"Name": "Jammerbugt Kommune",
"Code": "849",
"Communities": [
{
"Places": [
{
"Name": "Aabybro",
"PostCode": "9440",
"Location": {
"Latitude": 57.1458,
"Longitude": 9.7416
}
},
{
"Name": "Blokhus",
"PostCode": "9492",
"Location": {
"Latitude": 57.2542,
"Longitude": 9.6048
}
},
{
"Name": "Brovst",
"PostCode": "9460",
"Location": {
"Latitude": 57.1072,
"Longitude": 9.5186
}
},
{
"Name": "Fjerritslev",
"PostCode": "9690",
"Location": {
"Latitude": 57.0961,
"Longitude": 9.2608
}
},
{
"Name": "Pandrup",
"PostCode": "9490",
"Location": {
"Latitude": 57.2111,
"Longitude": 9.6381
}
},
{
"Name": "Saltum",
"PostCode": "9493",
"Location": {
"Latitude": 57.2809,
"Longitude": 9.6602
}
}
]
}
]
},
{
"Name": "Ålborg Kommune",
"Code": "851",
"Communities": [
{
"Places": [
{
"Name": "Aalborg",
"PostCode": "9000",
"Location": {
"Latitude": 57.0394,
"Longitude": 9.9135
}
},
{
"Name": "Aalborg Øst",
"PostCode": "9220",
"Location": {
"Latitude": 57.0291,
"Longitude": 9.9939
}
},
{
"Name": "Aalborg SØ",
"PostCode": "9210",
"Location": {
"Latitude": 57.0108,
"Longitude": 9.9382
}
},
{
"Name": "Aalborg SV",
"PostCode": "9200",
"Location": {
"Latitude": 57.0116,
"Longitude": 9.8702
}
},
{
"Name": "Gandrup",
"PostCode": "9362",
"Location": {
"Latitude": 57.0555,
"Longitude": 10.1854
}
},
{
"Name": "Gistrup",
"PostCode": "9260",
"Location": {
"Latitude": 56.9813,
"Longitude": 9.9943
}
},
{
"Name": "Hals",
"PostCode": "9370",
"Location": {
"Latitude": 57.0316,
"Longitude": 10.3312
}
},
{
"Name": "Klarup",
"PostCode": "9270",
"Location": {
"Latitude": 57.0119,
"Longitude": 10.05
}
},
{
"Name": "Kongerslev",
"PostCode": "9293",
"Location": {
"Latitude": 56.8928,
"Longitude": 10.1153
}
},
{
"Name": "Nibe",
"PostCode": "9240",
"Location": {
"Latitude": 56.9807,
"Longitude": 9.6229
}
},
{
"Name": "Nørresundby",
"PostCode": "9400",
"Location": {
"Latitude": 57.0698,
"Longitude": 9.9249
}
},
{
"Name": "Storvorde",
"PostCode": "9280",
"Location": {
"Latitude": 56.9769,
"Longitude": 10.1718
}
},
{
"Name": "Sulsted",
"PostCode": "9381",
"Location": {
"Latitude": 57.1645,
"Longitude": 9.9601
}
},
{
"Name": "Svenstrup J",
"PostCode": "9230",
"Location": {
"Latitude": 56.9679,
"Longitude": 9.8502
}
},
{
"Name": "Tylstrup",
"PostCode": "9382",
"Location": {
"Latitude": 57.1981,
"Longitude": 9.9408
}
},
{
"Name": "Vadum",
"PostCode": "9430",
"Location": {
"Latitude": 57.1195,
"Longitude": 9.8578
}
},
{
"Name": "Vestbjerg",
"PostCode": "9380",
"Location": {
"Latitude": 57.1318,
"Longitude": 9.9628
}
},
{
"Name": "Vodskov",
"PostCode": "9310",
"Location": {
"Latitude": 57.1002,
"Longitude": 10.0665
}
}
]
}
]
},
{
"Name": "Hjørring Kommune",
"Code": "860",
"Communities": [
{
"Places": [
{
"Name": "Bindslev",
"PostCode": "9881",
"Location": {
"Latitude": 57.5707,
"Longitude": 10.2023
}
},
{
"Name": "Hirtshals",
"PostCode": "9850",
"Location": {
"Latitude": 57.5707,
"Longitude": 9.9667
}
},
{
"Name": "Hjørring",
"PostCode": "9800",
"Location": {
"Latitude": 57.4654,
"Longitude": 9.9685
}
},
{
"Name": "Løkken",
"PostCode": "9480",
"Location": {
"Latitude": 57.3825,
"Longitude": 9.7439
}
},
{
"Name": "Sindal",
"PostCode": "9870",
"Location": {
"Latitude": 57.4677,
"Longitude": 10.236
}
},
{
"Name": "Tårs",
"PostCode": "9830",
"Location": {
"Latitude": 57.3804,
"Longitude": 10.1308
}
},
{
"Name": "Vrå",
"PostCode": "9760",
"Location": {
"Latitude": 57.3581,
"Longitude": 9.9481
}
}
]
}
]
}
]
},
{
"Name": "Zealand",
"Code": "20",
"Provinces": [
{
"Name": "Greve Kommune",
"Code": "253",
"Communities": [
{
"Places": [
{
"Name": "Greve",
"PostCode": "2670",
"Location": {
"Latitude": 55.5906,
"Longitude": 12.3018
}
},
{
"Name": "Karlslunde",
"PostCode": "2690",
"Location": {
"Latitude": 55.5663,
"Longitude": 12.2468
}
},
{
"Name": "Tune",
"PostCode": "4030",
"Location": {
"Latitude": 55.5955,
"Longitude": 12.1851
}
}
]
}
]
},
{
"Name": "Køge Kommune",
"Code": "259",
"Communities": [
{
"Places": [
{
"Name": "Bjæverskov",
"PostCode": "4632",
"Location": {
"Latitude": 55.4571,
"Longitude": 12.0418
}
},
{
"Name": "Borup",
"PostCode": "4140",
"Location": {
"Latitude": 55.4947,
"Longitude": 11.9809
}
},
{
"Name": "Herfølge",
"PostCode": "4681",
"Location": {
"Latitude": 55.4109,
"Longitude": 12.1414
}
},
{
"Name": "Køge",
"PostCode": "4600",
"Location": {
"Latitude": 55.4624,
"Longitude": 12.1696
}
},
{
"Name": "Lille Skensved",
"PostCode": "4623",
"Location": {
"Latitude": 55.4975,
"Longitude": 12.096
}
},
{
"Name": "Tureby",
"PostCode": "4682",
"Location": {
"Latitude": 55.3841,
"Longitude": 12.0821
}
}
]
}
]
},
{
"Name": "Roskilde Kommune",
"Code": "265",
"Communities": [
{
"Places": [
{
"Name": "Gadstrup",
"PostCode": "4621",
"Location": {
"Latitude": 55.5705,
"Longitude": 12.1032
}
},
{
"Name": "Jyllinge",
"PostCode": "4040",
"Location": {
"Latitude": 55.7585,
"Longitude": 12.1069
}
},
{
"Name": "Roskilde",
"PostCode": "4000",
"Location": {
"Latitude": 55.6513,
"Longitude": 12.0958
}
},
{
"Name": "Viby Sjælland",
"PostCode": "4130",
"Location": {
"Latitude": 55.5499,
"Longitude": 12.0221
}
}
]
}
]
},
{
"Name": "Solrød Kommune",
"Code": "269",
"Communities": [
{
"Places": [
{
"Name": "Havdrup",
"PostCode": "4622",
"Location": {
"Latitude": 55.5438,
"Longitude": 12.1221
}
},
{
"Name": "Solrød Strand",
"PostCode": "2680",
"Location": {
"Latitude": 55.532,
"Longitude": 12.213
}
}
]
}
]
},
{
"Name": "Odsherred Kommune",
"Code": "306",
"Communities": [
{
"Places": [
{
"Name": "Asnæs",
"PostCode": "4550",
"Location": {
"Latitude": 55.8255,
"Longitude": 11.4991
}
},
{
"Name": "Fårevejle",
"PostCode": "4540",
"Location": {
"Latitude": 55.8166,
"Longitude": 11.4282
}
},
{
"Name": "Grevinge",
"PostCode": "4571",
"Location": {
"Latitude": 55.7935,
"Longitude": 11.5885
}
},
{
"Name": "Højby",
"PostCode": "4573",
"Location": {
"Latitude": 55.9059,
"Longitude": 11.5548
}
},
{
"Name": "Hørve",
"PostCode": "4534",
"Location": {
"Latitude": 55.7538,
"Longitude": 11.4328
}
},
{
"Name": "Nørre Asmindrup",
"PostCode": "4572",
"Location": {
"Latitude": 55.8798,
"Longitude": 11.6151
}
},
{
"Name": "Nykøbing Sj",
"PostCode": "4500",
"Location": {
"Latitude": 55.9281,
"Longitude": 11.6393
}
},
{
"Name": "Rørvig",
"PostCode": "4581",
"Location": {
"Latitude": 55.9497,
"Longitude": 11.7498
}
},
{
"Name": "Sjællands Odde",
"PostCode": "4583",
"Location": {
"Latitude": 55.9712,
"Longitude": 11.3624
}
},
{
"Name": "Vig",
"PostCode": "4560",
"Location": {
"Latitude": 55.8585,
"Longitude": 11.5577
}
}
]
}
]
},
{
"Name": "Holbæk Kommune",
"Code": "316",
"Communities": [
{
"Places": [
{
"Name": "Gislinge",
"PostCode": "4532",
"Location": {
"Latitude": 55.7328,
"Longitude": 11.5543
}
},
{
"Name": "Holbæk",
"PostCode": "4300",
"Location": {
"Latitude": 55.7186,
"Longitude": 11.7069
}
},
{
"Name": "Jyderup",
"PostCode": "4450",
"Location": {
"Latitude": 55.6602,
"Longitude": 11.4104
}
},
{
"Name": "Kirke Eskilstrup",
"PostCode": "4360",
"Location": {
"Latitude": 55.5705,
"Longitude": 11.7737
}
},
{
"Name": "Mørkøv",
"PostCode": "4440",
"Location": {
"Latitude": 55.6513,
"Longitude": 11.5085
}
},
{
"Name": "Orø",
"PostCode": "4305",
"Location": {
"Latitude": 55.7717,
"Longitude": 11.813
}
},
{
"Name": "Regstrup",
"PostCode": "4420",
"Location": {
"Latitude": 55.6664,
"Longitude": 11.6185
}
},
{
"Name": "Store Merløse",
"PostCode": "4370",
"Location": {
"Latitude": 55.5462,
"Longitude": 11.7159
}
},
{
"Name": "Svinninge",
"PostCode": "4520",
"Location": {
"Latitude": 55.7188,
"Longitude": 11.4769
}
},
{
"Name": "Tølløse",
"PostCode": "4340",
"Location": {
"Latitude": 55.6114,
"Longitude": 11.727
}
},
{
"Name": "Ugerløse",
"PostCode": "4350",
"Location": {
"Latitude": 55.5881,
"Longitude": 11.6489
}
},
{
"Name": "Vipperød",
"PostCode": "4390",
"Location": {
"Latitude": 55.6675,
"Longitude": 11.7431
}
}
]
}
]
},
{
"Name": "Faxe Kommune",
"Code": "320",
"Communities": [
{
"Places": [
{
"Name": "Faxe",
"PostCode": "4640",
"Location": {
"Latitude": 55.2452,
"Longitude": 12.12
}
},
{
"Name": "Faxe Ladeplads",
"PostCode": "4654",
"Location": {
"Latitude": 55.2174,
"Longitude": 12.1601
}
},
{
"Name": "Haslev",
"PostCode": "4690",
"Location": {
"Latitude": 55.325,
"Longitude": 11.9696
}
},
{
"Name": "Karise",
"PostCode": "4653",
"Location": {
"Latitude": 55.3055,
"Longitude": 12.1959
}
},
{
"Name": "Rønnede",
"PostCode": "4683",
"Location": {
"Latitude": 55.2514,
"Longitude": 12.0302
}
}
]
}
]
},
{
"Name": "Kalundborg Kommune",
"Code": "326",
"Communities": [
{
"Places": [
{
"Name": "Eskebjerg",
"PostCode": "4593",
"Location": {
"Latitude": 55.7022,
"Longitude": 11.274
}
},
{
"Name": "Føllenslev",
"PostCode": "4591",
"Location": {
"Latitude": 55.746,
"Longitude": 11.3329
}
},
{
"Name": "Gørlev",
"PostCode": "4281",
"Location": {
"Latitude": 55.5324,
"Longitude": 11.1825
}
},
{
"Name": "Høng",
"PostCode": "4270",
"Location": {
"Latitude": 55.5073,
"Longitude": 11.296
}
},
{
"Name": "Jerslev Sjælland",
"PostCode": "4490",
"Location": {
"Latitude": 55.6163,
"Longitude": 11.2278
}
},
{
"Name": "Kalundborg",
"PostCode": "4400",
"Location": {
"Latitude": 55.6882,
"Longitude": 11.0848
}
},
{
"Name": "Sejerø",
"PostCode": "4592",
"Location": {
"Latitude": 55.8916,
"Longitude": 11.1334
}
},
{
"Name": "Snertinge",
"PostCode": "4460",
"Location": {
"Latitude": 55.7118,
"Longitude": 11.3801
}
},
{
"Name": "Store Fuglede",
"PostCode": "4480",
"Location": {
"Latitude": 55.5759,
"Longitude": 11.1709
}
},
{
"Name": "Svebølle",
"PostCode": "4470",
"Location": {
"Latitude": 55.6511,
"Longitude": 11.2885
}
}
]
}
]
},
{
"Name": "Ringsted Kommune",
"Code": "329",
"Communities": [
{
"Places": [
{
"Name": "Jystrup Midtsj",
"PostCode": "4174",
"Location": {
"Latitude": 55.5176,
"Longitude": 11.8643
}
},
{
"Name": "Ringsted",
"PostCode": "4100",
"Location": {
"Latitude": 55.4442,
"Longitude": 11.8065
}
}
]
}
]
},
{
"Name": "Slagelse Kommune",
"Code": "330",
"Communities": [
{
"Places": [
{
"Name": "Agersø",
"PostCode": "4244",
"Location": {
"Latitude": 55.2155,
"Longitude": 11.186
}
},
{
"Name": "Boeslunde",
"PostCode": "4242",
"Location": {
"Latitude": 55.305,
"Longitude": 11.2653
}
},
{
"Name": "Dalmose",
"PostCode": "4261",
"Location": {
"Latitude": 55.2855,
"Longitude": 11.4168
}
},
{
"Name": "Korsør",
"PostCode": "4220",
"Location": {
"Latitude": 55.3415,
"Longitude": 11.1549
}
},
{
"Name": "Omø",
"PostCode": "4245",
"Location": {
"Latitude": 55.1575,
"Longitude": 11.1527
}
},
{
"Name": "Rude",
"PostCode": "4243",
"Location": {
"Latitude": 55.2142,
"Longitude": 11.4891
}
},
{
"Name": "Skælskør",
"PostCode": "4230",
"Location": {
"Latitude": 55.2517,
"Longitude": 11.3043
}
},
{
"Name": "Slagelse",
"PostCode": "4200",
"Location": {
"Latitude": 55.4044,
"Longitude": 11.3353
}
},
{
"Name": "Vemmelev",
"PostCode": "4241",
"Location": {
"Latitude": 55.3612,
"Longitude": 11.2565
}
}
]
}
]
},
{
"Name": "Stevns Kommune",
"Code": "336",
"Communities": [
{
"Places": [
{
"Name": "Hårlev",
"PostCode": "4652",
"Location": {
"Latitude": 55.3509,
"Longitude": 12.2291
}
},
{
"Name": "Klippinge",
"PostCode": "4672",
"Location": {
"Latitude": 55.3553,
"Longitude": 12.3319
}
},
{
"Name": "Rødvig Stevns",
"PostCode": "4673",
"Location": {
"Latitude": 55.2576,
"Longitude": 12.3671
}
},
{
"Name": "Store Heddinge",
"PostCode": "4660",
"Location": {
"Latitude": 55.3096,
"Longitude": 12.3772
}
},
{
"Name": "Strøby",
"PostCode": "4671",
"Location": {
"Latitude": 55.395,
"Longitude": 12.2964
}
}
]
}
]
},
{
"Name": "Sorø Kommune",
"Code": "340",
"Communities": [
{
"Places": [
{
"Name": "Dianalund",
"PostCode": "4293",
"Location": {
"Latitude": 55.5331,
"Longitude": 11.4889
}
},
{
"Name": "Fjenneslev",
"PostCode": "4173",
"Location": {
"Latitude": 55.4334,
"Longitude": 11.6617
}
},
{
"Name": "Munke Bjergby",
"PostCode": "4190",
"Location": {
"Latitude": 55.4991,
"Longitude": 11.5253
}
},
{
"Name": "Nyrup",
"PostCode": "4296",
"Location": {
"Latitude": 55.5434,
"Longitude": 11.6494
}
},
{
"Name": "Ruds Vedby",
"PostCode": "4291",
"Location": {
"Latitude": 55.5393,
"Longitude": 11.3794
}
},
{
"Name": "Sorø",
"PostCode": "4180",
"Location": {
"Latitude": 55.4361,
"Longitude": 11.5633
}
},
{
"Name": "Stenlille",
"PostCode": "4295",
"Location": {
"Latitude": 55.543,
"Longitude": 11.5842
}
}
]
}
]
},
{
"Name": "Lejre Kommune",
"Code": "350",
"Communities": [
{
"Places": [
{
"Name": "Hvalsø",
"PostCode": "4330",
"Location": {
"Latitude": 55.5938,
"Longitude": 11.8649
}
},
{
"Name": "Kirke Hyllinge",
"PostCode": "4070",
"Location": {
"Latitude": 55.7007,
"Longitude": 11.8935
}
},
{
"Name": "Kirke Såby",
"PostCode": "4060",
"Location": {
"Latitude": 55.6459,
"Longitude": 11.8572
}
},
{
"Name": "Lejre",
"PostCode": "4320",
"Location": {
"Latitude": 55.5819,
"Longitude": 11.9668
}
}
]
}
]
},
{
"Name": "Lolland Kommune",
"Code": "360",
"Communities": [
{
"Places": [
{
"Name": "Askø",
"PostCode": "4942",
"Location": {
"Latitude": 54.893,
"Longitude": 11.4993
}
},
{
"Name": "Bandholm",
"PostCode": "4941",
"Location": {
"Latitude": 54.8389,
"Longitude": 11.4681
}
},
{
"Name": "Dannemare",
"PostCode": "4983",
"Location": {
"Latitude": 54.7396,
"Longitude": 11.189
}
},
{
"Name": "Errindlev",
"PostCode": "4895",
"Location": {
"Latitude": 54.6636,
"Longitude": 11.5015
}
},
{
"Name": "Fejø",
"PostCode": "4944",
"Location": {
"Latitude": 54.9441,
"Longitude": 11.4089
}
},
{
"Name": "Femø",
"PostCode": "4945",
"Location": {
"Latitude": 54.9739,
"Longitude": 11.5378
}
},
{
"Name": "Harpelunde",
"PostCode": "4912",
"Location": {
"Latitude": 54.8771,
"Longitude": 11.0719
}
},
{
"Name": "Holeby",
"PostCode": "4960",
"Location": {
"Latitude": 54.7098,
"Longitude": 11.4829
}
},
{
"Name": "Horslunde",
"PostCode": "4913",
"Location": {
"Latitude": 54.9212,
"Longitude": 11.2104
}
},
{
"Name": "Maribo",
"PostCode": "4930",
"Location": {
"Latitude": 54.7737,
"Longitude": 11.4972
}
},
{
"Name": "Nakskov",
"PostCode": "4900",
"Location": {
"Latitude": 54.8288,
"Longitude": 11.1277
}
},
{
"Name": "Nørreballe",
"PostCode": "4951",
"Location": {
"Latitude": 54.8094,
"Longitude": 11.4285
}
},
{
"Name": "Rødby",
"PostCode": "4970",
"Location": {
"Latitude": 54.6835,
"Longitude": 11.3591
}
},
{
"Name": "Søllested",
"PostCode": "4920",
"Location": {
"Latitude": 54.8032,
"Longitude": 11.278
}
},
{
"Name": "Stokkemarke",
"PostCode": "4952",
"Location": {
"Latitude": 54.843,
"Longitude": 11.3728
}
},
{
"Name": "Torrig L",
"PostCode": "4943",
"Location": {
"Latitude": 54.9085,
"Longitude": 11.3244
}
},
{
"Name": "Vesterborg",
"PostCode": "4953",
"Location": {
"Latitude": 54.8652,
"Longitude": 11.2954
}
}
]
}
]
},
{
"Name": "Næstved Kommune",
"Code": "370",
"Communities": [
{
"Places": [
{
"Name": "Fuglebjerg",
"PostCode": "4250",
"Location": {
"Latitude": 55.3092,
"Longitude": 11.5482
}
},
{
"Name": "Glumsø",
"PostCode": "4171",
"Location": {
"Latitude": 55.3621,
"Longitude": 11.6897
}
},
{
"Name": "Herlufmagle",
"PostCode": "4160",
"Location": {
"Latitude": 55.3139,
"Longitude": 11.751
}
},
{
"Name": "Holmegaard",
"PostCode": "4684",
"Location": {
"Latitude": 55.268,
"Longitude": 11.8297
}
},
{
"Name": "Karrebæksminde",
"PostCode": "4736",
"Location": {
"Latitude": 55.1778,
"Longitude": 11.6523
}
},
{
"Name": "Næstved",
"PostCode": "4700",
"Location": {
"Latitude": 55.2237,
"Longitude": 11.7629
}
},
{
"Name": "Sandved",
"PostCode": "4262",
"Location": {
"Latitude": 55.2534,
"Longitude": 11.5218
}
},
{
"Name": "Tappernøje",
"PostCode": "4733",
"Location": {
"Latitude": 55.1769,
"Longitude": 11.9719
}
}
]
}
]
},
{
"Name": "Guldborgsund Kommune",
"Code": "376",
"Communities": [
{
"Places": [
{
"Name": "Eskilstrup",
"PostCode": "4863",
"Location": {
"Latitude": 54.8542,
"Longitude": 11.8843
}
},
{
"Name": "Gedser",
"PostCode": "4874",
"Location": {
"Latitude": 54.5953,
"Longitude": 11.944
}
},
{
"Name": "Guldborg",
"PostCode": "4862",
"Location": {
"Latitude": 54.8637,
"Longitude": 11.7322
}
},
{
"Name": "Horbelev",
"PostCode": "4871",
"Location": {
"Latitude": 54.8238,
"Longitude": 12.0644
}
},
{
"Name": "Idestrup",
"PostCode": "4872",
"Location": {
"Latitude": 54.7247,
"Longitude": 11.9782
}
},
{
"Name": "Kettinge",
"PostCode": "4892",
"Location": {
"Latitude": 54.7008,
"Longitude": 11.747
}
},
{
"Name": "Nørre Alslev",
"PostCode": "4840",
"Location": {
"Latitude": 54.9069,
"Longitude": 11.8529
}
},
{
"Name": "Nykøbing F",
"PostCode": "4800",
"Location": {
"Latitude": 54.7723,
"Longitude": 11.884
}
},
{
"Name": "Nysted",
"PostCode": "4880",
"Location": {
"Latitude": 54.6704,
"Longitude": 11.7255
}
},
{
"Name": "Øster Ulslev",
"PostCode": "4894",
"Location": {
"Latitude": 54.6958,
"Longitude": 11.6061
}
},
{
"Name": "Sakskøbing",
"PostCode": "4990",
"Location": {
"Latitude": 54.7971,
"Longitude": 11.6452
}
},
{
"Name": "Stubbekøbing",
"PostCode": "4850",
"Location": {
"Latitude": 54.8846,
"Longitude": 12.0383
}
},
{
"Name": "Toreby L",
"PostCode": "4891",
"Location": {
"Latitude": 54.7597,
"Longitude": 11.7775
}
},
{
"Name": "Væggerløse",
"PostCode": "4873",
"Location": {
"Latitude": 54.6829,
"Longitude": 11.9496
}
}
]
}
]
},
{
"Name": "Vordingborg Kommune",
"Code": "390",
"Communities": [
{
"Places": [
{
"Name": "Askeby",
"PostCode": "4792",
"Location": {
"Latitude": 54.9063,
"Longitude": 12.1605
}
},
{
"Name": "Bogø By",
"PostCode": "4793",
"Location": {
"Latitude": 54.9233,
"Longitude": 12.0508
}
},
{
"Name": "Borre",
"PostCode": "4791",
"Location": {
"Latitude": 54.9777,
"Longitude": 12.4697
}
},
{
"Name": "Kalvehave",
"PostCode": "4771",
"Location": {
"Latitude": 55.003,
"Longitude": 12.1508
}
},
{
"Name": "Langebæk",
"PostCode": "4772",
"Location": {
"Latitude": 54.9976,
"Longitude": 12.0811
}
},
{
"Name": "Lundby",
"PostCode": "4750",
"Location": {
"Latitude": 55.1098,
"Longitude": 11.8361
}
},
{
"Name": "Mern",
"PostCode": "4735",
"Location": {
"Latitude": 55.0464,
"Longitude": 12.0706
}
},
{
"Name": "Præstø",
"PostCode": "4720",
"Location": {
"Latitude": 55.1112,
"Longitude": 12.0618
}
},
{
"Name": "Stege",
"PostCode": "4780",
"Location": {
"Latitude": 54.9904,
"Longitude": 12.2915
}
},
{
"Name": "Stensved",
"PostCode": "4773",
"Location": {
"Latitude": 54.995,
"Longitude": 12.0268
}
},
{
"Name": "Vordingborg",
"PostCode": "4760",
"Location": {
"Latitude": 55.0184,
"Longitude": 11.9152
}
}
]
}
]
}
]
},
{
"Name": "South Denmark",
"Code": "21",
"Provinces": [
{
"Name": "Middelfart Kommune",
"Code": "410",
"Communities": [
{
"Places": [
{
"Name": "Asperup",
"PostCode": "5466",
"Location": {
"Latitude": 55.4964,
"Longitude": 9.9025
}
},
{
"Name": "Brenderup Fyn",
"PostCode": "5464",
"Location": {
"Latitude": 55.4986,
"Longitude": 9.9731
}
},
{
"Name": "Ejby",
"PostCode": "5592",
"Location": {
"Latitude": 55.4228,
"Longitude": 9.9224
}
},
{
"Name": "Gelsted",
"PostCode": "5591",
"Location": {
"Latitude": 55.3948,
"Longitude": 9.9623
}
},
{
"Name": "Harndrup",
"PostCode": "5463",
"Location": {
"Latitude": 55.4572,
"Longitude": 10.0226
}
},
{
"Name": "Middelfart",
"PostCode": "5500",
"Location": {
"Latitude": 55.5063,
"Longitude": 9.764
}
},
{
"Name": "Nørre Aaby",
"PostCode": "5580",
"Location": {
"Latitude": 55.4544,
"Longitude": 9.8711
}
}
]
}
]
},
{
"Name": "Assens Kommune",
"Code": "420",
"Communities": [
{
"Places": [
{
"Name": "Aarup",
"PostCode": "5560",
"Location": {
"Latitude": 55.3759,
"Longitude": 10.0484
}
},
{
"Name": "Assens",
"PostCode": "5610",
"Location": {
"Latitude": 55.2803,
"Longitude": 9.9166
}
},
{
"Name": "Ebberup",
"PostCode": "5631",
"Location": {
"Latitude": 55.2081,
"Longitude": 9.9902
}
},
{
"Name": "Glamsbjerg",
"PostCode": "5620",
"Location": {
"Latitude": 55.2758,
"Longitude": 10.0941
}
},
{
"Name": "Haarby",
"PostCode": "5683",
"Location": {
"Latitude": 55.2123,
"Longitude": 10.1075
}
},
{
"Name": "Tommerup",
"PostCode": "5690",
"Location": {
"Latitude": 55.3243,
"Longitude": 10.2044
}
},
{
"Name": "Vissenbjerg",
"PostCode": "5492",
"Location": {
"Latitude": 55.3875,
"Longitude": 10.137
}
}
]
}
]
},
{
"Name": "Faaborg-Midtfyn Kommune",
"Code": "430",
"Communities": [
{
"Places": [
{
"Name": "Årslev",
"PostCode": "5792",
"Location": {
"Latitude": 55.3009,
"Longitude": 10.4407
}
},
{
"Name": "Avernakø",
"PostCode": "5602",
"Location": {
"Latitude": 55.025,
"Longitude": 10.2758
}
},
{
"Name": "Bjørnø",
"PostCode": "5603",
"Location": {
"Latitude": 55.0639,
"Longitude": 10.2517
}
},
{
"Name": "Broby",
"PostCode": "5672",
"Location": {
"Latitude": 55.2422,
"Longitude": 10.2629
}
},
{
"Name": "Faaborg",
"PostCode": "5600",
"Location": {
"Latitude": 55.1049,
"Longitude": 10.2503
}
},
{
"Name": "Ferritslev Fyn",
"PostCode": "5863",
"Location": {
"Latitude": 55.3133,
"Longitude": 10.5821
}
},
{
"Name": "Gislev",
"PostCode": "5854",
"Location": {
"Latitude": 55.2161,
"Longitude": 10.6006
}
},
{
"Name": "Kværndrup",
"PostCode": "5772",
"Location": {
"Latitude": 55.179,
"Longitude": 10.5316
}
},
{
"Name": "Lyø",
"PostCode": "5601",
"Location": {
"Latitude": 55.0434,
"Longitude": 10.1513
}
},
{
"Name": "Millinge",
"PostCode": "5642",
"Location": {
"Latitude": 55.1412,
"Longitude": 10.1733
}
},
{
"Name": "Ringe",
"PostCode": "5750",
"Location": {
"Latitude": 55.2326,
"Longitude": 10.4568
}
},
{
"Name": "Ryslinge",
"PostCode": "5856",
"Location": {
"Latitude": 55.2371,
"Longitude": 10.5366
}
}
]
}
]
},
{
"Name": "Kerteminde Kommune",
"Code": "440",
"Communities": [
{
"Places": [
{
"Name": "Dalby",
"PostCode": "5380",
"Location": {
"Latitude": 55.5166,
"Longitude": 10.6722
}
},
{
"Name": "Kerteminde",
"PostCode": "5300",
"Location": {
"Latitude": 55.4519,
"Longitude": 10.6486
}
},
{
"Name": "Langeskov",
"PostCode": "5550",
"Location": {
"Latitude": 55.3614,
"Longitude": 10.5855
}
},
{
"Name": "Marslev",
"PostCode": "5290",
"Location": {
"Latitude": 55.395,
"Longitude": 10.5238
}
},
{
"Name": "Martofte",
"PostCode": "5390",
"Location": {
"Latitude": 55.5703,
"Longitude": 10.6254
}
},
{
"Name": "Mesinge",
"PostCode": "5370",
"Location": {
"Latitude": 55.508,
"Longitude": 10.629
}
},
{
"Name": "Munkebo",
"PostCode": "5330",
"Location": {
"Latitude": 55.458,
"Longitude": 10.5544
}
},
{
"Name": "Rynkeby",
"PostCode": "5350",
"Location": {
"Latitude": 55.3997,
"Longitude": 10.6134
}
}
]
}
]
},
{
"Name": "Nyborg Kommune",
"Code": "450",
"Communities": [
{
"Places": [
{
"Name": "Frørup",
"PostCode": "5871",
"Location": {
"Latitude": 55.2388,
"Longitude": 10.7645
}
},
{
"Name": "Nyborg",
"PostCode": "5800",
"Location": {
"Latitude": 55.322,
"Longitude": 10.7801
}
},
{
"Name": "Ørbæk",
"PostCode": "5853",
"Location": {
"Latitude": 55.264,
"Longitude": 10.6608
}
},
{
"Name": "Ullerslev",
"PostCode": "5540",
"Location": {
"Latitude": 55.3583,
"Longitude": 10.6646
}
}
]
}
]
},
{
"Name": "Odense Kommune",
"Code": "461",
"Communities": [
{
"Places": [
{
"Name": "Agedrup",
"PostCode": "5320",
"Location": {
"Latitude": 55.4259,
"Longitude": 10.4757
}
},
{
"Name": "Blommenslyst",
"PostCode": "5491",
"Location": {
"Latitude": 55.3879,
"Longitude": 10.25
}
},
{
"Name": "Odense C",
"PostCode": "5000",
"Location": {
"Latitude": 55.4028,
"Longitude": 10.392
}
},
{
"Name": "Odense M",
"PostCode": "5230",
"Location": {
"Latitude": 55.381,
"Longitude": 10.4017
}
},
{
"Name": "Odense N",
"PostCode": "5270",
"Location": {
"Latitude": 55.4341,
"Longitude": 10.3612
}
},
{
"Name": "Odense NØ",
"PostCode": "5240",
"Location": {
"Latitude": 55.4176,
"Longitude": 10.4446
}
},
{
"Name": "Odense NV",
"PostCode": "5210",
"Location": {
"Latitude": 55.415,
"Longitude": 10.3132
}
},
{
"Name": "Odense S",
"PostCode": "5260",
"Location": {
"Latitude": 55.3462,
"Longitude": 10.3902
}
},
{
"Name": "Odense SØ",
"PostCode": "5220",
"Location": {
"Latitude": 55.3727,
"Longitude": 10.4601
}
},
{
"Name": "Odense SV",
"PostCode": "5250",
"Location": {
"Latitude": 55.3585,
"Longitude": 10.3366
}
},
{
"Name": "Odense V",
"PostCode": "5200",
"Location": {
"Latitude": 55.3953,
"Longitude": 10.3289
}
}
]
}
]
},
{
"Name": "Svendborg Kommune",
"Code": "479",
"Communities": [
{
"Places": [
{
"Name": "Gudbjerg Sydfyn",
"PostCode": "5892",
"Location": {
"Latitude": 55.157,
"Longitude": 10.6569
}
},
{
"Name": "Gudme",
"PostCode": "5884",
"Location": {
"Latitude": 55.1497,
"Longitude": 10.7034
}
},
{
"Name": "Hesselager",
"PostCode": "5874",
"Location": {
"Latitude": 55.1711,
"Longitude": 10.766
}
},
{
"Name": "Oure",
"PostCode": "5883",
"Location": {
"Latitude": 55.1218,
"Longitude": 10.725
}
},
{
"Name": "Skårup Fyn",
"PostCode": "5881",
"Location": {
"Latitude": 55.0869,
"Longitude": 10.6986
}
},
{
"Name": "Stenstrup",
"PostCode": "5771",
"Location": {
"Latitude": 55.1272,
"Longitude": 10.5131
}
},
{
"Name": "Svendborg",
"PostCode": "5700",
"Location": {
"Latitude": 55.0528,
"Longitude": 10.6094
}
},
{
"Name": "Vejstrup",
"PostCode": "5882",
"Location": {
"Latitude": 55.1092,
"Longitude": 10.7094
}
},
{
"Name": "Vester Skerninge",
"PostCode": "5762",
"Location": {
"Latitude": 55.0722,
"Longitude": 10.4594
}
}
]
}
]
},
{
"Name": "Nordfyns Kommune",
"Code": "480",
"Communities": [
{
"Places": [
{
"Name": "Bogense",
"PostCode": "5400",
"Location": {
"Latitude": 55.5548,
"Longitude": 10.0939
}
},
{
"Name": "Morud",
"PostCode": "5462",
"Location": {
"Latitude": 55.4437,
"Longitude": 10.1928
}
},
{
"Name": "Otterup",
"PostCode": "5450",
"Location": {
"Latitude": 55.5401,
"Longitude": 10.4029
}
},
{
"Name": "Skamby",
"PostCode": "5485",
"Location": {
"Latitude": 55.5188,
"Longitude": 10.2766
}
},
{
"Name": "Søndersø",
"PostCode": "5471",
"Location": {
"Latitude": 55.4912,
"Longitude": 10.2028
}
},
{
"Name": "Veflinge",
"PostCode": "5474",
"Location": {
"Latitude": 55.4682,
"Longitude": 10.1526
}
}
]
}
]
},
{
"Name": "Langeland Kommune",
"Code": "482",
"Communities": [
{
"Places": [
{
"Name": "Bagenkop",
"PostCode": "5935",
"Location": {
"Latitude": 54.7511,
"Longitude": 10.6862
}
},
{
"Name": "Humble",
"PostCode": "5932",
"Location": {
"Latitude": 54.8126,
"Longitude": 10.6901
}
},
{
"Name": "Rudkøbing",
"PostCode": "5900",
"Location": {
"Latitude": 54.923,
"Longitude": 10.7403
}
},
{
"Name": "Strynø",
"PostCode": "5943",
"Location": {
"Latitude": 54.9049,
"Longitude": 10.6108
}
},
{
"Name": "Tranekær",
"PostCode": "5953",
"Location": {
"Latitude": 55.0605,
"Longitude": 10.8773
}
}
]
}
]
},
{
"Name": "Ærø Kommune",
"Code": "492",
"Communities": [
{
"Places": [
{
"Name": "Ærøskøbing",
"PostCode": "5970",
"Location": {
"Latitude": 54.8771,
"Longitude": 10.3895
}
},
{
"Name": "Birkholm",
"PostCode": "5965",
"Location": {
"Latitude": 54.9307,
"Longitude": 10.5042
}
},
{
"Name": "Marstal",
"PostCode": "5960",
"Location": {
"Latitude": 54.8575,
"Longitude": 10.5085
}
},
{
"Name": "Søby Ærø",
"PostCode": "5985",
"Location": {
"Latitude": 54.9319,
"Longitude": 10.2671
}
}
]
}
]
},
{
"Name": "Haderslev Kommune",
"Code": "510",
"Communities": [
{
"Places": [
{
"Name": "Bevtoft",
"PostCode": "6541",
"Location": {
"Latitude": 55.198,
"Longitude": 9.204
}
},
{
"Name": "Gram",
"PostCode": "6510",
"Location": {
"Latitude": 55.2814,
"Longitude": 9.0265
}
},
{
"Name": "Haderslev",
"PostCode": "6100",
"Location": {
"Latitude": 55.2431,
"Longitude": 9.5239
}
},
{
"Name": "Sommersted",
"PostCode": "6560",
"Location": {
"Latitude": 55.3226,
"Longitude": 9.284
}
},
{
"Name": "Vojens",
"PostCode": "6500",
"Location": {
"Latitude": 55.2428,
"Longitude": 9.2999
}
}
]
}
]
},
{
"Name": "Billund Kommune",
"Code": "530",
"Communities": [
{
"Places": [
{
"Name": "Billund",
"PostCode": "7190",
"Location": {
"Latitude": 55.7261,
"Longitude": 9.1164
}
},
{
"Name": "Grindsted",
"PostCode": "7200",
"Location": {
"Latitude": 55.7602,
"Longitude": 8.9211
}
},
{
"Name": "Hejnsvig",
"PostCode": "7250",
"Location": {
"Latitude": 55.6884,
"Longitude": 8.9799
}
},
{
"Name": "Sønder Omme",
"PostCode": "7260",
"Location": {
"Latitude": 55.8425,
"Longitude": 8.8964
}
},
{
"Name": "Vorbasse",
"PostCode": "6623",
"Location": {
"Latitude": 55.6354,
"Longitude": 9.0813
}
}
]
}
]
},
{
"Name": "Sønderborg Kommune",
"Code": "540",
"Communities": [
{
"Places": [
{
"Name": "Augustenborg",
"PostCode": "6440",
"Location": {
"Latitude": 54.9631,
"Longitude": 9.9198
}
},
{
"Name": "Broager",
"PostCode": "6310",
"Location": {
"Latitude": 54.8859,
"Longitude": 9.6782
}
},
{
"Name": "Egernsund",
"PostCode": "6320",
"Location": {
"Latitude": 54.9041,
"Longitude": 9.6154
}
},
{
"Name": "Gråsten",
"PostCode": "6300",
"Location": {
"Latitude": 54.9146,
"Longitude": 9.5725
}
},
{
"Name": "Nordborg",
"PostCode": "6430",
"Location": {
"Latitude": 55.0331,
"Longitude": 9.7881
}
},
{
"Name": "Sønderborg",
"PostCode": "6400",
"Location": {
"Latitude": 54.9213,
"Longitude": 9.7764
}
},
{
"Name": "Sydals",
"PostCode": "6470",
"Location": {
"Latitude": 54.9011,
"Longitude": 9.9565
}
}
]
}
]
},
{
"Name": "Tønder Kommune",
"Code": "550",
"Communities": [
{
"Places": [
{
"Name": "Agerskov",
"PostCode": "6534",
"Location": {
"Latitude": 55.1294,
"Longitude": 9.1426
}
},
{
"Name": "Branderup J",
"PostCode": "6535",
"Location": {
"Latitude": 55.1198,
"Longitude": 9.065
}
},
{
"Name": "Bredebro",
"PostCode": "6261",
"Location": {
"Latitude": 55.0545,
"Longitude": 8.7706
}
},
{
"Name": "Højer",
"PostCode": "6280",
"Location": {
"Latitude": 54.973,
"Longitude": 8.704
}
},
{
"Name": "Løgumkloster",
"PostCode": "6240",
"Location": {
"Latitude": 55.0555,
"Longitude": 8.979
}
},
{
"Name": "Rømø",
"PostCode": "6792",
"Location": {
"Latitude": 55.1154,
"Longitude": 8.5377
}
},
{
"Name": "Skærbæk",
"PostCode": "6780",
"Location": {
"Latitude": 55.1659,
"Longitude": 8.7766
}
},
{
"Name": "Toftlund",
"PostCode": "6520",
"Location": {
"Latitude": 55.1794,
"Longitude": 9.0356
}
},
{
"Name": "Tønder",
"PostCode": "6270",
"Location": {
"Latitude": 54.9442,
"Longitude": 8.8692
}
}
]
}
]
},
{
"Name": "Esbjerg Kommune",
"Code": "561",
"Communities": [
{
"Places": [
{
"Name": "Bramming",
"PostCode": "6740",
"Location": {
"Latitude": 55.4711,
"Longitude": 8.7055
}
},
{
"Name": "Esbjerg",
"PostCode": "6700",
"Location": {
"Latitude": 55.4732,
"Longitude": 8.4592
}
},
{
"Name": "Esbjerg N",
"PostCode": "6715",
"Location": {
"Latitude": 55.517,
"Longitude": 8.4587
}
},
{
"Name": "Esbjerg Ø",
"PostCode": "6705",
"Location": {
"Latitude": 55.4886,
"Longitude": 8.4965
}
},
{
"Name": "Esbjerg V",
"PostCode": "6710",
"Location": {
"Latitude": 55.5165,
"Longitude": 8.3942
}
},
{
"Name": "Gørding",
"PostCode": "6690",
"Location": {
"Latitude": 55.4732,
"Longitude": 8.8019
}
},
{
"Name": "Gredstedbro",
"PostCode": "6771",
"Location": {
"Latitude": 55.4033,
"Longitude": 8.7495
}
},
{
"Name": "Ribe",
"PostCode": "6760",
"Location": {
"Latitude": 55.3209,
"Longitude": 8.7714
}
},
{
"Name": "Tjæreborg",
"PostCode": "6731",
"Location": {
"Latitude": 55.4648,
"Longitude": 8.5852
}
}
]
}
]
},
{
"Name": "Fanø Kommune",
"Code": "563",
"PostCode": "6720",
"Communities": [
{
"Places": [
{
"Name": "Fanø",
"PostCode": "6720",
"Location": {
"Latitude": 55.4173,
"Longitude": 8.4037
}
}
],
"PostCode": "6720"
}
]
},
{
"Name": "Varde Kommune",
"Code": "573",
"Communities": [
{
"Places": [
{
"Name": "Agerbæk",
"PostCode": "6753",
"Location": {
"Latitude": 55.6024,
"Longitude": 8.8009
}
},
{
"Name": "Ansager",
"PostCode": "6823",
"Location": {
"Latitude": 55.7173,
"Longitude": 8.7474
}
},
{
"Name": "Årre",
"PostCode": "6818",
"Location": {
"Latitude": 55.5748,
"Longitude": 8.6743
}
},
{
"Name": "Billum",
"PostCode": "6852",
"Location": {
"Latitude": 55.6137,
"Longitude": 8.3274
}
},
{
"Name": "Blåvand",
"PostCode": "6857",
"Location": {
"Latitude": 55.5542,
"Longitude": 8.1504
}
},
{
"Name": "Henne",
"PostCode": "6854",
"Location": {
"Latitude": 55.7332,
"Longitude": 8.2051
}
},
{
"Name": "Janderup Vestj",
"PostCode": "6851",
"Location": {
"Latitude": 55.6306,
"Longitude": 8.3734
}
},
{
"Name": "Nørre Nebel",
"PostCode": "6830",
"Location": {
"Latitude": 55.7814,
"Longitude": 8.2688
}
},
{
"Name": "Oksbøl",
"PostCode": "6840",
"Location": {
"Latitude": 55.6419,
"Longitude": 8.2731
}
},
{
"Name": "Ølgod",
"PostCode": "6870",
"Location": {
"Latitude": 55.8017,
"Longitude": 8.6196
}
},
{
"Name": "Outrup",
"PostCode": "6855",
"Location": {
"Latitude": 55.7166,
"Longitude": 8.353
}
},
{
"Name": "Tistrup",
"PostCode": "6862",
"Location": {
"Latitude": 55.7165,
"Longitude": 8.612
}
},
{
"Name": "Varde",
"PostCode": "6800",
"Location": {
"Latitude": 55.6349,
"Longitude": 8.5033
}
},
{
"Name": "Vejers Strand",
"PostCode": "6853",
"Location": {
"Latitude": 55.6247,
"Longitude": 8.1316
}
}
]
}
]
},
{
"Name": "Vejen Kommune",
"Code": "575",
"Communities": [
{
"Places": [
{
"Name": "Bække",
"PostCode": "6622",
"Location": {
"Latitude": 55.5753,
"Longitude": 9.1472
}
},
{
"Name": "Brørup",
"PostCode": "6650",
"Location": {
"Latitude": 55.4951,
"Longitude": 9.0153
}
},
{
"Name": "Føvling",
"PostCode": "6683",
"Location": {
"Latitude": 55.4394,
"Longitude": 8.9093
}
},
{
"Name": "Gesten",
"PostCode": "6621",
"Location": {
"Latitude": 55.5269,
"Longitude": 9.2039
}
},
{
"Name": "Glejbjerg",
"PostCode": "6752",
"Location": {
"Latitude": 55.5571,
"Longitude": 8.8302
}
},
{
"Name": "Holsted",
"PostCode": "6670",
"Location": {
"Latitude": 55.4998,
"Longitude": 8.9129
}
},
{
"Name": "Hovborg",
"PostCode": "6682",
"Location": {
"Latitude": 55.6063,
"Longitude": 8.9381
}
},
{
"Name": "Lintrup",
"PostCode": "6660",
"Location": {
"Latitude": 55.4117,
"Longitude": 8.9784
}
},
{
"Name": "Rødding",
"PostCode": "6630",
"Location": {
"Latitude": 55.3707,
"Longitude": 9.1124
}
},
{
"Name": "Vejen",
"PostCode": "6600",
"Location": {
"Latitude": 55.4789,
"Longitude": 9.1389
}
}
]
}
]
},
{
"Name": "Aabenraa Kommune",
"Code": "580",
"Communities": [
{
"Places": [
{
"Name": "Aabenraa",
"PostCode": "6200",
"Location": {
"Latitude": 55.033,
"Longitude": 9.4398
}
},
{
"Name": "Barsø",
"PostCode": "6210",
"Location": {
"Latitude": 55.1214,
"Longitude": 9.5554
}
},
{
"Name": "Bolderslev",
"PostCode": "6392",
"Location": {
"Latitude": 54.9917,
"Longitude": 9.2719
}
},
{
"Name": "Bylderup-Bov",
"PostCode": "6372",
"Location": {
"Latitude": 54.9577,
"Longitude": 9.1024
}
},
{
"Name": "Kruså",
"PostCode": "6340",
"Location": {
"Latitude": 54.858,
"Longitude": 9.4359
}
},
{
"Name": "Padborg",
"PostCode": "6330",
"Location": {
"Latitude": 54.8367,
"Longitude": 9.3538
}
},
{
"Name": "Rødekro",
"PostCode": "6230",
"Location": {
"Latitude": 55.072,
"Longitude": 9.3241
}
},
{
"Name": "Tinglev",
"PostCode": "6360",
"Location": {
"Latitude": 54.9316,
"Longitude": 9.2426
}
}
]
}
]
},
{
"Name": "Fredericia Kommune",
"Code": "607",
"PostCode": "7000",
"Communities": [
{
"Places": [
{
"Name": "Fredericia",
"PostCode": "7000",
"Location": {
"Latitude": 55.5618,
"Longitude": 9.7151
}
}
],
"PostCode": "7000"
}
]
},
{
"Name": "Kolding Kommune",
"Code": "621",
"Communities": [
{
"Places": [
{
"Name": "Almind",
"PostCode": "6051",
"Location": {
"Latitude": 55.5629,
"Longitude": 9.4824
}
},
{
"Name": "Bjert",
"PostCode": "6091",
"Location": {
"Latitude": 55.4528,
"Longitude": 9.5657
}
},
{
"Name": "Christiansfeld",
"PostCode": "6070",
"Location": {
"Latitude": 55.3609,
"Longitude": 9.4699
}
},
{
"Name": "Hejls",
"PostCode": "6094",
"Location": {
"Latitude": 55.3733,
"Longitude": 9.5986
}
},
{
"Name": "Jordrup",
"PostCode": "6064",
"Location": {
"Latitude": 55.5509,
"Longitude": 9.3138
}
},
{
"Name": "Kolding",
"PostCode": "6000",
"Location": {
"Latitude": 55.4924,
"Longitude": 9.4798
}
},
{
"Name": "Lunderskov",
"PostCode": "6640",
"Location": {
"Latitude": 55.4831,
"Longitude": 9.3079
}
},
{
"Name": "Sjølund",
"PostCode": "6093",
"Location": {
"Latitude": 55.4074,
"Longitude": 9.5588
}
},
{
"Name": "Sønder Stenderup",
"PostCode": "6092",
"Location": {
"Latitude": 55.4581,
"Longitude": 9.6225
}
},
{
"Name": "Vamdrup",
"PostCode": "6580",
"Location": {
"Latitude": 55.4235,
"Longitude": 9.3053
}
},
{
"Name": "Viuf",
"PostCode": "6052",
"Location": {
"Latitude": 55.5882,
"Longitude": 9.4914
}
}
]
}
]
},
{
"Name": "Vejle Kommune",
"Code": "630",
"Communities": [
{
"Places": [
{
"Name": "Børkop",
"PostCode": "7080",
"Location": {
"Latitude": 55.6471,
"Longitude": 9.6723
}
},
{
"Name": "Bredsten",
"PostCode": "7182",
"Location": {
"Latitude": 55.7049,
"Longitude": 9.3603
}
},
{
"Name": "Egtved",
"PostCode": "6040",
"Location": {
"Latitude": 55.61,
"Longitude": 9.3509
}
},
{
"Name": "Gadbjerg",
"PostCode": "7321",
"Location": {
"Latitude": 55.7698,
"Longitude": 9.3054
}
},
{
"Name": "Give",
"PostCode": "7323",
"Location": {
"Latitude": 55.8507,
"Longitude": 9.25
}
},
{
"Name": "Jelling",
"PostCode": "7300",
"Location": {
"Latitude": 55.7642,
"Longitude": 9.425
}
},
{
"Name": "Randbøl",
"PostCode": "7183",
"Location": {
"Latitude": 55.687,
"Longitude": 9.2611
}
},
{
"Name": "Vandel",
"PostCode": "7184",
"Location": {
"Latitude": 55.7109,
"Longitude": 9.2101
}
},
{
"Name": "Vejle",
"PostCode": "7100",
"Location": {
"Latitude": 55.7042,
"Longitude": 9.5245
}
},
{
"Name": "Vejle Øst",
"PostCode": "7120",
"Location": {
"Latitude": 55.7229,
"Longitude": 9.6142
}
},
{
"Name": "Vonge",
"PostCode": "7173",
"Location": {
"Latitude": 55.8628,
"Longitude": 9.4181
}
}
]
}
]
}
]
},
{
"Name": "Region Nordjylland",
"Code": "81",
"PostCode": "9100",
"Provinces": [
{
"Name": "Aalborg Kommune",
"Code": "851",
"PostCode": "9100",
"Communities": [
{
"Places": [
{
"Name": "Aalborg",
"PostCode": "9100",
"Location": {
"Latitude": 57.048,
"Longitude": 9.9187
}
}
],
"PostCode": "9100"
}
]
}
]
},
{
"Name": "Region Midtjylland",
"Code": "82",
"Provinces": [
{
"Name": "Aarhus Kommune",
"Code": "751",
"Communities": [
{
"Places": [
{
"Name": "Aarhus C",
"PostCode": "8100",
"Location": {
"Latitude": 56.1567,
"Longitude": 10.2108
}
},
{
"Name": "Risskov Ø",
"PostCode": "8245",
"Location": {
"Latitude": 56.1972,
"Longitude": 10.248
}
}
]
}
]
}
]
},
{
"Name": "Region Syddanmark",
"Code": "83",
"Provinces": [
{
"Name": "Odense Kommune",
"Code": "461",
"PostCode": "5100",
"Communities": [
{
"Places": [
{
"Name": "Odense C",
"PostCode": "5100",
"Location": {
"Latitude": 55.3959,
"Longitude": 10.3883
}
}
],
"PostCode": "5100"
}
]
},
{
"Name": "Esbjerg Kommune",
"Code": "561",
"PostCode": "6701",
"Communities": [
{
"Places": [
{
"Name": "Esbjerg",
"PostCode": "6701",
"Location": {
"Latitude": 55.4703,
"Longitude": 8.4519
}
}
],
"PostCode": "6701"
}
]
},
{
"Name": "Fredericia Kommune",
"Code": "607",
"PostCode": "7007",
"Communities": [
{
"Places": [
{
"Name": "Fredericia",
"PostCode": "7007",
"Location": {
"Latitude": 55.5657,
"Longitude": 9.7526
}
}
],
"PostCode": "7007"
}
]
}
]
},
{
"Name": "Region Hovedstaden",
"Code": "84",
"Provinces": [
{
"Name": "Københavns Kommune",
"Code": "101",
"Communities": [
{
"Places": [
{
"Name": "Centraltastning",
"PostCode": "1513",
"Location": {
"Latitude": 55.6711,
"Longitude": 12.5653
}
},
{
"Name": "København C",
"PostCode": "0900",
"Location": {
"Latitude": 57.048,
"Longitude": 9.9187
}
},
{
"Name": "København C",
"PostCode": "0999",
"Location": {
"Latitude": 57.7209,
"Longitude": 10.5839
}
},
{
"Name": "København K",
"PostCode": "1001",
"Location": {
"Latitude": 55.6759,
"Longitude": 12.5655
}
},
{
"Name": "København K",
"PostCode": "1002",
"Location": {
"Latitude": 55.6759,
"Longitude": 12.5655
}
},
{
"Name": "København K",
"PostCode": "1003",
"Location": {
"Latitude": 55.6759,
"Longitude": 12.5655
}
},
{
"Name": "København K",
"PostCode": "1004",
"Location": {
"Latitude": 55.6759,
"Longitude": 12.5655
}
},
{
"Name": "København K",
"PostCode": "1005",
"Location": {
"Latitude": 55.6759,
"Longitude": 12.5655
}
},
{
"Name": "København K",
"PostCode": "1006",
"Location": {
"Latitude": 55.6759,
"Longitude": 12.5655
}
},
{
"Name": "København K",
"PostCode": "1007",
"Location": {
"Latitude": 55.6759,
"Longitude": 12.5655
}
},
{
"Name": "København K",
"PostCode": "1008",
"Location": {
"Latitude": 55.6759,
"Longitude": 12.5655
}
},
{
"Name": "København K",
"PostCode": "1009",
"Location": {
"Latitude": 55.6759,
"Longitude": 12.5655
}
},
{
"Name": "København K",
"PostCode": "1010",
"Location": {
"Latitude": 55.6759,
"Longitude": 12.5655
}
},
{
"Name": "København K",
"PostCode": "1011",
"Location": {
"Latitude": 55.6759,
"Longitude": 12.5655
}
},
{
"Name": "København K",
"PostCode": "1012",
"Location": {
"Latitude": 55.6759,
"Longitude": 12.5655
}
},
{
"Name": "København K",
"PostCode": "1013",
"Location": {
"Latitude": 55.6759,
"Longitude": 12.5655
}
},
{
"Name": "København K",
"PostCode": "1014",
"Location": {
"Latitude": 55.6759,
"Longitude": 12.5655
}
},
{
"Name": "København K",
"PostCode": "1015",
"Location": {
"Latitude": 55.6759,
"Longitude": 12.5655
}
},
{
"Name": "København K",
"PostCode": "1016",
"Location": {
"Latitude": 55.6759,
"Longitude": 12.5655
}
},
{
"Name": "København K",
"PostCode": "1017",
"Location": {
"Latitude": 55.6759,
"Longitude": 12.5655
}
},
{
"Name": "København K",
"PostCode": "1018",
"Location": {
"Latitude": 55.6759,
"Longitude": 12.5655
}
},
{
"Name": "København K",
"PostCode": "1019",
"Location": {
"Latitude": 55.6759,
"Longitude": 12.5655
}
},
{
"Name": "København K",
"PostCode": "1020",
"Location": {
"Latitude": 55.6759,
"Longitude": 12.5655
}
},
{
"Name": "København K",
"PostCode": "1021",
"Location": {
"Latitude": 55.6759,
"Longitude": 12.5655
}
},
{
"Name": "København K",
"PostCode": "1022",
"Location": {
"Latitude": 55.6759,
"Longitude": 12.5655
}
},
{
"Name": "København K",
"PostCode": "1023",
"Location": {
"Latitude": 55.6759,
"Longitude": 12.5655
}
},
{
"Name": "København K",
"PostCode": "1024",
"Location": {
"Latitude": 55.6759,
"Longitude": 12.5655
}
},
{
"Name": "København K",
"PostCode": "1025",
"Location": {
"Latitude": 55.6759,
"Longitude": 12.5655
}
},
{
"Name": "København K",
"PostCode": "1026",
"Location": {
"Latitude": 55.6759,
"Longitude": 12.5655
}
},
{
"Name": "København K",
"PostCode": "1092",
"Location": {
"Latitude": 55.6759,
"Longitude": 12.5655
}
},
{
"Name": "København K",
"PostCode": "1093",
"Location": {
"Latitude": 55.6759,
"Longitude": 12.5655
}
},
{
"Name": "København K",
"PostCode": "1095",
"Location": {
"Latitude": 55.6759,
"Longitude": 12.5655
}
},
{
"Name": "København K",
"PostCode": "1098",
"Location": {
"Latitude": 55.6759,
"Longitude": 12.5655
}
},
{
"Name": "København K",
"PostCode": "1140",
"Location": {
"Latitude": 55.6759,
"Longitude": 12.5655
}
},
{
"Name": "København K",
"PostCode": "1147",
"Location": {
"Latitude": 55.6759,
"Longitude": 12.5655
}
},
{
"Name": "København K",
"PostCode": "1148",
"Location": {
"Latitude": 55.6759,
"Longitude": 12.5655
}
},
{
"Name": "København K",
"PostCode": "1217",
"Location": {
"Latitude": 55.6759,
"Longitude": 12.5655
}
},
{
"Name": "København K",
"PostCode": "1240",
"Location": {
"Latitude": 55.6759,
"Longitude": 12.5655
}
},
{
"Name": "København K",
"PostCode": "1448",
"Location": {
"Latitude": 55.6759,
"Longitude": 12.5655
}
},
{
"Name": "København V",
"PostCode": "1500",
"Location": {
"Latitude": 55.6759,
"Longitude": 12.5655
}
},
{
"Name": "København V",
"PostCode": "1501",
"Location": {
"Latitude": 55.6759,
"Longitude": 12.5655
}
},
{
"Name": "København V",
"PostCode": "1502",
"Location": {
"Latitude": 55.6759,
"Longitude": 12.5655
}
},
{
"Name": "København V",
"PostCode": "1503",
"Location": {
"Latitude": 55.6759,
"Longitude": 12.5655
}
},
{
"Name": "København V",
"PostCode": "1504",
"Location": {
"Latitude": 55.6759,
"Longitude": 12.5655
}
},
{
"Name": "København V",
"PostCode": "1505",
"Location": {
"Latitude": 55.6759,
"Longitude": 12.5655
}
},
{
"Name": "København V",
"PostCode": "1506",
"Location": {
"Latitude": 55.6759,
"Longitude": 12.5655
}
},
{
"Name": "København V",
"PostCode": "1507",
"Location": {
"Latitude": 55.6759,
"Longitude": 12.5655
}
},
{
"Name": "København V",
"PostCode": "1508",
"Location": {
"Latitude": 55.6759,
"Longitude": 12.5655
}
},
{
"Name": "København V",
"PostCode": "1509",
"Location": {
"Latitude": 55.6759,
"Longitude": 12.5655
}
},
{
"Name": "København V",
"PostCode": "1510",
"Location": {
"Latitude": 55.6759,
"Longitude": 12.5655
}
},
{
"Name": "København V",
"PostCode": "1592",
"Location": {
"Latitude": 55.6759,
"Longitude": 12.5655
}
},
{
"Name": "København V",
"PostCode": "1599",
"Location": {
"Latitude": 55.6759,
"Longitude": 12.5655
}
},
{
"Name": "København V",
"PostCode": "1630",
"Location": {
"Latitude": 55.6759,
"Longitude": 12.5655
}
},
{
"Name": "København V",
"PostCode": "1780",
"Location": {
"Latitude": 55.6759,
"Longitude": 12.5655
}
},
{
"Name": "København V",
"PostCode": "1785",
"Location": {
"Latitude": 55.6759,
"Longitude": 12.5655
}
},
{
"Name": "København V",
"PostCode": "1786",
"Location": {
"Latitude": 55.6759,
"Longitude": 12.5655
}
},
{
"Name": "København V",
"PostCode": "1787",
"Location": {
"Latitude": 55.6759,
"Longitude": 12.5655
}
},
{
"Name": "København V",
"PostCode": "1790",
"Location": {
"Latitude": 55.6759,
"Longitude": 12.5655
}
},
{
"Name": "Udland",
"PostCode": "0960",
"Location": {
"Latitude": 56.804,
"Longitude": 9.5144
}
}
]
}
]
},
{
"Name": "Frederiksberg Kommune",
"Code": "147",
"PostCode": "1835",
"Communities": [
{
"Places": [
{
"Name": "Frederiksberg C",
"PostCode": "1835",
"Location": {
"Latitude": 55.6794,
"Longitude": 12.5346
}
}
],
"PostCode": "1835"
}
]
},
{
"Name": "Brøndby Kommune",
"Code": "153",
"PostCode": "0917",
"Communities": [
{
"Places": [
{
"Name": "Københavns Pakkecent",
"PostCode": "0917",
"Location": {
"Latitude": 55.6759,
"Longitude": 12.5655
}
}
],
"PostCode": "0917"
}
]
},
{
"Name": "Høje-Taastrup Kommune",
"Code": "169",
"PostCode": "0800",
"Communities": [
{
"Places": [
{
"Name": "Høje Taastrup",
"PostCode": "0800",
"Location": {
"Latitude": 55.6471,
"Longitude": 12.2742
}
}
],
"PostCode": "0800"
}
]
},
{
"Name": "Tårnby Kommune",
"Code": "185",
"Communities": [
{
"Places": [
{
"Name": "København V",
"PostCode": "1532",
"Location": {
"Latitude": 55.6759,
"Longitude": 12.5655
}
},
{
"Name": "København V",
"PostCode": "1533",
"Location": {
"Latitude": 55.6759,
"Longitude": 12.5655
}
}
]
}
]
}
]
}
]