[
{
"Name": "Region Nordjylland",
"Code": "81",
"Provinces": [
{
"Name": "Morsø Kommune",
"Code": "773",
"Communities": [
{
"Places": [
{
"Name": "Erslev",
"PostCode": "7950",
"LatLong": "56.8298,8.7501"
},
{
"Name": "Karby",
"PostCode": "7960",
"LatLong": "56.7536,8.5613"
},
{
"Name": "Nykøbing M",
"PostCode": "7900",
"LatLong": "56.7619,8.6836"
},
{
"Name": "Øster Assels",
"PostCode": "7990",
"LatLong": "56.7011,8.6946"
},
{
"Name": "Redsted M",
"PostCode": "7970",
"LatLong": "56.7619,8.6836"
},
{
"Name": "Vils",
"PostCode": "7980",
"LatLong": "56.7631,8.7286"
}
]
}
]
},
{
"Name": "Thisted Kommune",
"Code": "787",
"Communities": [
{
"Places": [
{
"Name": "Bedsted Thy",
"PostCode": "7755",
"LatLong": "56.8924,8.5244"
},
{
"Name": "Frøstrup",
"PostCode": "7741",
"LatLong": "57.0867,8.9958"
},
{
"Name": "Hanstholm",
"PostCode": "7730",
"LatLong": "57.1167,8.6167"
},
{
"Name": "Hurup Thy",
"PostCode": "7760",
"LatLong": "56.7494,8.4195"
},
{
"Name": "Snedsted",
"PostCode": "7752",
"LatLong": "56.8924,8.5244"
},
{
"Name": "Thisted",
"PostCode": "7700",
"LatLong": "56.9552,8.6949"
},
{
"Name": "Vesløs",
"PostCode": "7742",
"LatLong": "57.0383,8.9746"
},
{
"Name": "Vestervig",
"PostCode": "7770",
"LatLong": "56.7628,8.3194"
}
]
}
]
},
{
"Name": "Brønderslev Kommune",
"Code": "810",
"Communities": [
{
"Places": [
{
"Name": "Aabybro",
"PostCode": "9440",
"LatLong": "57.1584,9.7367"
},
{
"Name": "Asaa",
"PostCode": "9340",
"LatLong": "57.1487,10.4037"
},
{
"Name": "Brønderslev",
"PostCode": "9700",
"LatLong": "57.2702,9.941"
},
{
"Name": "Dronninglund",
"PostCode": "9330",
"LatLong": "57.1604,10.2929"
},
{
"Name": "Dybvad",
"PostCode": "9352",
"LatLong": "57.272,10.3595"
},
{
"Name": "Hals",
"PostCode": "9370",
"LatLong": "56.9961,10.3081"
},
{
"Name": "Hjallerup",
"PostCode": "9320",
"LatLong": "57.1647,10.1457"
},
{
"Name": "Jerslev J",
"PostCode": "9740",
"LatLong": "57.323,10.0722"
},
{
"Name": "Løkken",
"PostCode": "9480",
"LatLong": "57.3705,9.7147"
},
{
"Name": "Østervrå",
"PostCode": "9750",
"LatLong": "57.3417,10.2401"
},
{
"Name": "Tylstrup",
"PostCode": "9382",
"LatLong": "57.1947,9.9531"
},
{
"Name": "Vrå",
"PostCode": "9760",
"LatLong": "57.3476,9.9515"
}
]
}
]
},
{
"Name": "Frederikshavn Kommune",
"Code": "813",
"Communities": [
{
"Places": [
{
"Name": "Ålbæk",
"PostCode": "9982",
"LatLong": "57.5925,10.4046"
},
{
"Name": "Asaa",
"PostCode": "9340",
"LatLong": "57.1487,10.4037"
},
{
"Name": "Bindslev",
"PostCode": "9881",
"LatLong": "57.5521,10.2036"
},
{
"Name": "Dronninglund",
"PostCode": "9330",
"LatLong": "57.1604,10.2929"
},
{
"Name": "Dybvad",
"PostCode": "9352",
"LatLong": "57.272,10.3595"
},
{
"Name": "Frederikshavn",
"PostCode": "9900",
"LatLong": "57.4407,10.5366"
},
{
"Name": "Jerup",
"PostCode": "9981",
"LatLong": "57.5343,10.4166"
},
{
"Name": "Østervrå",
"PostCode": "9750",
"LatLong": "57.3417,10.2401"
},
{
"Name": "Sæby",
"PostCode": "9300",
"LatLong": "57.3319,10.5225"
},
{
"Name": "Sindal",
"PostCode": "9870",
"LatLong": "57.4712,10.2031"
},
{
"Name": "Skagen",
"PostCode": "9990",
"LatLong": "57.7209,10.5839"
},
{
"Name": "Strandby",
"PostCode": "9970",
"LatLong": "57.4915,10.4961"
},
{
"Name": "Tårs",
"PostCode": "9830",
"LatLong": "57.3833,10.1167"
}
]
}
]
},
{
"Name": "Vesthimmerlands Kommune",
"Code": "820",
"Communities": [
{
"Places": [
{
"Name": "Aalestrup",
"PostCode": "9620",
"LatLong": "56.6947,9.4934"
},
{
"Name": "Aars",
"PostCode": "9600",
"LatLong": "56.804,9.5144"
},
{
"Name": "Farsø",
"PostCode": "9640",
"LatLong": "56.7728,9.3393"
},
{
"Name": "Gedsted",
"PostCode": "9631",
"LatLong": "56.6892,9.3367"
},
{
"Name": "Løgstør",
"PostCode": "9670",
"LatLong": "56.9625,9.2583"
},
{
"Name": "Nibe",
"PostCode": "9240",
"LatLong": "56.9815,9.6392"
},
{
"Name": "Nørager",
"PostCode": "9610",
"LatLong": "56.7262,9.5971"
},
{
"Name": "Ranum",
"PostCode": "9681",
"LatLong": "56.8973,9.2287"
},
{
"Name": "Suldrup",
"PostCode": "9541",
"LatLong": "56.8488,9.7006"
}
]
}
]
},
{
"Name": "Læsø Kommune",
"Code": "825",
"Communities": [
{
"Places": [
{
"Name": "Læsø",
"PostCode": "9940",
"LatLong": "57.5448,10.4827"
}
]
}
]
},
{
"Name": "Rebild Kommune",
"Code": "840",
"Communities": [
{
"Places": [
{
"Name": "Aalestrup",
"PostCode": "9620",
"LatLong": "56.6947,9.4934"
},
{
"Name": "Aars",
"PostCode": "9600",
"LatLong": "56.804,9.5144"
},
{
"Name": "Arden",
"PostCode": "9510",
"LatLong": "56.769,9.8618"
},
{
"Name": "Bælum",
"PostCode": "9574",
"LatLong": "56.83,10.1198"
},
{
"Name": "Gistrup",
"PostCode": "9260",
"LatLong": "56.9943,9.9909"
},
{
"Name": "Hadsund",
"PostCode": "9560",
"LatLong": "56.7148,10.1168"
},
{
"Name": "Hobro",
"PostCode": "9500",
"LatLong": "56.6431,9.7903"
},
{
"Name": "Kongerslev",
"PostCode": "9293",
"LatLong": "56.9056,10.1267"
},
{
"Name": "Nibe",
"PostCode": "9240",
"LatLong": "56.9815,9.6392"
},
{
"Name": "Nørager",
"PostCode": "9610",
"LatLong": "56.7262,9.5971"
},
{
"Name": "Skørping",
"PostCode": "9520",
"LatLong": "56.8363,9.8925"
},
{
"Name": "Støvring",
"PostCode": "9530",
"LatLong": "56.8854,9.8384"
},
{
"Name": "Suldrup",
"PostCode": "9541",
"LatLong": "56.8488,9.7006"
},
{
"Name": "Svenstrup J",
"PostCode": "9230",
"LatLong": "56.9733,9.9233"
},
{
"Name": "Terndrup",
"PostCode": "9575",
"LatLong": "56.8139,10.0615"
}
]
}
]
},
{
"Name": "Mariagerfjord Kommune",
"Code": "846",
"Communities": [
{
"Places": [
{
"Name": "Aalestrup",
"PostCode": "9620",
"LatLong": "56.6947,9.4934"
},
{
"Name": "Arden",
"PostCode": "9510",
"LatLong": "56.769,9.8618"
},
{
"Name": "Fårup",
"PostCode": "8990",
"LatLong": "56.3667,10.2494"
},
{
"Name": "Hadsund",
"PostCode": "9560",
"LatLong": "56.7148,10.1168"
},
{
"Name": "Havndal",
"PostCode": "8970",
"LatLong": "56.6525,10.1967"
},
{
"Name": "Hobro",
"PostCode": "9500",
"LatLong": "56.6431,9.7903"
},
{
"Name": "Mariager",
"PostCode": "9550",
"LatLong": "56.6499,9.9751"
},
{
"Name": "Møldrup",
"PostCode": "9632",
"LatLong": "56.6167,9.5011"
}
]
}
]
},
{
"Name": "Jammerbugt Kommune",
"Code": "849",
"Communities": [
{
"Places": [
{
"Name": "Aabybro",
"PostCode": "9440",
"LatLong": "57.1584,9.7367"
},
{
"Name": "Blokhus",
"PostCode": "9492",
"LatLong": "57.248,9.5897"
},
{
"Name": "Brønderslev",
"PostCode": "9700",
"LatLong": "57.2702,9.941"
},
{
"Name": "Brovst",
"PostCode": "9460",
"LatLong": "57.0956,9.528"
},
{
"Name": "Fjerritslev",
"PostCode": "9690",
"LatLong": "57.0813,9.2664"
},
{
"Name": "Løgstør",
"PostCode": "9670",
"LatLong": "56.9625,9.2583"
},
{
"Name": "Løkken",
"PostCode": "9480",
"LatLong": "57.3705,9.7147"
},
{
"Name": "Pandrup",
"PostCode": "9490",
"LatLong": "57.2215,9.6757"
},
{
"Name": "Saltum",
"PostCode": "9493",
"LatLong": "57.2719,9.698"
},
{
"Name": "Sulsted",
"PostCode": "9381",
"LatLong": "57.1634,9.9567"
},
{
"Name": "Tylstrup",
"PostCode": "9382",
"LatLong": "57.1947,9.9531"
},
{
"Name": "Vadum",
"PostCode": "9430",
"LatLong": "57.1179,9.857"
}
]
}
]
},
{
"Name": "Aalborg Kommune",
"Code": "851",
"Communities": [
{
"Places": [
{
"Name": "Aabybro",
"PostCode": "9440",
"LatLong": "57.1584,9.7367"
},
{
"Name": "Aalborg",
"PostCode": "9000",
"LatLong": "57.048,9.9187"
},
{
"Name": "Aalborg Øst",
"PostCode": "9220",
"LatLong": "56.9733,9.9233"
},
{
"Name": "Aalborg SØ",
"PostCode": "9210",
"LatLong": "56.9733,9.9233"
},
{
"Name": "Aalborg SV",
"PostCode": "9200",
"LatLong": "56.9733,9.9233"
},
{
"Name": "Gandrup",
"PostCode": "9362",
"LatLong": "57.0574,10.1814"
},
{
"Name": "Gistrup",
"PostCode": "9260",
"LatLong": "56.9943,9.9909"
},
{
"Name": "Hals",
"PostCode": "9370",
"LatLong": "56.9961,10.3081"
},
{
"Name": "Hjallerup",
"PostCode": "9320",
"LatLong": "57.1647,10.1457"
},
{
"Name": "Klarup",
"PostCode": "9270",
"LatLong": "57.0119,10.0562"
},
{
"Name": "Kongerslev",
"PostCode": "9293",
"LatLong": "56.9056,10.1267"
},
{
"Name": "Nibe",
"PostCode": "9240",
"LatLong": "56.9815,9.6392"
},
{
"Name": "Nørresundby",
"PostCode": "9400",
"LatLong": "57.0483,9.9352"
},
{
"Name": "Storvorde",
"PostCode": "9280",
"LatLong": "57.0039,10.1013"
},
{
"Name": "Støvring",
"PostCode": "9530",
"LatLong": "56.8854,9.8384"
},
{
"Name": "Sulsted",
"PostCode": "9381",
"LatLong": "57.1634,9.9567"
},
{
"Name": "Svenstrup J",
"PostCode": "9230",
"LatLong": "56.9733,9.9233"
},
{
"Name": "Tylstrup",
"PostCode": "9382",
"LatLong": "57.1947,9.9531"
},
{
"Name": "Vadum",
"PostCode": "9430",
"LatLong": "57.1179,9.857"
},
{
"Name": "Vestbjerg",
"PostCode": "9380",
"LatLong": "57.1317,9.9594"
},
{
"Name": "Vodskov",
"PostCode": "9310",
"LatLong": "57.1085,10.0222"
}
]
}
]
},
{
"Name": "Hjørring Kommune",
"Code": "860",
"Communities": [
{
"Places": [
{
"Name": "Ålbæk",
"PostCode": "9982",
"LatLong": "57.5925,10.4046"
},
{
"Name": "Bindslev",
"PostCode": "9881",
"LatLong": "57.5521,10.2036"
},
{
"Name": "Frederikshavn",
"PostCode": "9900",
"LatLong": "57.4407,10.5366"
},
{
"Name": "Hirtshals",
"PostCode": "9850",
"LatLong": "57.5881,9.9592"
},
{
"Name": "Hjørring",
"PostCode": "9800",
"LatLong": "57.4642,9.9823"
},
{
"Name": "Jerslev J",
"PostCode": "9740",
"LatLong": "57.323,10.0722"
},
{
"Name": "Løkken",
"PostCode": "9480",
"LatLong": "57.3705,9.7147"
},
{
"Name": "Østervrå",
"PostCode": "9750",
"LatLong": "57.3417,10.2401"
},
{
"Name": "Sindal",
"PostCode": "9870",
"LatLong": "57.4712,10.2031"
},
{
"Name": "Tårs",
"PostCode": "9830",
"LatLong": "57.3833,10.1167"
},
{
"Name": "Vrå",
"PostCode": "9760",
"LatLong": "57.3476,9.9515"
}
]
}
]
}
]
},
{
"Name": "Region Midtjylland",
"Code": "82",
"Provinces": [
{
"Name": "Horsens Kommune",
"Code": "615",
"Communities": [
{
"Places": [
{
"Name": "Brædstrup",
"PostCode": "8740",
"LatLong": "55.9715,9.6113"
},
{
"Name": "Bryrup",
"PostCode": "8654",
"LatLong": "56.0228,9.5183"
},
{
"Name": "Flemming",
"PostCode": "8762",
"LatLong": "55.8687,9.6675"
},
{
"Name": "Gedved",
"PostCode": "8751",
"LatLong": "55.9308,9.846"
},
{
"Name": "Hornsyld",
"PostCode": "8783",
"LatLong": "55.7526,9.8512"
},
{
"Name": "Horsens",
"PostCode": "8700",
"LatLong": "55.8607,9.8503"
},
{
"Name": "Hovedgård",
"PostCode": "8732",
"LatLong": "55.9417,9.955"
},
{
"Name": "Klovborg",
"PostCode": "8765",
"LatLong": "55.9319,9.491"
},
{
"Name": "Østbirk",
"PostCode": "8752",
"LatLong": "55.9648,9.7556"
},
{
"Name": "Ry",
"PostCode": "8680",
"LatLong": "56.0904,9.7651"
},
{
"Name": "Skanderborg",
"PostCode": "8660",
"LatLong": "56.0399,9.9272"
},
{
"Name": "Stenderup",
"PostCode": "8781",
"LatLong": "55.7921,9.8097"
}
]
}
]
},
{
"Name": "Herning Kommune",
"Code": "657",
"Communities": [
{
"Places": [
{
"Name": "Aulum",
"PostCode": "7490",
"LatLong": "56.2654,8.7926"
},
{
"Name": "Brande",
"PostCode": "7330",
"LatLong": "55.9381,9.1218"
},
{
"Name": "Haderup",
"PostCode": "7540",
"LatLong": "56.3896,8.9943"
},
{
"Name": "Herning",
"PostCode": "7400",
"LatLong": "56.1393,8.9738"
},
{
"Name": "Holstebro",
"PostCode": "7500",
"LatLong": "56.3601,8.6161"
},
{
"Name": "Karup J",
"PostCode": "7470",
"LatLong": "56.1757,9.0321"
},
{
"Name": "Kibæk",
"PostCode": "6933",
"LatLong": "56.0317,8.857"
},
{
"Name": "Ørnhøj",
"PostCode": "6973",
"LatLong": "56.1987,8.5645"
},
{
"Name": "Sønder Felding",
"PostCode": "7280",
"LatLong": "55.9376,8.7794"
},
{
"Name": "Sønder Omme",
"PostCode": "7260",
"LatLong": "55.8398,8.8972"
},
{
"Name": "Sørvad",
"PostCode": "7550",
"LatLong": "56.2629,8.6563"
},
{
"Name": "Stakroge",
"PostCode": "7270",
"LatLong": "55.8901,8.8473"
},
{
"Name": "Sunds",
"PostCode": "7451",
"LatLong": "56.2042,9.0127"
},
{
"Name": "Ulfborg",
"PostCode": "6990",
"LatLong": "56.2673,8.3217"
},
{
"Name": "Vildbjerg",
"PostCode": "7480",
"LatLong": "56.2,8.7667"
},
{
"Name": "Vinderup",
"PostCode": "7830",
"LatLong": "56.4751,8.7908"
}
]
}
]
},
{
"Name": "Holstebro Kommune",
"Code": "661",
"Communities": [
{
"Places": [
{
"Name": "Haderup",
"PostCode": "7540",
"LatLong": "56.3896,8.9943"
},
{
"Name": "Hjerm",
"PostCode": "7560",
"LatLong": "56.4384,8.6345"
},
{
"Name": "Holstebro",
"PostCode": "7500",
"LatLong": "56.3601,8.6161"
},
{
"Name": "Skive",
"PostCode": "7800",
"LatLong": "56.5638,9.0402"
},
{
"Name": "Struer",
"PostCode": "7600",
"LatLong": "56.4912,8.5838"
},
{
"Name": "Ulfborg",
"PostCode": "6990",
"LatLong": "56.2673,8.3217"
},
{
"Name": "Vemb",
"PostCode": "7570",
"LatLong": "56.3423,8.3375"
},
{
"Name": "Vinderup",
"PostCode": "7830",
"LatLong": "56.4751,8.7908"
}
]
}
]
},
{
"Name": "Lemvig Kommune",
"Code": "665",
"Communities": [
{
"Places": [
{
"Name": "Bækmarksbro",
"PostCode": "7660",
"LatLong": "56.4153,8.307"
},
{
"Name": "Bøvlingbjerg",
"PostCode": "7650",
"LatLong": "56.4353,8.2029"
},
{
"Name": "Harboøre",
"PostCode": "7673",
"LatLong": "56.6175,8.1807"
},
{
"Name": "Lemvig",
"PostCode": "7620",
"LatLong": "56.5486,8.3102"
},
{
"Name": "Struer",
"PostCode": "7600",
"LatLong": "56.4912,8.5838"
},
{
"Name": "Thyborøn",
"PostCode": "7680",
"LatLong": "56.6985,8.2124"
},
{
"Name": "Ulfborg",
"PostCode": "6990",
"LatLong": "56.2673,8.3217"
},
{
"Name": "Vemb",
"PostCode": "7570",
"LatLong": "56.3423,8.3375"
}
]
}
]
},
{
"Name": "Struer Kommune",
"Code": "671",
"Communities": [
{
"Places": [
{
"Name": "Bækmarksbro",
"PostCode": "7660",
"LatLong": "56.4153,8.307"
},
{
"Name": "Hjerm",
"PostCode": "7560",
"LatLong": "56.4384,8.6345"
},
{
"Name": "Holstebro",
"PostCode": "7500",
"LatLong": "56.3601,8.6161"
},
{
"Name": "Hurup Thy",
"PostCode": "7760",
"LatLong": "56.7494,8.4195"
},
{
"Name": "Struer",
"PostCode": "7600",
"LatLong": "56.4912,8.5838"
},
{
"Name": "Thyholm",
"PostCode": "7790",
"LatLong": "56.9189,8.6206"
},
{
"Name": "Vinderup",
"PostCode": "7830",
"LatLong": "56.4751,8.7908"
}
]
}
]
},
{
"Name": "Syddjurs Kommune",
"Code": "706",
"Communities": [
{
"Places": [
{
"Name": "Auning",
"PostCode": "8963",
"LatLong": "56.4308,10.3782"
},
{
"Name": "Balle",
"PostCode": "8444",
"LatLong": "56.2963,10.2589"
},
{
"Name": "Ebeltoft",
"PostCode": "8400",
"LatLong": "56.1944,10.6821"
},
{
"Name": "Hornslet",
"PostCode": "8543",
"LatLong": "56.3155,10.3204"
},
{
"Name": "Knebel",
"PostCode": "8420",
"LatLong": "56.2141,10.4886"
},
{
"Name": "Kolind",
"PostCode": "8560",
"LatLong": "56.3606,10.5836"
},
{
"Name": "Mørke",
"PostCode": "8544",
"LatLong": "56.3345,10.3819"
},
{
"Name": "Nimtofte",
"PostCode": "8581",
"LatLong": "56.408,10.5686"
},
{
"Name": "Rønde",
"PostCode": "8410",
"LatLong": "56.3015,10.4751"
},
{
"Name": "Ryomgård",
"PostCode": "8550",
"LatLong": "56.3843,10.503"
},
{
"Name": "Trustrup",
"PostCode": "8570",
"LatLong": "56.3493,10.7739"
}
]
}
]
},
{
"Name": "Norddjurs Kommune",
"Code": "707",
"Communities": [
{
"Places": [
{
"Name": "Allingåbro",
"PostCode": "8961",
"LatLong": "56.4649,10.3341"
},
{
"Name": "Anholt",
"PostCode": "8592",
"LatLong": "56.3671,10.5325"
},
{
"Name": "Auning",
"PostCode": "8963",
"LatLong": "56.4308,10.3782"
},
{
"Name": "Balle",
"PostCode": "8444",
"LatLong": "56.2963,10.2589"
},
{
"Name": "Glesborg",
"PostCode": "8585",
"LatLong": "56.4775,10.7233"
},
{
"Name": "Grenaa",
"PostCode": "8500",
"LatLong": "56.4158,10.8782"
},
{
"Name": "Kolind",
"PostCode": "8560",
"LatLong": "56.3606,10.5836"
},
{
"Name": "Nimtofte",
"PostCode": "8581",
"LatLong": "56.408,10.5686"
},
{
"Name": "Ørsted",
"PostCode": "8950",
"LatLong": "56.502,10.3372"
},
{
"Name": "Ørum Djurs",
"PostCode": "8586",
"LatLong": "56.4312,10.6202"
},
{
"Name": "Ryomgård",
"PostCode": "8550",
"LatLong": "56.3843,10.503"
},
{
"Name": "Trustrup",
"PostCode": "8570",
"LatLong": "56.3493,10.7739"
}
]
}
]
},
{
"Name": "Favrskov Kommune",
"Code": "710",
"Communities": [
{
"Places": [
{
"Name": "Bjerringbro",
"PostCode": "8850",
"LatLong": "56.378,9.6607"
},
{
"Name": "Fårvang",
"PostCode": "8882",
"LatLong": "56.2675,9.7278"
},
{
"Name": "Hadsten",
"PostCode": "8370",
"LatLong": "56.3282,10.0493"
},
{
"Name": "Hammel",
"PostCode": "8450",
"LatLong": "56.2576,9.8632"
},
{
"Name": "Hinnerup",
"PostCode": "8382",
"LatLong": "56.2661,10.063"
},
{
"Name": "Langå",
"PostCode": "8870",
"LatLong": "56.3903,9.8949"
},
{
"Name": "Randers SØ",
"PostCode": "8960",
"LatLong": "56.4422,10.3635"
},
{
"Name": "Randers SV",
"PostCode": "8940",
"LatLong": "56.4893,10.262"
},
{
"Name": "Sabro",
"PostCode": "8471",
"LatLong": "56.2133,10.0344"
},
{
"Name": "Sorring",
"PostCode": "8641",
"LatLong": "56.1769,9.7758"
},
{
"Name": "Sporup",
"PostCode": "8472",
"LatLong": "56.2133,10.0344"
},
{
"Name": "Thorsø",
"PostCode": "8881",
"LatLong": "56.2995,9.7892"
},
{
"Name": "Trige",
"PostCode": "8380",
"LatLong": "56.2529,10.1484"
},
{
"Name": "Ulstrup",
"PostCode": "8860",
"LatLong": "56.3899,9.7935"
}
]
}
]
},
{
"Name": "Odder Kommune",
"Code": "727",
"Communities": [
{
"Places": [
{
"Name": "Hundslund",
"PostCode": "8350",
"LatLong": "55.916,10.0521"
},
{
"Name": "Malling",
"PostCode": "8340",
"LatLong": "56.0363,10.1963"
},
{
"Name": "Odder",
"PostCode": "8300",
"LatLong": "55.9731,10.153"
},
{
"Name": "Skanderborg",
"PostCode": "8660",
"LatLong": "56.0399,9.9272"
}
]
}
]
},
{
"Name": "Randers Kommune",
"Code": "730",
"Communities": [
{
"Places": [
{
"Name": "Fårup",
"PostCode": "8990",
"LatLong": "56.3667,10.2494"
},
{
"Name": "Gjerlev J",
"PostCode": "8983",
"LatLong": "56.537,10.0379"
},
{
"Name": "Havndal",
"PostCode": "8970",
"LatLong": "56.6525,10.1967"
},
{
"Name": "Langå",
"PostCode": "8870",
"LatLong": "56.3903,9.8949"
},
{
"Name": "Mariager",
"PostCode": "9550",
"LatLong": "56.6499,9.9751"
},
{
"Name": "Randers C",
"PostCode": "8900",
"LatLong": "56.4893,10.262"
},
{
"Name": "Randers NØ",
"PostCode": "8930",
"LatLong": "56.4893,10.262"
},
{
"Name": "Randers NV",
"PostCode": "8920",
"LatLong": "56.4893,10.262"
},
{
"Name": "Randers SØ",
"PostCode": "8960",
"LatLong": "56.4422,10.3635"
},
{
"Name": "Randers SV",
"PostCode": "8940",
"LatLong": "56.4893,10.262"
},
{
"Name": "Spentrup",
"PostCode": "8981",
"LatLong": "56.537,10.0379"
},
{
"Name": "Ulstrup",
"PostCode": "8860",
"LatLong": "56.3899,9.7935"
}
]
}
]
},
{
"Name": "Silkeborg Kommune",
"Code": "740",
"Communities": [
{
"Places": [
{
"Name": "Ans By",
"PostCode": "8643",
"LatLong": "56.1769,9.7758"
},
{
"Name": "Bording",
"PostCode": "7441",
"LatLong": "56.1441,9.2765"
},
{
"Name": "Brædstrup",
"PostCode": "8740",
"LatLong": "55.9715,9.6113"
},
{
"Name": "Bryrup",
"PostCode": "8654",
"LatLong": "56.0228,9.5183"
},
{
"Name": "Engesvang",
"PostCode": "7442",
"LatLong": "56.1707,9.3495"
},
{
"Name": "Fårvang",
"PostCode": "8882",
"LatLong": "56.2675,9.7278"
},
{
"Name": "Gjern",
"PostCode": "8883",
"LatLong": "56.2302,9.7391"
},
{
"Name": "Hammel",
"PostCode": "8450",
"LatLong": "56.2576,9.8632"
},
{
"Name": "Hampen",
"PostCode": "7362",
"LatLong": "56.019,9.3551"
},
{
"Name": "Karup J",
"PostCode": "7470",
"LatLong": "56.1757,9.0321"
},
{
"Name": "Kjellerup",
"PostCode": "8620",
"LatLong": "56.2858,9.4353"
},
{
"Name": "Lemming",
"PostCode": "8632",
"LatLong": "56.2405,9.5473"
},
{
"Name": "Rødkærsbro",
"PostCode": "8840",
"LatLong": "56.3531,9.5051"
},
{
"Name": "Ry",
"PostCode": "8680",
"LatLong": "56.0904,9.7651"
},
{
"Name": "Silkeborg",
"PostCode": "8600",
"LatLong": "56.1697,9.5451"
},
{
"Name": "Sorring",
"PostCode": "8641",
"LatLong": "56.1769,9.7758"
},
{
"Name": "Sporup",
"PostCode": "8472",
"LatLong": "56.2133,10.0344"
},
{
"Name": "Them",
"PostCode": "8653",
"LatLong": "56.0943,9.5487"
},
{
"Name": "Thorsø",
"PostCode": "8881",
"LatLong": "56.2995,9.7892"
},
{
"Name": "Viborg",
"PostCode": "8800",
"LatLong": "56.4532,9.402"
}
]
}
]
},
{
"Name": "Samsø Kommune",
"Code": "741",
"Communities": [
{
"Places": [
{
"Name": "Samsø",
"PostCode": "8305",
"LatLong": "55.8796,10.6076"
}
]
}
]
},
{
"Name": "Skanderborg Kommune",
"Code": "746",
"Communities": [
{
"Places": [
{
"Name": "Galten",
"PostCode": "8464",
"LatLong": "56.35,10.05"
},
{
"Name": "Gedved",
"PostCode": "8751",
"LatLong": "55.9308,9.846"
},
{
"Name": "Hørning",
"PostCode": "8362",
"LatLong": "56.087,10.0372"
},
{
"Name": "Låsby",
"PostCode": "8670",
"LatLong": "56.1502,9.8068"
},
{
"Name": "Ry",
"PostCode": "8680",
"LatLong": "56.0904,9.7651"
},
{
"Name": "Sabro",
"PostCode": "8471",
"LatLong": "56.2133,10.0344"
},
{
"Name": "Silkeborg",
"PostCode": "8600",
"LatLong": "56.1697,9.5451"
},
{
"Name": "Skanderborg",
"PostCode": "8660",
"LatLong": "56.0399,9.9272"
},
{
"Name": "Sporup",
"PostCode": "8472",
"LatLong": "56.2133,10.0344"
}
]
}
]
},
{
"Name": "Aarhus Kommune",
"Code": "751",
"Communities": [
{
"Places": [
{
"Name": "Aarhus C",
"PostCode": "8000",
"LatLong": "56.1567,10.2108"
},
{
"Name": "Aarhus N",
"PostCode": "8200",
"LatLong": "56.1663,10.1987"
},
{
"Name": "Aarhus V",
"PostCode": "8210",
"LatLong": "56.1663,10.1987"
},
{
"Name": "Åbyhøj",
"PostCode": "8230",
"LatLong": "56.1563,10.1653"
},
{
"Name": "Beder",
"PostCode": "8330",
"LatLong": "56.0602,10.2118"
},
{
"Name": "Brabrand",
"PostCode": "8220",
"LatLong": "56.1531,10.1057"
},
{
"Name": "Egå",
"PostCode": "8250",
"LatLong": "56.2136,10.2644"
},
{
"Name": "Galten",
"PostCode": "8464",
"LatLong": "56.35,10.05"
},
{
"Name": "Harlev J",
"PostCode": "8462",
"LatLong": "56.35,10.05"
},
{
"Name": "Hasselager",
"PostCode": "8361",
"LatLong": "56.1007,10.1065"
},
{
"Name": "Hinnerup",
"PostCode": "8382",
"LatLong": "56.2661,10.063"
},
{
"Name": "Hjortshøj",
"PostCode": "8530",
"LatLong": "56.2481,10.2653"
},
{
"Name": "Højbjerg",
"PostCode": "8270",
"LatLong": "56.1112,10.2099"
},
{
"Name": "Hørning",
"PostCode": "8362",
"LatLong": "56.087,10.0372"
},
{
"Name": "Hornslet",
"PostCode": "8543",
"LatLong": "56.3155,10.3204"
},
{
"Name": "Lystrup",
"PostCode": "8520",
"LatLong": "56.4984,10.4689"
},
{
"Name": "Malling",
"PostCode": "8340",
"LatLong": "56.0363,10.1963"
},
{
"Name": "Mårslet",
"PostCode": "8320",
"LatLong": "56.0636,10.1623"
},
{
"Name": "Odder",
"PostCode": "8300",
"LatLong": "55.9731,10.153"
},
{
"Name": "Risskov",
"PostCode": "8240",
"LatLong": "56.1972,10.248"
},
{
"Name": "Risskov Ø",
"PostCode": "8245",
"LatLong": "56.1972,10.248"
},
{
"Name": "Sabro",
"PostCode": "8471",
"LatLong": "56.2133,10.0344"
},
{
"Name": "Skanderborg",
"PostCode": "8660",
"LatLong": "56.0399,9.9272"
},
{
"Name": "Skødstrup",
"PostCode": "8541",
"LatLong": "56.2635,10.3041"
},
{
"Name": "Solbjerg",
"PostCode": "8355",
"LatLong": "56.0427,10.0863"
},
{
"Name": "Tilst",
"PostCode": "8381",
"LatLong": "56.1938,10.1128"
},
{
"Name": "Tranbjerg J",
"PostCode": "8310",
"LatLong": "56.0901,10.1194"
},
{
"Name": "Trige",
"PostCode": "8380",
"LatLong": "56.2529,10.1484"
},
{
"Name": "Viby J",
"PostCode": "8260",
"LatLong": "56.1663,10.1987"
}
]
}
]
},
{
"Name": "Ikast-Brande Kommune",
"Code": "756",
"Communities": [
{
"Places": [
{
"Name": "Bording",
"PostCode": "7441",
"LatLong": "56.1441,9.2765"
},
{
"Name": "Brande",
"PostCode": "7330",
"LatLong": "55.9381,9.1218"
},
{
"Name": "Bryrup",
"PostCode": "8654",
"LatLong": "56.0228,9.5183"
},
{
"Name": "Ejstrupholm",
"PostCode": "7361",
"LatLong": "55.9841,9.2818"
},
{
"Name": "Engesvang",
"PostCode": "7442",
"LatLong": "56.1707,9.3495"
},
{
"Name": "Hampen",
"PostCode": "7362",
"LatLong": "56.019,9.3551"
},
{
"Name": "Herning",
"PostCode": "7400",
"LatLong": "56.1393,8.9738"
},
{
"Name": "Ikast",
"PostCode": "7430",
"LatLong": "56.1388,9.1577"
},
{
"Name": "Klovborg",
"PostCode": "8765",
"LatLong": "55.9319,9.491"
},
{
"Name": "Nørre Snede",
"PostCode": "8766",
"LatLong": "55.9644,9.3932"
},
{
"Name": "Silkeborg",
"PostCode": "8600",
"LatLong": "56.1697,9.5451"
},
{
"Name": "Sunds",
"PostCode": "7451",
"LatLong": "56.2042,9.0127"
},
{
"Name": "Tørring",
"PostCode": "7160",
"LatLong": "55.85,9.4833"
}
]
}
]
},
{
"Name": "Ringkøbing-Skjern Kommune",
"Code": "760",
"Communities": [
{
"Places": [
{
"Name": "Hemmet",
"PostCode": "6893",
"LatLong": "55.8502,8.3756"
},
{
"Name": "Herning",
"PostCode": "7400",
"LatLong": "56.1393,8.9738"
},
{
"Name": "Hvide Sande",
"PostCode": "6960",
"LatLong": "56.0045,8.1294"
},
{
"Name": "Kibæk",
"PostCode": "6933",
"LatLong": "56.0317,8.857"
},
{
"Name": "Lem St",
"PostCode": "6940",
"LatLong": "56.1419,8.4606"
},
{
"Name": "Nørre Nebel",
"PostCode": "6830",
"LatLong": "55.7798,8.2952"
},
{
"Name": "Ølgod",
"PostCode": "6870",
"LatLong": "55.8068,8.6286"
},
{
"Name": "Ørnhøj",
"PostCode": "6973",
"LatLong": "56.1987,8.5645"
},
{
"Name": "Ringkøbing",
"PostCode": "6950",
"LatLong": "56.0901,8.244"
},
{
"Name": "Skjern",
"PostCode": "6900",
"LatLong": "55.95,8.5"
},
{
"Name": "Sønder Felding",
"PostCode": "7280",
"LatLong": "55.9376,8.7794"
},
{
"Name": "Spjald",
"PostCode": "6971",
"LatLong": "56.1286,8.5084"
},
{
"Name": "Stakroge",
"PostCode": "7270",
"LatLong": "55.8901,8.8473"
},
{
"Name": "Tarm",
"PostCode": "6880",
"LatLong": "55.9086,8.5304"
},
{
"Name": "Tim",
"PostCode": "6980",
"LatLong": "56.1956,8.3079"
},
{
"Name": "Ulfborg",
"PostCode": "6990",
"LatLong": "56.2673,8.3217"
},
{
"Name": "Videbæk",
"PostCode": "6920",
"LatLong": "56.0876,8.6285"
},
{
"Name": "Vildbjerg",
"PostCode": "7480",
"LatLong": "56.2,8.7667"
}
]
}
]
},
{
"Name": "Hedensted Kommune",
"Code": "766",
"Communities": [
{
"Places": [
{
"Name": "Barrit",
"PostCode": "7150",
"LatLong": "55.7118,9.8904"
},
{
"Name": "Daugård",
"PostCode": "8721",
"LatLong": "55.7351,9.703"
},
{
"Name": "Flemming",
"PostCode": "8762",
"LatLong": "55.8687,9.6675"
},
{
"Name": "Give",
"PostCode": "7323",
"LatLong": "55.8398,9.25"
},
{
"Name": "Hedensted",
"PostCode": "8722",
"LatLong": "55.7704,9.7011"
},
{
"Name": "Hornsyld",
"PostCode": "8783",
"LatLong": "55.7526,9.8512"
},
{
"Name": "Horsens",
"PostCode": "8700",
"LatLong": "55.8607,9.8503"
},
{
"Name": "Juelsminde",
"PostCode": "7130",
"LatLong": "55.7088,10.0167"
},
{
"Name": "Løsning",
"PostCode": "8723",
"LatLong": "55.8024,9.6954"
},
{
"Name": "Nørre Snede",
"PostCode": "8766",
"LatLong": "55.9644,9.3932"
},
{
"Name": "Rask Mølle",
"PostCode": "8763",
"LatLong": "55.8721,9.6135"
},
{
"Name": "Stenderup",
"PostCode": "8781",
"LatLong": "55.7921,9.8097"
},
{
"Name": "Stouby",
"PostCode": "7140",
"LatLong": "55.7025,9.7938"
},
{
"Name": "Tørring",
"PostCode": "7160",
"LatLong": "55.85,9.4833"
},
{
"Name": "Uldum",
"PostCode": "7171",
"LatLong": "55.8471,9.5896"
},
{
"Name": "Vejle",
"PostCode": "7100",
"LatLong": "55.7093,9.5357"
},
{
"Name": "Vejle Øst",
"PostCode": "7120",
"LatLong": "55.758,9.4862"
}
]
}
]
},
{
"Name": "Skive Kommune",
"Code": "779",
"Communities": [
{
"Places": [
{
"Name": "Fur",
"PostCode": "7884",
"LatLong": "56.5537,8.9353"
},
{
"Name": "Højslev",
"PostCode": "7840",
"LatLong": "56.5856,9.1364"
},
{
"Name": "Roslev",
"PostCode": "7870",
"LatLong": "56.7039,8.9864"
},
{
"Name": "Skive",
"PostCode": "7800",
"LatLong": "56.5638,9.0402"
},
{
"Name": "Spøttrup",
"PostCode": "7860",
"LatLong": "56.623,8.7447"
},
{
"Name": "Vinderup",
"PostCode": "7830",
"LatLong": "56.4751,8.7908"
}
]
}
]
},
{
"Name": "Viborg Kommune",
"Code": "791",
"Communities": [
{
"Places": [
{
"Name": "Aalestrup",
"PostCode": "9620",
"LatLong": "56.6947,9.4934"
},
{
"Name": "Ans By",
"PostCode": "8643",
"LatLong": "56.1769,9.7758"
},
{
"Name": "Bjerringbro",
"PostCode": "8850",
"LatLong": "56.378,9.6607"
},
{
"Name": "Gedsted",
"PostCode": "9631",
"LatLong": "56.6892,9.3367"
},
{
"Name": "Haderup",
"PostCode": "7540",
"LatLong": "56.3896,8.9943"
},
{
"Name": "Hobro",
"PostCode": "9500",
"LatLong": "56.6431,9.7903"
},
{
"Name": "Højslev",
"PostCode": "7840",
"LatLong": "56.5856,9.1364"
},
{
"Name": "Karup J",
"PostCode": "7470",
"LatLong": "56.1757,9.0321"
},
{
"Name": "Kjellerup",
"PostCode": "8620",
"LatLong": "56.2858,9.4353"
},
{
"Name": "Løgstrup",
"PostCode": "8831",
"LatLong": "56.5103,9.3354"
},
{
"Name": "Møldrup",
"PostCode": "9632",
"LatLong": "56.6167,9.5011"
},
{
"Name": "Rødkærsbro",
"PostCode": "8840",
"LatLong": "56.3531,9.5051"
},
{
"Name": "Skals",
"PostCode": "8832",
"LatLong": "56.5568,9.4038"
},
{
"Name": "Skive",
"PostCode": "7800",
"LatLong": "56.5638,9.0402"
},
{
"Name": "Stoholm Jyll",
"PostCode": "7850",
"LatLong": "56.5537,8.9353"
},
{
"Name": "Tjele",
"PostCode": "8830",
"LatLong": "56.5118,9.6137"
},
{
"Name": "Ulstrup",
"PostCode": "8860",
"LatLong": "56.3899,9.7935"
},
{
"Name": "Viborg",
"PostCode": "8800",
"LatLong": "56.4532,9.402"
}
]
}
]
}
]
},
{
"Name": "Region Syddanmark",
"Code": "83",
"Provinces": [
{
"Name": "Middelfart Kommune",
"Code": "410",
"Communities": [
{
"Places": [
{
"Name": "Aarup",
"PostCode": "5560",
"LatLong": "55.3732,10.0413"
},
{
"Name": "Asperup",
"PostCode": "5466",
"LatLong": "55.4843,9.908"
},
{
"Name": "Brenderup Fyn",
"PostCode": "5464",
"LatLong": "55.4663,10.0398"
},
{
"Name": "Ejby",
"PostCode": "5592",
"LatLong": "55.4301,9.9297"
},
{
"Name": "Gelsted",
"PostCode": "5591",
"LatLong": "55.3988,9.9731"
},
{
"Name": "Harndrup",
"PostCode": "5463",
"LatLong": "55.4666,10.0216"
},
{
"Name": "Middelfart",
"PostCode": "5500",
"LatLong": "55.382,10.2694"
},
{
"Name": "Nørre Aaby",
"PostCode": "5580",
"LatLong": "55.4611,9.8794"
}
]
}
]
},
{
"Name": "Assens Kommune",
"Code": "420",
"Communities": [
{
"Places": [
{
"Name": "Aarup",
"PostCode": "5560",
"LatLong": "55.3732,10.0413"
},
{
"Name": "Assens",
"PostCode": "5610",
"LatLong": "55.2702,9.9008"
},
{
"Name": "Ebberup",
"PostCode": "5631",
"LatLong": "55.2433,9.9821"
},
{
"Name": "Glamsbjerg",
"PostCode": "5620",
"LatLong": "55.2724,10.1048"
},
{
"Name": "Haarby",
"PostCode": "5683",
"LatLong": "55.215,10.1226"
},
{
"Name": "Millinge",
"PostCode": "5642",
"LatLong": "55.135,10.1994"
},
{
"Name": "Tommerup",
"PostCode": "5690",
"LatLong": "55.3195,10.2066"
},
{
"Name": "Vissenbjerg",
"PostCode": "5492",
"LatLong": "55.3848,10.1378"
}
]
}
]
},
{
"Name": "Faaborg-Midtfyn Kommune",
"Code": "430",
"Communities": [
{
"Places": [
{
"Name": "Årslev",
"PostCode": "5792",
"LatLong": "55.3035,10.4643"
},
{
"Name": "Broby",
"PostCode": "5672",
"LatLong": "55.2107,10.1198"
},
{
"Name": "Faaborg",
"PostCode": "5600",
"LatLong": "55.0951,10.2423"
},
{
"Name": "Ferritslev Fyn",
"PostCode": "5863",
"LatLong": "55.2064,10.6852"
},
{
"Name": "Gislev",
"PostCode": "5854",
"LatLong": "55.2181,10.6022"
},
{
"Name": "Kværndrup",
"PostCode": "5772",
"LatLong": "55.1775,10.5255"
},
{
"Name": "Langeskov",
"PostCode": "5550",
"LatLong": "55.3565,10.5845"
},
{
"Name": "Millinge",
"PostCode": "5642",
"LatLong": "55.135,10.1994"
},
{
"Name": "Ørbæk",
"PostCode": "5853",
"LatLong": "55.2585,10.6708"
},
{
"Name": "Ringe",
"PostCode": "5750",
"LatLong": "55.2451,10.4706"
},
{
"Name": "Ryslinge",
"PostCode": "5856",
"LatLong": "55.2416,10.5367"
},
{
"Name": "Stenstrup",
"PostCode": "5771",
"LatLong": "55.1335,10.5047"
},
{
"Name": "Vester Skerninge",
"PostCode": "5762",
"LatLong": "55.0732,10.4554"
}
]
}
]
},
{
"Name": "Kerteminde Kommune",
"Code": "440",
"Communities": [
{
"Places": [
{
"Name": "Dalby",
"PostCode": "5380",
"LatLong": "55.517,10.6592"
},
{
"Name": "Ferritslev Fyn",
"PostCode": "5863",
"LatLong": "55.2064,10.6852"
},
{
"Name": "Kerteminde",
"PostCode": "5300",
"LatLong": "55.449,10.6577"
},
{
"Name": "Langeskov",
"PostCode": "5550",
"LatLong": "55.3565,10.5845"
},
{
"Name": "Marslev",
"PostCode": "5290",
"LatLong": "55.3902,10.5201"
},
{
"Name": "Martofte",
"PostCode": "5390",
"LatLong": "55.5464,10.6578"
},
{
"Name": "Mesinge",
"PostCode": "5370",
"LatLong": "55.4986,10.647"
},
{
"Name": "Munkebo",
"PostCode": "5330",
"LatLong": "55.4618,10.5558"
},
{
"Name": "Rynkeby",
"PostCode": "5350",
"LatLong": "55.4008,10.6137"
},
{
"Name": "Ullerslev",
"PostCode": "5540",
"LatLong": "55.3617,10.6519"
}
]
}
]
},
{
"Name": "Nyborg Kommune",
"Code": "450",
"Communities": [
{
"Places": [
{
"Name": "Frørup",
"PostCode": "5871",
"LatLong": "55.2424,10.7156"
},
{
"Name": "Hesselager",
"PostCode": "5874",
"LatLong": "55.1755,10.7452"
},
{
"Name": "Langeskov",
"PostCode": "5550",
"LatLong": "55.3565,10.5845"
},
{
"Name": "Nyborg",
"PostCode": "5800",
"LatLong": "55.3127,10.7896"
},
{
"Name": "Ørbæk",
"PostCode": "5853",
"LatLong": "55.2585,10.6708"
},
{
"Name": "Ullerslev",
"PostCode": "5540",
"LatLong": "55.3617,10.6519"
}
]
}
]
},
{
"Name": "Odense Kommune",
"Code": "461",
"Communities": [
{
"Places": [
{
"Name": "Agedrup",
"PostCode": "5320",
"LatLong": "55.4324,10.4888"
},
{
"Name": "Blommenslyst",
"PostCode": "5491",
"LatLong": "55.3895,10.2629"
},
{
"Name": "Munkebo",
"PostCode": "5330",
"LatLong": "55.4618,10.5558"
},
{
"Name": "Odense C",
"PostCode": "5000",
"LatLong": "55.3959,10.3883"
},
{
"Name": "Odense M",
"PostCode": "5230",
"LatLong": "55.3902,10.5201"
},
{
"Name": "Odense N",
"PostCode": "5270",
"LatLong": "55.3902,10.5201"
},
{
"Name": "Odense NØ",
"PostCode": "5240",
"LatLong": "55.3902,10.5201"
},
{
"Name": "Odense NV",
"PostCode": "5210",
"LatLong": "55.3902,10.5201"
},
{
"Name": "Odense S",
"PostCode": "5260",
"LatLong": "55.3902,10.5201"
},
{
"Name": "Odense SØ",
"PostCode": "5220",
"LatLong": "55.3902,10.5201"
},
{
"Name": "Odense SV",
"PostCode": "5250",
"LatLong": "55.3902,10.5201"
},
{
"Name": "Odense V",
"PostCode": "5200",
"LatLong": "55.3902,10.5201"
},
{
"Name": "Vissenbjerg",
"PostCode": "5492",
"LatLong": "55.3848,10.1378"
}
]
}
]
},
{
"Name": "Svendborg Kommune",
"Code": "479",
"Communities": [
{
"Places": [
{
"Name": "Gislev",
"PostCode": "5854",
"LatLong": "55.2181,10.6022"
},
{
"Name": "Gudbjerg Sydfyn",
"PostCode": "5892",
"LatLong": "55.2064,10.6852"
},
{
"Name": "Gudme",
"PostCode": "5884",
"LatLong": "55.1498,10.708"
},
{
"Name": "Hesselager",
"PostCode": "5874",
"LatLong": "55.1755,10.7452"
},
{
"Name": "Kværndrup",
"PostCode": "5772",
"LatLong": "55.1775,10.5255"
},
{
"Name": "Oure",
"PostCode": "5883",
"LatLong": "55.1197,10.7234"
},
{
"Name": "Skårup Fyn",
"PostCode": "5881",
"LatLong": "55.1251,10.7146"
},
{
"Name": "Stenstrup",
"PostCode": "5771",
"LatLong": "55.1335,10.5047"
},
{
"Name": "Svendborg",
"PostCode": "5700",
"LatLong": "55.0598,10.6068"
},
{
"Name": "Vejstrup",
"PostCode": "5882",
"LatLong": "55.1059,10.7124"
},
{
"Name": "Vester Skerninge",
"PostCode": "5762",
"LatLong": "55.0732,10.4554"
}
]
}
]
},
{
"Name": "Nordfyns Kommune",
"Code": "480",
"Communities": [
{
"Places": [
{
"Name": "Aarup",
"PostCode": "5560",
"LatLong": "55.3732,10.0413"
},
{
"Name": "Blommenslyst",
"PostCode": "5491",
"LatLong": "55.3895,10.2629"
},
{
"Name": "Bogense",
"PostCode": "5400",
"LatLong": "55.5669,10.0886"
},
{
"Name": "Morud",
"PostCode": "5462",
"LatLong": "55.4481,10.1896"
},
{
"Name": "Odense N",
"PostCode": "5270",
"LatLong": "55.3902,10.5201"
},
{
"Name": "Otterup",
"PostCode": "5450",
"LatLong": "55.5153,10.3976"
},
{
"Name": "Skamby",
"PostCode": "5485",
"LatLong": "55.5208,10.2749"
},
{
"Name": "Søndersø",
"PostCode": "5471",
"LatLong": "55.4853,10.2554"
},
{
"Name": "Veflinge",
"PostCode": "5474",
"LatLong": "55.4755,10.1602"
},
{
"Name": "Vissenbjerg",
"PostCode": "5492",
"LatLong": "55.3848,10.1378"
}
]
}
]
},
{
"Name": "Langeland Kommune",
"Code": "482",
"Communities": [
{
"Places": [
{
"Name": "Bagenkop",
"PostCode": "5935",
"LatLong": "54.7498,10.676"
},
{
"Name": "Humble",
"PostCode": "5932",
"LatLong": "54.8297,10.6996"
},
{
"Name": "Rudkøbing",
"PostCode": "5900",
"LatLong": "54.9364,10.7102"
},
{
"Name": "Tranekær",
"PostCode": "5953",
"LatLong": "54.9976,10.8438"
}
]
}
]
},
{
"Name": "Ærø Kommune",
"Code": "492",
"Communities": [
{
"Places": [
{
"Name": "Ærøskøbing",
"PostCode": "5970",
"LatLong": "54.888,10.4112"
},
{
"Name": "Marstal",
"PostCode": "5960",
"LatLong": "54.8562,10.5173"
},
{
"Name": "Søby Ærø",
"PostCode": "5985",
"LatLong": "54.8763,10.643"
}
]
}
]
},
{
"Name": "Haderslev Kommune",
"Code": "510",
"Communities": [
{
"Places": [
{
"Name": "Agerskov",
"PostCode": "6534",
"LatLong": "55.1289,9.1355"
},
{
"Name": "Bevtoft",
"PostCode": "6541",
"LatLong": "55.2018,9.2147"
},
{
"Name": "Christiansfeld",
"PostCode": "6070",
"LatLong": "55.3582,9.487"
},
{
"Name": "Gram",
"PostCode": "6510",
"LatLong": "55.2895,9.0491"
},
{
"Name": "Haderslev",
"PostCode": "6100",
"LatLong": "55.2538,9.4898"
},
{
"Name": "Hejls",
"PostCode": "6094",
"LatLong": "55.3831,9.5765"
},
{
"Name": "Rødding",
"PostCode": "6630",
"LatLong": "55.3657,9.0632"
},
{
"Name": "Sommersted",
"PostCode": "6560",
"LatLong": "55.3187,9.2956"
},
{
"Name": "Toftlund",
"PostCode": "6520",
"LatLong": "55.1886,9.0693"
},
{
"Name": "Vojens",
"PostCode": "6500",
"LatLong": "55.2464,9.306"
}
]
}
]
},
{
"Name": "Billund Kommune",
"Code": "530",
"Communities": [
{
"Places": [
{
"Name": "Ansager",
"PostCode": "6823",
"LatLong": "55.7031,8.7586"
},
{
"Name": "Billund",
"PostCode": "7190",
"LatLong": "55.7335,9.1079"
},
{
"Name": "Grindsted",
"PostCode": "7200",
"LatLong": "55.754,8.9123"
},
{
"Name": "Hejnsvig",
"PostCode": "7250",
"LatLong": "55.6953,8.9973"
},
{
"Name": "Hovborg",
"PostCode": "6682",
"LatLong": "55.6081,8.9396"
},
{
"Name": "Sønder Omme",
"PostCode": "7260",
"LatLong": "55.8398,8.8972"
},
{
"Name": "Stakroge",
"PostCode": "7270",
"LatLong": "55.8901,8.8473"
},
{
"Name": "Vorbasse",
"PostCode": "6623",
"LatLong": "55.6299,9.0824"
}
]
}
]
},
{
"Name": "Sønderborg Kommune",
"Code": "540",
"Communities": [
{
"Places": [
{
"Name": "Augustenborg",
"PostCode": "6440",
"LatLong": "54.952,9.8722"
},
{
"Name": "Broager",
"PostCode": "6310",
"LatLong": "54.8874,9.681"
},
{
"Name": "Egernsund",
"PostCode": "6320",
"LatLong": "54.9054,9.6071"
},
{
"Name": "Gråsten",
"PostCode": "6300",
"LatLong": "54.9192,9.5952"
},
{
"Name": "Nordborg",
"PostCode": "6430",
"LatLong": "55.0573,9.7408"
},
{
"Name": "Sønderborg",
"PostCode": "6400",
"LatLong": "54.9093,9.8074"
},
{
"Name": "Sydals",
"PostCode": "6470",
"LatLong": "54.994,9.7903"
}
]
}
]
},
{
"Name": "Tønder Kommune",
"Code": "550",
"Communities": [
{
"Places": [
{
"Name": "Agerskov",
"PostCode": "6534",
"LatLong": "55.1289,9.1355"
},
{
"Name": "Bevtoft",
"PostCode": "6541",
"LatLong": "55.2018,9.2147"
},
{
"Name": "Branderup J",
"PostCode": "6535",
"LatLong": "55.1289,9.1355"
},
{
"Name": "Bredebro",
"PostCode": "6261",
"LatLong": "55.0548,8.8293"
},
{
"Name": "Højer",
"PostCode": "6280",
"LatLong": "54.9634,8.6985"
},
{
"Name": "Løgumkloster",
"PostCode": "6240",
"LatLong": "55.0594,8.9551"
},
{
"Name": "Rømø",
"PostCode": "6792",
"LatLong": "55.1132,8.5428"
},
{
"Name": "Skærbæk",
"PostCode": "6780",
"LatLong": "55.1574,8.769"
},
{
"Name": "Toftlund",
"PostCode": "6520",
"LatLong": "55.1886,9.0693"
},
{
"Name": "Tønder",
"PostCode": "6270",
"LatLong": "54.9331,8.8667"
}
]
}
]
},
{
"Name": "Esbjerg Kommune",
"Code": "561",
"Communities": [
{
"Places": [
{
"Name": "Årre",
"PostCode": "6818",
"LatLong": "55.5725,8.6675"
},
{
"Name": "Bramming",
"PostCode": "6740",
"LatLong": "55.4695,8.7001"
},
{
"Name": "Esbjerg",
"PostCode": "6700",
"LatLong": "55.4703,8.4519"
},
{
"Name": "Esbjerg N",
"PostCode": "6715",
"LatLong": "55.4187,8.6685"
},
{
"Name": "Esbjerg Ø",
"PostCode": "6705",
"LatLong": "55.4703,8.4519"
},
{
"Name": "Esbjerg V",
"PostCode": "6710",
"LatLong": "55.4187,8.6685"
},
{
"Name": "Føvling",
"PostCode": "6683",
"LatLong": "55.4521,8.9396"
},
{
"Name": "Gørding",
"PostCode": "6690",
"LatLong": "55.4746,8.7974"
},
{
"Name": "Gredstedbro",
"PostCode": "6771",
"LatLong": "55.3983,8.7391"
},
{
"Name": "Holsted",
"PostCode": "6670",
"LatLong": "55.5109,8.9187"
},
{
"Name": "Ribe",
"PostCode": "6760",
"LatLong": "55.3305,8.7697"
},
{
"Name": "Tjæreborg",
"PostCode": "6731",
"LatLong": "55.4646,8.5797"
}
]
}
]
},
{
"Name": "Fanø Kommune",
"Code": "563",
"Communities": [
{
"Places": [
{
"Name": "Fanø",
"PostCode": "6720",
"LatLong": "55.435,8.3679"
}
]
}
]
},
{
"Name": "Varde Kommune",
"Code": "573",
"Communities": [
{
"Places": [
{
"Name": "Agerbæk",
"PostCode": "6753",
"LatLong": "55.6,8.8"
},
{
"Name": "Ansager",
"PostCode": "6823",
"LatLong": "55.7031,8.7586"
},
{
"Name": "Årre",
"PostCode": "6818",
"LatLong": "55.5725,8.6675"
},
{
"Name": "Billum",
"PostCode": "6852",
"LatLong": "55.6167,8.3333"
},
{
"Name": "Blåvand",
"PostCode": "6857",
"LatLong": "55.5529,8.1198"
},
{
"Name": "Grindsted",
"PostCode": "7200",
"LatLong": "55.754,8.9123"
},
{
"Name": "Henne",
"PostCode": "6854",
"LatLong": "55.7317,8.2209"
},
{
"Name": "Hovborg",
"PostCode": "6682",
"LatLong": "55.6081,8.9396"
},
{
"Name": "Janderup Vestj",
"PostCode": "6851",
"LatLong": "55.6336,8.2018"
},
{
"Name": "Nørre Nebel",
"PostCode": "6830",
"LatLong": "55.7798,8.2952"
},
{
"Name": "Oksbøl",
"PostCode": "6840",
"LatLong": "55.6268,8.2876"
},
{
"Name": "Ølgod",
"PostCode": "6870",
"LatLong": "55.8068,8.6286"
},
{
"Name": "Outrup",
"PostCode": "6855",
"LatLong": "55.6336,8.2018"
},
{
"Name": "Tarm",
"PostCode": "6880",
"LatLong": "55.9086,8.5304"
},
{
"Name": "Tistrup",
"PostCode": "6862",
"LatLong": "55.7172,8.6043"
},
{
"Name": "Varde",
"PostCode": "6800",
"LatLong": "55.6211,8.4807"
},
{
"Name": "Vejers Strand",
"PostCode": "6853",
"LatLong": "55.6333,8.1333"
}
]
}
]
},
{
"Name": "Vejen Kommune",
"Code": "575",
"Communities": [
{
"Places": [
{
"Name": "Agerbæk",
"PostCode": "6753",
"LatLong": "55.6,8.8"
},
{
"Name": "Bække",
"PostCode": "6622",
"LatLong": "55.5703,9.1397"
},
{
"Name": "Brørup",
"PostCode": "6650",
"LatLong": "55.4819,9.0176"
},
{
"Name": "Føvling",
"PostCode": "6683",
"LatLong": "55.4521,8.9396"
},
{
"Name": "Gesten",
"PostCode": "6621",
"LatLong": "55.5253,9.2076"
},
{
"Name": "Glejbjerg",
"PostCode": "6752",
"LatLong": "55.5667,8.8333"
},
{
"Name": "Gørding",
"PostCode": "6690",
"LatLong": "55.4746,8.7974"
},
{
"Name": "Holsted",
"PostCode": "6670",
"LatLong": "55.5109,8.9187"
},
{
"Name": "Hovborg",
"PostCode": "6682",
"LatLong": "55.6081,8.9396"
},
{
"Name": "Lintrup",
"PostCode": "6660",
"LatLong": "55.5544,8.9278"
},
{
"Name": "Rødding",
"PostCode": "6630",
"LatLong": "55.3657,9.0632"
},
{
"Name": "Vejen",
"PostCode": "6600",
"LatLong": "55.4812,9.1379"
},
{
"Name": "Vorbasse",
"PostCode": "6623",
"LatLong": "55.6299,9.0824"
}
]
}
]
},
{
"Name": "Aabenraa Kommune",
"Code": "580",
"Communities": [
{
"Places": [
{
"Name": "Aabenraa",
"PostCode": "6200",
"LatLong": "55.0443,9.4174"
},
{
"Name": "Agerskov",
"PostCode": "6534",
"LatLong": "55.1289,9.1355"
},
{
"Name": "Bolderslev",
"PostCode": "6392",
"LatLong": "54.9925,9.284"
},
{
"Name": "Bylderup-Bov",
"PostCode": "6372",
"LatLong": "54.9387,9.0857"
},
{
"Name": "Kruså",
"PostCode": "6340",
"LatLong": "54.851,9.4013"
},
{
"Name": "Padborg",
"PostCode": "6330",
"LatLong": "54.8266,9.3625"
},
{
"Name": "Rødekro",
"PostCode": "6230",
"LatLong": "55.0702,9.3164"
},
{
"Name": "Tinglev",
"PostCode": "6360",
"LatLong": "54.931,9.2524"
}
]
}
]
},
{
"Name": "Fredericia Kommune",
"Code": "607",
"Communities": [
{
"Places": [
{
"Name": "Fredericia",
"PostCode": "7000",
"LatLong": "55.5657,9.7526"
},
{
"Name": "Fredericia",
"PostCode": "7007",
"LatLong": "55.5657,9.7526"
}
]
}
]
},
{
"Name": "Kolding Kommune",
"Code": "621",
"Communities": [
{
"Places": [
{
"Name": "Almind",
"PostCode": "6051",
"LatLong": "55.5649,9.487"
},
{
"Name": "Bjert",
"PostCode": "6091",
"LatLong": "55.4077,9.5738"
},
{
"Name": "Christiansfeld",
"PostCode": "6070",
"LatLong": "55.3582,9.487"
},
{
"Name": "Egtved",
"PostCode": "6040",
"LatLong": "55.618,9.301"
},
{
"Name": "Haderslev",
"PostCode": "6100",
"LatLong": "55.2538,9.4898"
},
{
"Name": "Hejls",
"PostCode": "6094",
"LatLong": "55.3831,9.5765"
},
{
"Name": "Jordrup",
"PostCode": "6064",
"LatLong": "55.558,9.3122"
},
{
"Name": "Kolding",
"PostCode": "6000",
"LatLong": "55.4904,9.4722"
},
{
"Name": "Lunderskov",
"PostCode": "6640",
"LatLong": "55.4838,9.2992"
},
{
"Name": "Nordborg",
"PostCode": "6430",
"LatLong": "55.0573,9.7408"
},
{
"Name": "Sjølund",
"PostCode": "6093",
"LatLong": "55.4024,9.5302"
},
{
"Name": "Sommersted",
"PostCode": "6560",
"LatLong": "55.3187,9.2956"
},
{
"Name": "Sønder Stenderup",
"PostCode": "6092",
"LatLong": "55.4623,9.6119"
},
{
"Name": "Vamdrup",
"PostCode": "6580",
"LatLong": "55.4276,9.2843"
},
{
"Name": "Viuf",
"PostCode": "6052",
"LatLong": "55.5853,9.4924"
}
]
}
]
},
{
"Name": "Vejle Kommune",
"Code": "630",
"Communities": [
{
"Places": [
{
"Name": "Billund",
"PostCode": "7190",
"LatLong": "55.7335,9.1079"
},
{
"Name": "Børkop",
"PostCode": "7080",
"LatLong": "55.6379,9.6482"
},
{
"Name": "Brande",
"PostCode": "7330",
"LatLong": "55.9381,9.1218"
},
{
"Name": "Bredsten",
"PostCode": "7182",
"LatLong": "55.7013,9.385"
},
{
"Name": "Egtved",
"PostCode": "6040",
"LatLong": "55.618,9.301"
},
{
"Name": "Ejstrupholm",
"PostCode": "7361",
"LatLong": "55.9841,9.2818"
},
{
"Name": "Fredericia",
"PostCode": "7000",
"LatLong": "55.5657,9.7526"
},
{
"Name": "Gadbjerg",
"PostCode": "7321",
"LatLong": "55.7715,9.3248"
},
{
"Name": "Give",
"PostCode": "7323",
"LatLong": "55.8398,9.25"
},
{
"Name": "Grindsted",
"PostCode": "7200",
"LatLong": "55.754,8.9123"
},
{
"Name": "Jelling",
"PostCode": "7300",
"LatLong": "55.7559,9.4258"
},
{
"Name": "Randbøl",
"PostCode": "7183",
"LatLong": "55.6943,9.2475"
},
{
"Name": "Tørring",
"PostCode": "7160",
"LatLong": "55.85,9.4833"
},
{
"Name": "Vandel",
"PostCode": "7184",
"LatLong": "55.7085,9.2133"
},
{
"Name": "Vejle",
"PostCode": "7100",
"LatLong": "55.7093,9.5357"
},
{
"Name": "Vejle Øst",
"PostCode": "7120",
"LatLong": "55.758,9.4862"
},
{
"Name": "Viuf",
"PostCode": "6052",
"LatLong": "55.5853,9.4924"
},
{
"Name": "Vonge",
"PostCode": "7173",
"LatLong": "55.8604,9.4194"
},
{
"Name": "Vorbasse",
"PostCode": "6623",
"LatLong": "55.6299,9.0824"
}
]
}
]
}
]
},
{
"Name": "Region Hovedstaden",
"Code": "84",
"Provinces": [
{
"Name": "Københavns Kommune",
"Code": "101",
"Communities": [
{
"Places": [
{
"Name": "Brønshøj",
"PostCode": "2700",
"LatLong": "55.7057,12.4964"
},
{
"Name": "Centraltastning",
"PostCode": "1513",
"LatLong": "55.6711,12.5653"
},
{
"Name": "Frederiksberg",
"PostCode": "2000",
"LatLong": "55.6794,12.5346"
},
{
"Name": "Frederiksberg C",
"PostCode": "1810",
"LatLong": "55.6794,12.5346"
},
{
"Name": "Hellerup",
"PostCode": "2900",
"LatLong": "55.732,12.5709"
},
{
"Name": "Kastrup",
"PostCode": "2770",
"LatLong": "55.6352,12.6489"
},
{
"Name": "København C",
"PostCode": "0900",
"LatLong": "57.048,9.9187"
},
{
"Name": "København C",
"PostCode": "0999",
"LatLong": "57.7209,10.5839"
},
{
"Name": "København K",
"PostCode": "1000",
"LatLong": "55.6759,12.5655"
},
{
"Name": "København K",
"PostCode": "1050",
"LatLong": "55.6759,12.5655"
},
{
"Name": "København K",
"PostCode": "1051",
"LatLong": "55.6759,12.5655"
},
{
"Name": "København K",
"PostCode": "1052",
"LatLong": "55.6759,12.5655"
},
{
"Name": "København K",
"PostCode": "1053",
"LatLong": "55.6759,12.5655"
},
{
"Name": "København K",
"PostCode": "1054",
"LatLong": "55.6759,12.5655"
},
{
"Name": "København K",
"PostCode": "1055",
"LatLong": "55.6759,12.5655"
},
{
"Name": "København K",
"PostCode": "1056",
"LatLong": "55.6759,12.5655"
},
{
"Name": "København K",
"PostCode": "1057",
"LatLong": "55.6759,12.5655"
},
{
"Name": "København K",
"PostCode": "1058",
"LatLong": "55.6759,12.5655"
},
{
"Name": "København K",
"PostCode": "1059",
"LatLong": "55.6759,12.5655"
},
{
"Name": "København K",
"PostCode": "1060",
"LatLong": "55.6759,12.5655"
},
{
"Name": "København K",
"PostCode": "1061",
"LatLong": "55.6759,12.5655"
},
{
"Name": "København K",
"PostCode": "1062",
"LatLong": "55.6759,12.5655"
},
{
"Name": "København K",
"PostCode": "1063",
"LatLong": "55.6759,12.5655"
},
{
"Name": "København K",
"PostCode": "1064",
"LatLong": "55.6759,12.5655"
},
{
"Name": "København K",
"PostCode": "1065",
"LatLong": "55.6759,12.5655"
},
{
"Name": "København K",
"PostCode": "1066",
"LatLong": "55.6759,12.5655"
},
{
"Name": "København K",
"PostCode": "1067",
"LatLong": "55.6759,12.5655"
},
{
"Name": "København K",
"PostCode": "1068",
"LatLong": "55.6759,12.5655"
},
{
"Name": "København K",
"PostCode": "1069",
"LatLong": "55.6759,12.5655"
},
{
"Name": "København K",
"PostCode": "1070",
"LatLong": "55.6759,12.5655"
},
{
"Name": "København K",
"PostCode": "1071",
"LatLong": "55.6759,12.5655"
},
{
"Name": "København K",
"PostCode": "1072",
"LatLong": "55.6759,12.5655"
},
{
"Name": "København K",
"PostCode": "1073",
"LatLong": "55.6759,12.5655"
},
{
"Name": "København K",
"PostCode": "1074",
"LatLong": "55.6759,12.5655"
},
{
"Name": "København K",
"PostCode": "1092",
"LatLong": "55.6759,12.5655"
},
{
"Name": "København K",
"PostCode": "1093",
"LatLong": "55.6759,12.5655"
},
{
"Name": "København K",
"PostCode": "1095",
"LatLong": "55.6759,12.5655"
},
{
"Name": "København K",
"PostCode": "1098",
"LatLong": "55.6759,12.5655"
},
{
"Name": "København K",
"PostCode": "1100",
"LatLong": "55.6759,12.5655"
},
{
"Name": "København K",
"PostCode": "1101",
"LatLong": "55.6759,12.5655"
},
{
"Name": "København K",
"PostCode": "1102",
"LatLong": "55.6759,12.5655"
},
{
"Name": "København K",
"PostCode": "1103",
"LatLong": "55.6759,12.5655"
},
{
"Name": "København K",
"PostCode": "1104",
"LatLong": "55.6759,12.5655"
},
{
"Name": "København K",
"PostCode": "1105",
"LatLong": "55.6759,12.5655"
},
{
"Name": "København K",
"PostCode": "1106",
"LatLong": "55.6759,12.5655"
},
{
"Name": "København K",
"PostCode": "1107",
"LatLong": "55.6759,12.5655"
},
{
"Name": "København K",
"PostCode": "1110",
"LatLong": "55.6759,12.5655"
},
{
"Name": "København K",
"PostCode": "1111",
"LatLong": "55.6759,12.5655"
},
{
"Name": "København K",
"PostCode": "1112",
"LatLong": "55.6759,12.5655"
},
{
"Name": "København K",
"PostCode": "1113",
"LatLong": "55.6759,12.5655"
},
{
"Name": "København K",
"PostCode": "1114",
"LatLong": "55.6759,12.5655"
},
{
"Name": "København K",
"PostCode": "1115",
"LatLong": "55.6759,12.5655"
},
{
"Name": "København K",
"PostCode": "1116",
"LatLong": "55.6759,12.5655"
},
{
"Name": "København K",
"PostCode": "1117",
"LatLong": "55.6759,12.5655"
},
{
"Name": "København K",
"PostCode": "1118",
"LatLong": "55.6759,12.5655"
},
{
"Name": "København K",
"PostCode": "1119",
"LatLong": "55.6759,12.5655"
},
{
"Name": "København K",
"PostCode": "1120",
"LatLong": "55.6759,12.5655"
},
{
"Name": "København K",
"PostCode": "1121",
"LatLong": "55.6759,12.5655"
},
{
"Name": "København K",
"PostCode": "1122",
"LatLong": "55.6759,12.5655"
},
{
"Name": "København K",
"PostCode": "1123",
"LatLong": "55.6759,12.5655"
},
{
"Name": "København K",
"PostCode": "1124",
"LatLong": "55.6759,12.5655"
},
{
"Name": "København K",
"PostCode": "1125",
"LatLong": "55.6759,12.5655"
},
{
"Name": "København K",
"PostCode": "1126",
"LatLong": "55.6759,12.5655"
},
{
"Name": "København K",
"PostCode": "1127",
"LatLong": "55.6759,12.5655"
},
{
"Name": "København K",
"PostCode": "1128",
"LatLong": "55.6759,12.5655"
},
{
"Name": "København K",
"PostCode": "1129",
"LatLong": "55.6759,12.5655"
},
{
"Name": "København K",
"PostCode": "1130",
"LatLong": "55.6759,12.5655"
},
{
"Name": "København K",
"PostCode": "1131",
"LatLong": "55.6759,12.5655"
},
{
"Name": "København K",
"PostCode": "1140",
"LatLong": "55.6759,12.5655"
},
{
"Name": "København K",
"PostCode": "1147",
"LatLong": "55.6759,12.5655"
},
{
"Name": "København K",
"PostCode": "1148",
"LatLong": "55.6759,12.5655"
},
{
"Name": "København K",
"PostCode": "1150",
"LatLong": "55.6759,12.5655"
},
{
"Name": "København K",
"PostCode": "1151",
"LatLong": "55.6759,12.5655"
},
{
"Name": "København K",
"PostCode": "1152",
"LatLong": "55.6759,12.5655"
},
{
"Name": "København K",
"PostCode": "1153",
"LatLong": "55.6759,12.5655"
},
{
"Name": "København K",
"PostCode": "1154",
"LatLong": "55.6759,12.5655"
},
{
"Name": "København K",
"PostCode": "1155",
"LatLong": "55.6759,12.5655"
},
{
"Name": "København K",
"PostCode": "1156",
"LatLong": "55.6759,12.5655"
},
{
"Name": "København K",
"PostCode": "1157",
"LatLong": "55.6759,12.5655"
},
{
"Name": "København K",
"PostCode": "1158",
"LatLong": "55.6759,12.5655"
},
{
"Name": "København K",
"PostCode": "1159",
"LatLong": "55.6759,12.5655"
},
{
"Name": "København K",
"PostCode": "1160",
"LatLong": "55.6759,12.5655"
},
{
"Name": "København K",
"PostCode": "1161",
"LatLong": "55.6759,12.5655"
},
{
"Name": "København K",
"PostCode": "1162",
"LatLong": "55.6759,12.5655"
},
{
"Name": "København K",
"PostCode": "1164",
"LatLong": "55.6759,12.5655"
},
{
"Name": "København K",
"PostCode": "1165",
"LatLong": "55.6759,12.5655"
},
{
"Name": "København K",
"PostCode": "1166",
"LatLong": "55.6759,12.5655"
},
{
"Name": "København K",
"PostCode": "1167",
"LatLong": "55.6759,12.5655"
},
{
"Name": "København K",
"PostCode": "1168",
"LatLong": "55.6759,12.5655"
},
{
"Name": "København K",
"PostCode": "1169",
"LatLong": "55.6759,12.5655"
},
{
"Name": "København K",
"PostCode": "1170",
"LatLong": "55.6759,12.5655"
},
{
"Name": "København K",
"PostCode": "1171",
"LatLong": "55.6759,12.5655"
},
{
"Name": "København K",
"PostCode": "1172",
"LatLong": "55.6759,12.5655"
},
{
"Name": "København K",
"PostCode": "1173",
"LatLong": "55.6759,12.5655"
},
{
"Name": "København K",
"PostCode": "1174",
"LatLong": "55.6759,12.5655"
},
{
"Name": "København K",
"PostCode": "1175",
"LatLong": "55.6759,12.5655"
},
{
"Name": "København K",
"PostCode": "1200",
"LatLong": "55.6759,12.5655"
},
{
"Name": "København K",
"PostCode": "1201",
"LatLong": "55.6759,12.5655"
},
{
"Name": "København K",
"PostCode": "1202",
"LatLong": "55.6759,12.5655"
},
{
"Name": "København K",
"PostCode": "1203",
"LatLong": "55.6759,12.5655"
},
{
"Name": "København K",
"PostCode": "1204",
"LatLong": "55.6759,12.5655"
},
{
"Name": "København K",
"PostCode": "1205",
"LatLong": "55.6759,12.5655"
},
{
"Name": "København K",
"PostCode": "1206",
"LatLong": "55.6759,12.5655"
},
{
"Name": "København K",
"PostCode": "1207",
"LatLong": "55.6759,12.5655"
},
{
"Name": "København K",
"PostCode": "1208",
"LatLong": "55.6759,12.5655"
},
{
"Name": "København K",
"PostCode": "1209",
"LatLong": "55.6759,12.5655"
},
{
"Name": "København K",
"PostCode": "1210",
"LatLong": "55.6759,12.5655"
},
{
"Name": "København K",
"PostCode": "1211",
"LatLong": "55.6759,12.5655"
},
{
"Name": "København K",
"PostCode": "1213",
"LatLong": "55.6759,12.5655"
},
{
"Name": "København K",
"PostCode": "1214",
"LatLong": "55.6759,12.5655"
},
{
"Name": "København K",
"PostCode": "1215",
"LatLong": "55.6759,12.5655"
},
{
"Name": "København K",
"PostCode": "1216",
"LatLong": "55.6759,12.5655"
},
{
"Name": "København K",
"PostCode": "1217",
"LatLong": "55.6759,12.5655"
},
{
"Name": "København K",
"PostCode": "1218",
"LatLong": "55.6759,12.5655"
},
{
"Name": "København K",
"PostCode": "1219",
"LatLong": "55.6759,12.5655"
},
{
"Name": "København K",
"PostCode": "1220",
"LatLong": "55.6759,12.5655"
},
{
"Name": "København K",
"PostCode": "1221",
"LatLong": "55.6759,12.5655"
},
{
"Name": "København K",
"PostCode": "1240",
"LatLong": "55.6759,12.5655"
},
{
"Name": "København K",
"PostCode": "1250",
"LatLong": "55.6759,12.5655"
},
{
"Name": "København K",
"PostCode": "1251",
"LatLong": "55.6759,12.5655"
},
{
"Name": "København K",
"PostCode": "1253",
"LatLong": "55.6759,12.5655"
},
{
"Name": "København K",
"PostCode": "1254",
"LatLong": "55.6759,12.5655"
},
{
"Name": "København K",
"PostCode": "1255",
"LatLong": "55.6759,12.5655"
},
{
"Name": "København K",
"PostCode": "1256",
"LatLong": "55.6759,12.5655"
},
{
"Name": "København K",
"PostCode": "1257",
"LatLong": "55.6759,12.5655"
},
{
"Name": "København K",
"PostCode": "1259",
"LatLong": "55.6759,12.5655"
},
{
"Name": "København K",
"PostCode": "1260",
"LatLong": "55.6759,12.5655"
},
{
"Name": "København K",
"PostCode": "1261",
"LatLong": "55.6759,12.5655"
},
{
"Name": "København K",
"PostCode": "1263",
"LatLong": "55.6759,12.5655"
},
{
"Name": "København K",
"PostCode": "1264",
"LatLong": "55.6759,12.5655"
},
{
"Name": "København K",
"PostCode": "1265",
"LatLong": "55.6759,12.5655"
},
{
"Name": "København K",
"PostCode": "1266",
"LatLong": "55.6759,12.5655"
},
{
"Name": "København K",
"PostCode": "1267",
"LatLong": "55.6759,12.5655"
},
{
"Name": "København K",
"PostCode": "1268",
"LatLong": "55.6759,12.5655"
},
{
"Name": "København K",
"PostCode": "1270",
"LatLong": "55.6759,12.5655"
},
{
"Name": "København K",
"PostCode": "1271",
"LatLong": "55.6759,12.5655"
},
{
"Name": "København K",
"PostCode": "1291",
"LatLong": "55.6759,12.5655"
},
{
"Name": "København K",
"PostCode": "1300",
"LatLong": "55.6759,12.5655"
},
{
"Name": "København K",
"PostCode": "1301",
"LatLong": "55.6759,12.5655"
},
{
"Name": "København K",
"PostCode": "1302",
"LatLong": "55.6759,12.5655"
},
{
"Name": "København K",
"PostCode": "1303",
"LatLong": "55.6759,12.5655"
},
{
"Name": "København K",
"PostCode": "1304",
"LatLong": "55.6759,12.5655"
},
{
"Name": "København K",
"PostCode": "1306",
"LatLong": "55.6759,12.5655"
},
{
"Name": "København K",
"PostCode": "1307",
"LatLong": "55.6759,12.5655"
},
{
"Name": "København K",
"PostCode": "1308",
"LatLong": "55.6759,12.5655"
},
{
"Name": "København K",
"PostCode": "1309",
"LatLong": "55.6759,12.5655"
},
{
"Name": "København K",
"PostCode": "1310",
"LatLong": "55.6759,12.5655"
},
{
"Name": "København K",
"PostCode": "1311",
"LatLong": "55.6759,12.5655"
},
{
"Name": "København K",
"PostCode": "1312",
"LatLong": "55.6759,12.5655"
},
{
"Name": "København K",
"PostCode": "1313",
"LatLong": "55.6759,12.5655"
},
{
"Name": "København K",
"PostCode": "1314",
"LatLong": "55.6759,12.5655"
},
{
"Name": "København K",
"PostCode": "1315",
"LatLong": "55.6759,12.5655"
},
{
"Name": "København K",
"PostCode": "1316",
"LatLong": "55.6759,12.5655"
},
{
"Name": "København K",
"PostCode": "1317",
"LatLong": "55.6759,12.5655"
},
{
"Name": "København K",
"PostCode": "1318",
"LatLong": "55.6759,12.5655"
},
{
"Name": "København K",
"PostCode": "1319",
"LatLong": "55.6759,12.5655"
},
{
"Name": "København K",
"PostCode": "1320",
"LatLong": "55.6759,12.5655"
},
{
"Name": "København K",
"PostCode": "1321",
"LatLong": "55.6759,12.5655"
},
{
"Name": "København K",
"PostCode": "1322",
"LatLong": "55.6759,12.5655"
},
{
"Name": "København K",
"PostCode": "1323",
"LatLong": "55.6759,12.5655"
},
{
"Name": "København K",
"PostCode": "1324",
"LatLong": "55.6759,12.5655"
},
{
"Name": "København K",
"PostCode": "1325",
"LatLong": "55.6759,12.5655"
},
{
"Name": "København K",
"PostCode": "1326",
"LatLong": "55.6759,12.5655"
},
{
"Name": "København K",
"PostCode": "1327",
"LatLong": "55.6759,12.5655"
},
{
"Name": "København K",
"PostCode": "1328",
"LatLong": "55.6759,12.5655"
},
{
"Name": "København K",
"PostCode": "1329",
"LatLong": "55.6759,12.5655"
},
{
"Name": "København K",
"PostCode": "1350",
"LatLong": "55.6759,12.5655"
},
{
"Name": "København K",
"PostCode": "1352",
"LatLong": "55.6759,12.5655"
},
{
"Name": "København K",
"PostCode": "1353",
"LatLong": "55.6759,12.5655"
},
{
"Name": "København K",
"PostCode": "1354",
"LatLong": "55.6759,12.5655"
},
{
"Name": "København K",
"PostCode": "1355",
"LatLong": "55.6759,12.5655"
},
{
"Name": "København K",
"PostCode": "1356",
"LatLong": "55.6759,12.5655"
},
{
"Name": "København K",
"PostCode": "1357",
"LatLong": "55.6759,12.5655"
},
{
"Name": "København K",
"PostCode": "1358",
"LatLong": "55.6759,12.5655"
},
{
"Name": "København K",
"PostCode": "1359",
"LatLong": "55.6759,12.5655"
},
{
"Name": "København K",
"PostCode": "1360",
"LatLong": "55.6759,12.5655"
},
{
"Name": "København K",
"PostCode": "1361",
"LatLong": "55.6759,12.5655"
},
{
"Name": "København K",
"PostCode": "1362",
"LatLong": "55.6759,12.5655"
},
{
"Name": "København K",
"PostCode": "1363",
"LatLong": "55.6759,12.5655"
},
{
"Name": "København K",
"PostCode": "1364",
"LatLong": "55.6759,12.5655"
},
{
"Name": "København K",
"PostCode": "1365",
"LatLong": "55.6759,12.5655"
},
{
"Name": "København K",
"PostCode": "1366",
"LatLong": "55.6759,12.5655"
},
{
"Name": "København K",
"PostCode": "1367",
"LatLong": "55.6759,12.5655"
},
{
"Name": "København K",
"PostCode": "1368",
"LatLong": "55.6759,12.5655"
},
{
"Name": "København K",
"PostCode": "1369",
"LatLong": "55.6759,12.5655"
},
{
"Name": "København K",
"PostCode": "1370",
"LatLong": "55.6759,12.5655"
},
{
"Name": "København K",
"PostCode": "1371",
"LatLong": "55.6759,12.5655"
},
{
"Name": "København K",
"PostCode": "1400",
"LatLong": "55.6759,12.5655"
},
{
"Name": "København K",
"PostCode": "1401",
"LatLong": "55.6759,12.5655"
},
{
"Name": "København K",
"PostCode": "1402",
"LatLong": "55.6759,12.5655"
},
{
"Name": "København K",
"PostCode": "1403",
"LatLong": "55.6759,12.5655"
},
{
"Name": "København K",
"PostCode": "1406",
"LatLong": "55.6759,12.5655"
},
{
"Name": "København K",
"PostCode": "1407",
"LatLong": "55.6759,12.5655"
},
{
"Name": "København K",
"PostCode": "1408",
"LatLong": "55.6759,12.5655"
},
{
"Name": "København K",
"PostCode": "1409",
"LatLong": "55.6759,12.5655"
},
{
"Name": "København K",
"PostCode": "1410",
"LatLong": "55.6759,12.5655"
},
{
"Name": "København K",
"PostCode": "1411",
"LatLong": "55.6759,12.5655"
},
{
"Name": "København K",
"PostCode": "1412",
"LatLong": "55.6759,12.5655"
},
{
"Name": "København K",
"PostCode": "1413",
"LatLong": "55.6759,12.5655"
},
{
"Name": "København K",
"PostCode": "1414",
"LatLong": "55.6759,12.5655"
},
{
"Name": "København K",
"PostCode": "1415",
"LatLong": "55.6759,12.5655"
},
{
"Name": "København K",
"PostCode": "1416",
"LatLong": "55.6759,12.5655"
},
{
"Name": "København K",
"PostCode": "1417",
"LatLong": "55.6759,12.5655"
},
{
"Name": "København K",
"PostCode": "1418",
"LatLong": "55.6759,12.5655"
},
{
"Name": "København K",
"PostCode": "1419",
"LatLong": "55.6759,12.5655"
},
{
"Name": "København K",
"PostCode": "1420",
"LatLong": "55.6759,12.5655"
},
{
"Name": "København K",
"PostCode": "1421",
"LatLong": "55.6759,12.5655"
},
{
"Name": "København K",
"PostCode": "1422",
"LatLong": "55.6759,12.5655"
},
{
"Name": "København K",
"PostCode": "1423",
"LatLong": "55.6759,12.5655"
},
{
"Name": "København K",
"PostCode": "1424",
"LatLong": "55.6759,12.5655"
},
{
"Name": "København K",
"PostCode": "1425",
"LatLong": "55.6759,12.5655"
},
{
"Name": "København K",
"PostCode": "1426",
"LatLong": "55.6759,12.5655"
},
{
"Name": "København K",
"PostCode": "1427",
"LatLong": "55.6759,12.5655"
},
{
"Name": "København K",
"PostCode": "1428",
"LatLong": "55.6759,12.5655"
},
{
"Name": "København K",
"PostCode": "1429",
"LatLong": "55.6759,12.5655"
},
{
"Name": "København K",
"PostCode": "1430",
"LatLong": "55.6759,12.5655"
},
{
"Name": "København K",
"PostCode": "1431",
"LatLong": "55.6759,12.5655"
},
{
"Name": "København K",
"PostCode": "1432",
"LatLong": "55.6759,12.5655"
},
{
"Name": "København K",
"PostCode": "1433",
"LatLong": "55.6759,12.5655"
},
{
"Name": "København K",
"PostCode": "1434",
"LatLong": "55.6759,12.5655"
},
{
"Name": "København K",
"PostCode": "1435",
"LatLong": "55.6759,12.5655"
},
{
"Name": "København K",
"PostCode": "1436",
"LatLong": "55.6759,12.5655"
},
{
"Name": "København K",
"PostCode": "1437",
"LatLong": "55.6759,12.5655"
},
{
"Name": "København K",
"PostCode": "1438",
"LatLong": "55.6759,12.5655"
},
{
"Name": "København K",
"PostCode": "1439",
"LatLong": "55.6759,12.5655"
},
{
"Name": "København K",
"PostCode": "1440",
"LatLong": "55.6759,12.5655"
},
{
"Name": "København K",
"PostCode": "1441",
"LatLong": "55.6759,12.5655"
},
{
"Name": "København K",
"PostCode": "1448",
"LatLong": "55.6759,12.5655"
},
{
"Name": "København K",
"PostCode": "1450",
"LatLong": "55.6759,12.5655"
},
{
"Name": "København K",
"PostCode": "1451",
"LatLong": "55.6759,12.5655"
},
{
"Name": "København K",
"PostCode": "1452",
"LatLong": "55.6759,12.5655"
},
{
"Name": "København K",
"PostCode": "1453",
"LatLong": "55.6759,12.5655"
},
{
"Name": "København K",
"PostCode": "1454",
"LatLong": "55.6759,12.5655"
},
{
"Name": "København K",
"PostCode": "1455",
"LatLong": "55.6759,12.5655"
},
{
"Name": "København K",
"PostCode": "1456",
"LatLong": "55.6759,12.5655"
},
{
"Name": "København K",
"PostCode": "1457",
"LatLong": "55.6759,12.5655"
},
{
"Name": "København K",
"PostCode": "1458",
"LatLong": "55.6759,12.5655"
},
{
"Name": "København K",
"PostCode": "1459",
"LatLong": "55.6759,12.5655"
},
{
"Name": "København K",
"PostCode": "1460",
"LatLong": "55.6759,12.5655"
},
{
"Name": "København K",
"PostCode": "1462",
"LatLong": "55.6759,12.5655"
},
{
"Name": "København K",
"PostCode": "1463",
"LatLong": "55.6759,12.5655"
},
{
"Name": "København K",
"PostCode": "1464",
"LatLong": "55.6759,12.5655"
},
{
"Name": "København K",
"PostCode": "1466",
"LatLong": "55.6759,12.5655"
},
{
"Name": "København K",
"PostCode": "1467",
"LatLong": "55.6759,12.5655"
},
{
"Name": "København K",
"PostCode": "1468",
"LatLong": "55.6759,12.5655"
},
{
"Name": "København K",
"PostCode": "1470",
"LatLong": "55.6759,12.5655"
},
{
"Name": "København K",
"PostCode": "1471",
"LatLong": "55.6759,12.5655"
},
{
"Name": "København K",
"PostCode": "1472",
"LatLong": "55.6759,12.5655"
},
{
"Name": "København N",
"PostCode": "2200",
"LatLong": "55.6759,12.5655"
},
{
"Name": "København NV",
"PostCode": "2400",
"LatLong": "55.6759,12.5655"
},
{
"Name": "København Ø",
"PostCode": "2100",
"LatLong": "55.6759,12.5655"
},
{
"Name": "København S",
"PostCode": "2300",
"LatLong": "55.6759,12.5655"
},
{
"Name": "København SV",
"PostCode": "2450",
"LatLong": "55.6759,12.5655"
},
{
"Name": "København V",
"PostCode": "1500",
"LatLong": "55.6759,12.5655"
},
{
"Name": "København V",
"PostCode": "1550",
"LatLong": "55.6759,12.5655"
},
{
"Name": "København V",
"PostCode": "1551",
"LatLong": "55.6759,12.5655"
},
{
"Name": "København V",
"PostCode": "1552",
"LatLong": "55.6759,12.5655"
},
{
"Name": "København V",
"PostCode": "1553",
"LatLong": "55.6759,12.5655"
},
{
"Name": "København V",
"PostCode": "1554",
"LatLong": "55.6759,12.5655"
},
{
"Name": "København V",
"PostCode": "1555",
"LatLong": "55.6759,12.5655"
},
{
"Name": "København V",
"PostCode": "1556",
"LatLong": "55.6759,12.5655"
},
{
"Name": "København V",
"PostCode": "1557",
"LatLong": "55.6759,12.5655"
},
{
"Name": "København V",
"PostCode": "1558",
"LatLong": "55.6759,12.5655"
},
{
"Name": "København V",
"PostCode": "1559",
"LatLong": "55.6759,12.5655"
},
{
"Name": "København V",
"PostCode": "1560",
"LatLong": "55.6759,12.5655"
},
{
"Name": "København V",
"PostCode": "1561",
"LatLong": "55.6759,12.5655"
},
{
"Name": "København V",
"PostCode": "1562",
"LatLong": "55.6759,12.5655"
},
{
"Name": "København V",
"PostCode": "1563",
"LatLong": "55.6759,12.5655"
},
{
"Name": "København V",
"PostCode": "1564",
"LatLong": "55.6759,12.5655"
},
{
"Name": "København V",
"PostCode": "1566",
"LatLong": "55.6759,12.5655"
},
{
"Name": "København V",
"PostCode": "1567",
"LatLong": "55.6759,12.5655"
},
{
"Name": "København V",
"PostCode": "1568",
"LatLong": "55.6759,12.5655"
},
{
"Name": "København V",
"PostCode": "1569",
"LatLong": "55.6759,12.5655"
},
{
"Name": "København V",
"PostCode": "1570",
"LatLong": "55.6759,12.5655"
},
{
"Name": "København V",
"PostCode": "1571",
"LatLong": "55.6759,12.5655"
},
{
"Name": "København V",
"PostCode": "1572",
"LatLong": "55.6759,12.5655"
},
{
"Name": "København V",
"PostCode": "1573",
"LatLong": "55.6759,12.5655"
},
{
"Name": "København V",
"PostCode": "1574",
"LatLong": "55.6759,12.5655"
},
{
"Name": "København V",
"PostCode": "1575",
"LatLong": "55.6759,12.5655"
},
{
"Name": "København V",
"PostCode": "1576",
"LatLong": "55.6759,12.5655"
},
{
"Name": "København V",
"PostCode": "1577",
"LatLong": "55.6759,12.5655"
},
{
"Name": "København V",
"PostCode": "1592",
"LatLong": "55.6759,12.5655"
},
{
"Name": "København V",
"PostCode": "1599",
"LatLong": "55.6759,12.5655"
},
{
"Name": "København V",
"PostCode": "1600",
"LatLong": "55.6759,12.5655"
},
{
"Name": "København V",
"PostCode": "1601",
"LatLong": "55.6759,12.5655"
},
{
"Name": "København V",
"PostCode": "1602",
"LatLong": "55.6759,12.5655"
},
{
"Name": "København V",
"PostCode": "1603",
"LatLong": "55.6759,12.5655"
},
{
"Name": "København V",
"PostCode": "1604",
"LatLong": "55.6759,12.5655"
},
{
"Name": "København V",
"PostCode": "1606",
"LatLong": "55.6759,12.5655"
},
{
"Name": "København V",
"PostCode": "1607",
"LatLong": "55.6759,12.5655"
},
{
"Name": "København V",
"PostCode": "1608",
"LatLong": "55.6759,12.5655"
},
{
"Name": "København V",
"PostCode": "1609",
"LatLong": "55.6759,12.5655"
},
{
"Name": "København V",
"PostCode": "1610",
"LatLong": "55.6759,12.5655"
},
{
"Name": "København V",
"PostCode": "1611",
"LatLong": "55.6759,12.5655"
},
{
"Name": "København V",
"PostCode": "1612",
"LatLong": "55.6759,12.5655"
},
{
"Name": "København V",
"PostCode": "1613",
"LatLong": "55.6759,12.5655"
},
{
"Name": "København V",
"PostCode": "1614",
"LatLong": "55.6759,12.5655"
},
{
"Name": "København V",
"PostCode": "1615",
"LatLong": "55.6759,12.5655"
},
{
"Name": "København V",
"PostCode": "1616",
"LatLong": "55.6759,12.5655"
},
{
"Name": "København V",
"PostCode": "1617",
"LatLong": "55.6759,12.5655"
},
{
"Name": "København V",
"PostCode": "1618",
"LatLong": "55.6759,12.5655"
},
{
"Name": "København V",
"PostCode": "1619",
"LatLong": "55.6759,12.5655"
},
{
"Name": "København V",
"PostCode": "1620",
"LatLong": "55.6759,12.5655"
},
{
"Name": "København V",
"PostCode": "1621",
"LatLong": "55.6759,12.5655"
},
{
"Name": "København V",
"PostCode": "1622",
"LatLong": "55.6759,12.5655"
},
{
"Name": "København V",
"PostCode": "1623",
"LatLong": "55.6759,12.5655"
},
{
"Name": "København V",
"PostCode": "1624",
"LatLong": "55.6759,12.5655"
},
{
"Name": "København V",
"PostCode": "1630",
"LatLong": "55.6759,12.5655"
},
{
"Name": "København V",
"PostCode": "1631",
"LatLong": "55.6759,12.5655"
},
{
"Name": "København V",
"PostCode": "1632",
"LatLong": "55.6759,12.5655"
},
{
"Name": "København V",
"PostCode": "1633",
"LatLong": "55.6759,12.5655"
},
{
"Name": "København V",
"PostCode": "1634",
"LatLong": "55.6759,12.5655"
},
{
"Name": "København V",
"PostCode": "1635",
"LatLong": "55.6759,12.5655"
},
{
"Name": "København V",
"PostCode": "1650",
"LatLong": "55.6759,12.5655"
},
{
"Name": "København V",
"PostCode": "1651",
"LatLong": "55.6759,12.5655"
},
{
"Name": "København V",
"PostCode": "1652",
"LatLong": "55.6759,12.5655"
},
{
"Name": "København V",
"PostCode": "1653",
"LatLong": "55.6759,12.5655"
},
{
"Name": "København V",
"PostCode": "1654",
"LatLong": "55.6759,12.5655"
},
{
"Name": "København V",
"PostCode": "1655",
"LatLong": "55.6759,12.5655"
},
{
"Name": "København V",
"PostCode": "1656",
"LatLong": "55.6759,12.5655"
},
{
"Name": "København V",
"PostCode": "1657",
"LatLong": "55.6759,12.5655"
},
{
"Name": "København V",
"PostCode": "1658",
"LatLong": "55.6759,12.5655"
},
{
"Name": "København V",
"PostCode": "1659",
"LatLong": "55.6759,12.5655"
},
{
"Name": "København V",
"PostCode": "1660",
"LatLong": "55.6759,12.5655"
},
{
"Name": "København V",
"PostCode": "1661",
"LatLong": "55.6759,12.5655"
},
{
"Name": "København V",
"PostCode": "1662",
"LatLong": "55.6759,12.5655"
},
{
"Name": "København V",
"PostCode": "1663",
"LatLong": "55.6759,12.5655"
},
{
"Name": "København V",
"PostCode": "1664",
"LatLong": "55.6759,12.5655"
},
{
"Name": "København V",
"PostCode": "1665",
"LatLong": "55.6759,12.5655"
},
{
"Name": "København V",
"PostCode": "1666",
"LatLong": "55.6759,12.5655"
},
{
"Name": "København V",
"PostCode": "1667",
"LatLong": "55.6759,12.5655"
},
{
"Name": "København V",
"PostCode": "1668",
"LatLong": "55.6759,12.5655"
},
{
"Name": "København V",
"PostCode": "1669",
"LatLong": "55.6759,12.5655"
},
{
"Name": "København V",
"PostCode": "1670",
"LatLong": "55.6759,12.5655"
},
{
"Name": "København V",
"PostCode": "1671",
"LatLong": "55.6759,12.5655"
},
{
"Name": "København V",
"PostCode": "1672",
"LatLong": "55.6759,12.5655"
},
{
"Name": "København V",
"PostCode": "1673",
"LatLong": "55.6759,12.5655"
},
{
"Name": "København V",
"PostCode": "1674",
"LatLong": "55.6759,12.5655"
},
{
"Name": "København V",
"PostCode": "1675",
"LatLong": "55.6759,12.5655"
},
{
"Name": "København V",
"PostCode": "1676",
"LatLong": "55.6759,12.5655"
},
{
"Name": "København V",
"PostCode": "1677",
"LatLong": "55.6759,12.5655"
},
{
"Name": "København V",
"PostCode": "1699",
"LatLong": "55.6759,12.5655"
},
{
"Name": "København V",
"PostCode": "1700",
"LatLong": "55.6759,12.5655"
},
{
"Name": "København V",
"PostCode": "1701",
"LatLong": "55.6759,12.5655"
},
{
"Name": "København V",
"PostCode": "1702",
"LatLong": "55.6759,12.5655"
},
{
"Name": "København V",
"PostCode": "1703",
"LatLong": "55.6759,12.5655"
},
{
"Name": "København V",
"PostCode": "1704",
"LatLong": "55.6759,12.5655"
},
{
"Name": "København V",
"PostCode": "1705",
"LatLong": "55.6759,12.5655"
},
{
"Name": "København V",
"PostCode": "1706",
"LatLong": "55.6759,12.5655"
},
{
"Name": "København V",
"PostCode": "1707",
"LatLong": "55.6759,12.5655"
},
{
"Name": "København V",
"PostCode": "1708",
"LatLong": "55.6759,12.5655"
},
{
"Name": "København V",
"PostCode": "1709",
"LatLong": "55.6759,12.5655"
},
{
"Name": "København V",
"PostCode": "1710",
"LatLong": "55.6759,12.5655"
},
{
"Name": "København V",
"PostCode": "1711",
"LatLong": "55.6759,12.5655"
},
{
"Name": "København V",
"PostCode": "1712",
"LatLong": "55.6759,12.5655"
},
{
"Name": "København V",
"PostCode": "1714",
"LatLong": "55.6759,12.5655"
},
{
"Name": "København V",
"PostCode": "1715",
"LatLong": "55.6759,12.5655"
},
{
"Name": "København V",
"PostCode": "1716",
"LatLong": "55.6759,12.5655"
},
{
"Name": "København V",
"PostCode": "1717",
"LatLong": "55.6759,12.5655"
},
{
"Name": "København V",
"PostCode": "1718",
"LatLong": "55.6759,12.5655"
},
{
"Name": "København V",
"PostCode": "1719",
"LatLong": "55.6759,12.5655"
},
{
"Name": "København V",
"PostCode": "1720",
"LatLong": "55.6759,12.5655"
},
{
"Name": "København V",
"PostCode": "1721",
"LatLong": "55.6759,12.5655"
},
{
"Name": "København V",
"PostCode": "1722",
"LatLong": "55.6759,12.5655"
},
{
"Name": "København V",
"PostCode": "1723",
"LatLong": "55.6759,12.5655"
},
{
"Name": "København V",
"PostCode": "1724",
"LatLong": "55.6759,12.5655"
},
{
"Name": "København V",
"PostCode": "1725",
"LatLong": "55.6759,12.5655"
},
{
"Name": "København V",
"PostCode": "1726",
"LatLong": "55.6759,12.5655"
},
{
"Name": "København V",
"PostCode": "1727",
"LatLong": "55.6759,12.5655"
},
{
"Name": "København V",
"PostCode": "1728",
"LatLong": "55.6759,12.5655"
},
{
"Name": "København V",
"PostCode": "1729",
"LatLong": "55.6759,12.5655"
},
{
"Name": "København V",
"PostCode": "1730",
"LatLong": "55.6759,12.5655"
},
{
"Name": "København V",
"PostCode": "1731",
"LatLong": "55.6759,12.5655"
},
{
"Name": "København V",
"PostCode": "1732",
"LatLong": "55.6759,12.5655"
},
{
"Name": "København V",
"PostCode": "1733",
"LatLong": "55.6759,12.5655"
},
{
"Name": "København V",
"PostCode": "1734",
"LatLong": "55.6759,12.5655"
},
{
"Name": "København V",
"PostCode": "1735",
"LatLong": "55.6759,12.5655"
},
{
"Name": "København V",
"PostCode": "1736",
"LatLong": "55.6759,12.5655"
},
{
"Name": "København V",
"PostCode": "1737",
"LatLong": "55.6759,12.5655"
},
{
"Name": "København V",
"PostCode": "1738",
"LatLong": "55.6759,12.5655"
},
{
"Name": "København V",
"PostCode": "1739",
"LatLong": "55.6759,12.5655"
},
{
"Name": "København V",
"PostCode": "1749",
"LatLong": "55.6759,12.5655"
},
{
"Name": "København V",
"PostCode": "1750",
"LatLong": "55.6759,12.5655"
},
{
"Name": "København V",
"PostCode": "1751",
"LatLong": "55.6759,12.5655"
},
{
"Name": "København V",
"PostCode": "1752",
"LatLong": "55.6759,12.5655"
},
{
"Name": "København V",
"PostCode": "1753",
"LatLong": "55.6759,12.5655"
},
{
"Name": "København V",
"PostCode": "1754",
"LatLong": "55.6759,12.5655"
},
{
"Name": "København V",
"PostCode": "1755",
"LatLong": "55.6759,12.5655"
},
{
"Name": "København V",
"PostCode": "1756",
"LatLong": "55.6759,12.5655"
},
{
"Name": "København V",
"PostCode": "1757",
"LatLong": "55.6759,12.5655"
},
{
"Name": "København V",
"PostCode": "1758",
"LatLong": "55.6759,12.5655"
},
{
"Name": "København V",
"PostCode": "1759",
"LatLong": "55.6759,12.5655"
},
{
"Name": "København V",
"PostCode": "1760",
"LatLong": "55.6759,12.5655"
},
{
"Name": "København V",
"PostCode": "1761",
"LatLong": "55.6759,12.5655"
},
{
"Name": "København V",
"PostCode": "1762",
"LatLong": "55.6759,12.5655"
},
{
"Name": "København V",
"PostCode": "1763",
"LatLong": "55.6759,12.5655"
},
{
"Name": "København V",
"PostCode": "1764",
"LatLong": "55.6759,12.5655"
},
{
"Name": "København V",
"PostCode": "1765",
"LatLong": "55.6759,12.5655"
},
{
"Name": "København V",
"PostCode": "1766",
"LatLong": "55.6759,12.5655"
},
{
"Name": "København V",
"PostCode": "1770",
"LatLong": "55.6759,12.5655"
},
{
"Name": "København V",
"PostCode": "1771",
"LatLong": "55.6759,12.5655"
},
{
"Name": "København V",
"PostCode": "1772",
"LatLong": "55.6759,12.5655"
},
{
"Name": "København V",
"PostCode": "1773",
"LatLong": "55.6759,12.5655"
},
{
"Name": "København V",
"PostCode": "1774",
"LatLong": "55.6759,12.5655"
},
{
"Name": "København V",
"PostCode": "1775",
"LatLong": "55.6759,12.5655"
},
{
"Name": "København V",
"PostCode": "1777",
"LatLong": "55.6759,12.5655"
},
{
"Name": "København V",
"PostCode": "1780",
"LatLong": "55.6759,12.5655"
},
{
"Name": "København V",
"PostCode": "1785",
"LatLong": "55.6759,12.5655"
},
{
"Name": "København V",
"PostCode": "1786",
"LatLong": "55.6759,12.5655"
},
{
"Name": "København V",
"PostCode": "1787",
"LatLong": "55.6759,12.5655"
},
{
"Name": "København V",
"PostCode": "1790",
"LatLong": "55.6759,12.5655"
},
{
"Name": "København V",
"PostCode": "1799",
"LatLong": "55.6759,12.5655"
},
{
"Name": "Nordhavn",
"PostCode": "2150",
"LatLong": "55.6759,12.5655"
},
{
"Name": "Rødovre",
"PostCode": "2610",
"LatLong": "55.6806,12.4537"
},
{
"Name": "Søborg",
"PostCode": "2860",
"LatLong": "55.7302,12.5098"
},
{
"Name": "Udland",
"PostCode": "0960",
"LatLong": "56.804,9.5144"
},
{
"Name": "Valby",
"PostCode": "2500",
"LatLong": "55.6581,12.5241"
},
{
"Name": "Vanløse",
"PostCode": "2720",
"LatLong": "55.6836,12.4871"
},
{
"Name": "Vildbjerg",
"PostCode": "7480",
"LatLong": "56.2,8.7667"
}
]
}
]
},
{
"Name": "Frederiksberg Kommune",
"Code": "147",
"Communities": [
{
"Places": [
{
"Name": "Frederiksberg",
"PostCode": "2000",
"LatLong": "55.6794,12.5346"
},
{
"Name": "Frederiksberg C",
"PostCode": "1800",
"LatLong": "55.6794,12.5346"
},
{
"Name": "Frederiksberg C",
"PostCode": "1801",
"LatLong": "55.6794,12.5346"
},
{
"Name": "Frederiksberg C",
"PostCode": "1802",
"LatLong": "55.6794,12.5346"
},
{
"Name": "Frederiksberg C",
"PostCode": "1803",
"LatLong": "55.6794,12.5346"
},
{
"Name": "Frederiksberg C",
"PostCode": "1804",
"LatLong": "55.6794,12.5346"
},
{
"Name": "Frederiksberg C",
"PostCode": "1805",
"LatLong": "55.6794,12.5346"
},
{
"Name": "Frederiksberg C",
"PostCode": "1806",
"LatLong": "55.6794,12.5346"
},
{
"Name": "Frederiksberg C",
"PostCode": "1807",
"LatLong": "55.6794,12.5346"
},
{
"Name": "Frederiksberg C",
"PostCode": "1808",
"LatLong": "55.6794,12.5346"
},
{
"Name": "Frederiksberg C",
"PostCode": "1809",
"LatLong": "55.6794,12.5346"
},
{
"Name": "Frederiksberg C",
"PostCode": "1810",
"LatLong": "55.6794,12.5346"
},
{
"Name": "Frederiksberg C",
"PostCode": "1811",
"LatLong": "55.6794,12.5346"
},
{
"Name": "Frederiksberg C",
"PostCode": "1812",
"LatLong": "55.6794,12.5346"
},
{
"Name": "Frederiksberg C",
"PostCode": "1813",
"LatLong": "55.6794,12.5346"
},
{
"Name": "Frederiksberg C",
"PostCode": "1814",
"LatLong": "55.6794,12.5346"
},
{
"Name": "Frederiksberg C",
"PostCode": "1815",
"LatLong": "55.6794,12.5346"
},
{
"Name": "Frederiksberg C",
"PostCode": "1816",
"LatLong": "55.6794,12.5346"
},
{
"Name": "Frederiksberg C",
"PostCode": "1817",
"LatLong": "55.6794,12.5346"
},
{
"Name": "Frederiksberg C",
"PostCode": "1818",
"LatLong": "55.6794,12.5346"
},
{
"Name": "Frederiksberg C",
"PostCode": "1819",
"LatLong": "55.6794,12.5346"
},
{
"Name": "Frederiksberg C",
"PostCode": "1820",
"LatLong": "55.6794,12.5346"
},
{
"Name": "Frederiksberg C",
"PostCode": "1822",
"LatLong": "55.6794,12.5346"
},
{
"Name": "Frederiksberg C",
"PostCode": "1823",
"LatLong": "55.6794,12.5346"
},
{
"Name": "Frederiksberg C",
"PostCode": "1824",
"LatLong": "55.6794,12.5346"
},
{
"Name": "Frederiksberg C",
"PostCode": "1825",
"LatLong": "55.6794,12.5346"
},
{
"Name": "Frederiksberg C",
"PostCode": "1826",
"LatLong": "55.6794,12.5346"
},
{
"Name": "Frederiksberg C",
"PostCode": "1827",
"LatLong": "55.6794,12.5346"
},
{
"Name": "Frederiksberg C",
"PostCode": "1828",
"LatLong": "55.6794,12.5346"
},
{
"Name": "Frederiksberg C",
"PostCode": "1829",
"LatLong": "55.6794,12.5346"
},
{
"Name": "Frederiksberg C",
"PostCode": "1850",
"LatLong": "55.6794,12.5346"
},
{
"Name": "Frederiksberg C",
"PostCode": "1851",
"LatLong": "55.6794,12.5346"
},
{
"Name": "Frederiksberg C",
"PostCode": "1852",
"LatLong": "55.6794,12.5346"
},
{
"Name": "Frederiksberg C",
"PostCode": "1853",
"LatLong": "55.6794,12.5346"
},
{
"Name": "Frederiksberg C",
"PostCode": "1854",
"LatLong": "55.6794,12.5346"
},
{
"Name": "Frederiksberg C",
"PostCode": "1855",
"LatLong": "55.6794,12.5346"
},
{
"Name": "Frederiksberg C",
"PostCode": "1856",
"LatLong": "55.6794,12.5346"
},
{
"Name": "Frederiksberg C",
"PostCode": "1857",
"LatLong": "55.6794,12.5346"
},
{
"Name": "Frederiksberg C",
"PostCode": "1860",
"LatLong": "55.6794,12.5346"
},
{
"Name": "Frederiksberg C",
"PostCode": "1861",
"LatLong": "55.6794,12.5346"
},
{
"Name": "Frederiksberg C",
"PostCode": "1862",
"LatLong": "55.6794,12.5346"
},
{
"Name": "Frederiksberg C",
"PostCode": "1863",
"LatLong": "55.6794,12.5346"
},
{
"Name": "Frederiksberg C",
"PostCode": "1864",
"LatLong": "55.6794,12.5346"
},
{
"Name": "Frederiksberg C",
"PostCode": "1865",
"LatLong": "55.6794,12.5346"
},
{
"Name": "Frederiksberg C",
"PostCode": "1866",
"LatLong": "55.6794,12.5346"
},
{
"Name": "Frederiksberg C",
"PostCode": "1867",
"LatLong": "55.6794,12.5346"
},
{
"Name": "Frederiksberg C",
"PostCode": "1868",
"LatLong": "55.6794,12.5346"
},
{
"Name": "Frederiksberg C",
"PostCode": "1870",
"LatLong": "55.6794,12.5346"
},
{
"Name": "Frederiksberg C",
"PostCode": "1871",
"LatLong": "55.6794,12.5346"
},
{
"Name": "Frederiksberg C",
"PostCode": "1872",
"LatLong": "55.6794,12.5346"
},
{
"Name": "Frederiksberg C",
"PostCode": "1873",
"LatLong": "55.6794,12.5346"
},
{
"Name": "Frederiksberg C",
"PostCode": "1874",
"LatLong": "55.6794,12.5346"
},
{
"Name": "Frederiksberg C",
"PostCode": "1875",
"LatLong": "55.6794,12.5346"
},
{
"Name": "Frederiksberg C",
"PostCode": "1876",
"LatLong": "55.6794,12.5346"
},
{
"Name": "Frederiksberg C",
"PostCode": "1877",
"LatLong": "55.6794,12.5346"
},
{
"Name": "Frederiksberg C",
"PostCode": "1878",
"LatLong": "55.6794,12.5346"
},
{
"Name": "Frederiksberg C",
"PostCode": "1879",
"LatLong": "55.6794,12.5346"
},
{
"Name": "Frederiksberg C",
"PostCode": "1900",
"LatLong": "55.6794,12.5346"
},
{
"Name": "Frederiksberg C",
"PostCode": "1901",
"LatLong": "55.6794,12.5346"
},
{
"Name": "Frederiksberg C",
"PostCode": "1902",
"LatLong": "55.6794,12.5346"
},
{
"Name": "Frederiksberg C",
"PostCode": "1903",
"LatLong": "55.6794,12.5346"
},
{
"Name": "Frederiksberg C",
"PostCode": "1904",
"LatLong": "55.6794,12.5346"
},
{
"Name": "Frederiksberg C",
"PostCode": "1905",
"LatLong": "55.6794,12.5346"
},
{
"Name": "Frederiksberg C",
"PostCode": "1906",
"LatLong": "55.6794,12.5346"
},
{
"Name": "Frederiksberg C",
"PostCode": "1908",
"LatLong": "55.6794,12.5346"
},
{
"Name": "Frederiksberg C",
"PostCode": "1909",
"LatLong": "55.6794,12.5346"
},
{
"Name": "Frederiksberg C",
"PostCode": "1910",
"LatLong": "55.6794,12.5346"
},
{
"Name": "Frederiksberg C",
"PostCode": "1911",
"LatLong": "55.6794,12.5346"
},
{
"Name": "Frederiksberg C",
"PostCode": "1912",
"LatLong": "55.6794,12.5346"
},
{
"Name": "Frederiksberg C",
"PostCode": "1913",
"LatLong": "55.6794,12.5346"
},
{
"Name": "Frederiksberg C",
"PostCode": "1914",
"LatLong": "55.6794,12.5346"
},
{
"Name": "Frederiksberg C",
"PostCode": "1915",
"LatLong": "55.6794,12.5346"
},
{
"Name": "Frederiksberg C",
"PostCode": "1916",
"LatLong": "55.6794,12.5346"
},
{
"Name": "Frederiksberg C",
"PostCode": "1917",
"LatLong": "55.6794,12.5346"
},
{
"Name": "Frederiksberg C",
"PostCode": "1920",
"LatLong": "55.6794,12.5346"
},
{
"Name": "Frederiksberg C",
"PostCode": "1921",
"LatLong": "55.6794,12.5346"
},
{
"Name": "Frederiksberg C",
"PostCode": "1922",
"LatLong": "55.6794,12.5346"
},
{
"Name": "Frederiksberg C",
"PostCode": "1923",
"LatLong": "55.6794,12.5346"
},
{
"Name": "Frederiksberg C",
"PostCode": "1924",
"LatLong": "55.6794,12.5346"
},
{
"Name": "Frederiksberg C",
"PostCode": "1925",
"LatLong": "55.6794,12.5346"
},
{
"Name": "Frederiksberg C",
"PostCode": "1926",
"LatLong": "55.6794,12.5346"
},
{
"Name": "Frederiksberg C",
"PostCode": "1927",
"LatLong": "55.6794,12.5346"
},
{
"Name": "Frederiksberg C",
"PostCode": "1928",
"LatLong": "55.6794,12.5346"
},
{
"Name": "Frederiksberg C",
"PostCode": "1950",
"LatLong": "55.6794,12.5346"
},
{
"Name": "Frederiksberg C",
"PostCode": "1951",
"LatLong": "55.6794,12.5346"
},
{
"Name": "Frederiksberg C",
"PostCode": "1952",
"LatLong": "55.6794,12.5346"
},
{
"Name": "Frederiksberg C",
"PostCode": "1953",
"LatLong": "55.6794,12.5346"
},
{
"Name": "Frederiksberg C",
"PostCode": "1954",
"LatLong": "55.6794,12.5346"
},
{
"Name": "Frederiksberg C",
"PostCode": "1955",
"LatLong": "55.6794,12.5346"
},
{
"Name": "Frederiksberg C",
"PostCode": "1956",
"LatLong": "55.6794,12.5346"
},
{
"Name": "Frederiksberg C",
"PostCode": "1957",
"LatLong": "55.6794,12.5346"
},
{
"Name": "Frederiksberg C",
"PostCode": "1958",
"LatLong": "55.6794,12.5346"
},
{
"Name": "Frederiksberg C",
"PostCode": "1959",
"LatLong": "55.6794,12.5346"
},
{
"Name": "Frederiksberg C",
"PostCode": "1960",
"LatLong": "55.6794,12.5346"
},
{
"Name": "Frederiksberg C",
"PostCode": "1961",
"LatLong": "55.6794,12.5346"
},
{
"Name": "Frederiksberg C",
"PostCode": "1962",
"LatLong": "55.6794,12.5346"
},
{
"Name": "Frederiksberg C",
"PostCode": "1963",
"LatLong": "55.6794,12.5346"
},
{
"Name": "Frederiksberg C",
"PostCode": "1964",
"LatLong": "55.6794,12.5346"
},
{
"Name": "Frederiksberg C",
"PostCode": "1965",
"LatLong": "55.6794,12.5346"
},
{
"Name": "Frederiksberg C",
"PostCode": "1966",
"LatLong": "55.6794,12.5346"
},
{
"Name": "Frederiksberg C",
"PostCode": "1967",
"LatLong": "55.6794,12.5346"
},
{
"Name": "Frederiksberg C",
"PostCode": "1970",
"LatLong": "55.6794,12.5346"
},
{
"Name": "Frederiksberg C",
"PostCode": "1971",
"LatLong": "55.6794,12.5346"
},
{
"Name": "Frederiksberg C",
"PostCode": "1972",
"LatLong": "55.6794,12.5346"
},
{
"Name": "Frederiksberg C",
"PostCode": "1973",
"LatLong": "55.6794,12.5346"
},
{
"Name": "Frederiksberg C",
"PostCode": "1974",
"LatLong": "55.6794,12.5346"
},
{
"Name": "København N",
"PostCode": "2200",
"LatLong": "55.6759,12.5655"
},
{
"Name": "Valby",
"PostCode": "2500",
"LatLong": "55.6581,12.5241"
},
{
"Name": "Vanløse",
"PostCode": "2720",
"LatLong": "55.6836,12.4871"
}
]
}
]
},
{
"Name": "Ballerup Kommune",
"Code": "151",
"Communities": [
{
"Places": [
{
"Name": "Ballerup",
"PostCode": "2750",
"LatLong": "55.7316,12.3633"
},
{
"Name": "Herlev",
"PostCode": "2730",
"LatLong": "55.7237,12.44"
},
{
"Name": "Måløv",
"PostCode": "2760",
"LatLong": "55.7553,12.3233"
},
{
"Name": "Skovlunde",
"PostCode": "2740",
"LatLong": "55.7157,12.398"
},
{
"Name": "Værløse",
"PostCode": "3500",
"LatLong": "55.7825,12.3686"
}
]
}
]
},
{
"Name": "Brøndby Kommune",
"Code": "153",
"Communities": [
{
"Places": [
{
"Name": "Albertslund",
"PostCode": "2620",
"LatLong": "55.6569,12.3638"
},
{
"Name": "Brøndby",
"PostCode": "2605",
"LatLong": "55.6503,12.41"
},
{
"Name": "Brøndby Strand",
"PostCode": "2660",
"LatLong": "55.6167,12.35"
},
{
"Name": "Glostrup",
"PostCode": "2600",
"LatLong": "55.6666,12.4038"
},
{
"Name": "Hvidovre",
"PostCode": "2650",
"LatLong": "55.6572,12.4736"
},
{
"Name": "Københavns Pakkecent",
"PostCode": "0917",
"LatLong": "55.6759,12.5655"
}
]
}
]
},
{
"Name": "Dragør Kommune",
"Code": "155",
"Communities": [
{
"Places": [
{
"Name": "Dragør",
"PostCode": "2791",
"LatLong": "55.5945,12.6664"
}
]
}
]
},
{
"Name": "Gentofte Kommune",
"Code": "157",
"Communities": [
{
"Places": [
{
"Name": "Charlottenlund",
"PostCode": "2920",
"LatLong": "55.7537,12.5918"
},
{
"Name": "Dyssegård",
"PostCode": "2870",
"LatLong": "55.7728,12.494"
},
{
"Name": "Gentofte",
"PostCode": "2820",
"LatLong": "55.749,12.546"
},
{
"Name": "Hellerup",
"PostCode": "2900",
"LatLong": "55.732,12.5709"
},
{
"Name": "Klampenborg",
"PostCode": "2930",
"LatLong": "55.7763,12.5901"
},
{
"Name": "Kongens Lyngby",
"PostCode": "2800",
"LatLong": "55.7704,12.5038"
}
]
}
]
},
{
"Name": "Gladsaxe Kommune",
"Code": "159",
"Communities": [
{
"Places": [
{
"Name": "Bagsværd",
"PostCode": "2880",
"LatLong": "55.7618,12.4679"
},
{
"Name": "Gentofte",
"PostCode": "2820",
"LatLong": "55.749,12.546"
},
{
"Name": "Herlev",
"PostCode": "2730",
"LatLong": "55.7237,12.44"
},
{
"Name": "Kongens Lyngby",
"PostCode": "2800",
"LatLong": "55.7704,12.5038"
},
{
"Name": "Søborg",
"PostCode": "2860",
"LatLong": "55.7302,12.5098"
},
{
"Name": "Værløse",
"PostCode": "3500",
"LatLong": "55.7825,12.3686"
}
]
}
]
},
{
"Name": "Glostrup Kommune",
"Code": "161",
"Communities": [
{
"Places": [
{
"Name": "Glostrup",
"PostCode": "2600",
"LatLong": "55.6666,12.4038"
}
]
}
]
},
{
"Name": "Herlev Kommune",
"Code": "163",
"Communities": [
{
"Places": [
{
"Name": "Bagsværd",
"PostCode": "2880",
"LatLong": "55.7618,12.4679"
},
{
"Name": "Herlev",
"PostCode": "2730",
"LatLong": "55.7237,12.44"
},
{
"Name": "Skovlunde",
"PostCode": "2740",
"LatLong": "55.7157,12.398"
}
]
}
]
},
{
"Name": "Albertslund Kommune",
"Code": "165",
"Communities": [
{
"Places": [
{
"Name": "Albertslund",
"PostCode": "2620",
"LatLong": "55.6569,12.3638"
},
{
"Name": "Ballerup",
"PostCode": "2750",
"LatLong": "55.7316,12.3633"
},
{
"Name": "Glostrup",
"PostCode": "2600",
"LatLong": "55.6666,12.4038"
}
]
}
]
},
{
"Name": "Hvidovre Kommune",
"Code": "167",
"Communities": [
{
"Places": [
{
"Name": "Brøndby Strand",
"PostCode": "2660",
"LatLong": "55.6167,12.35"
},
{
"Name": "Hvidovre",
"PostCode": "2650",
"LatLong": "55.6572,12.4736"
},
{
"Name": "Rødovre",
"PostCode": "2610",
"LatLong": "55.6806,12.4537"
}
]
}
]
},
{
"Name": "Høje-Taastrup Kommune",
"Code": "169",
"Communities": [
{
"Places": [
{
"Name": "Hedehusene",
"PostCode": "2640",
"LatLong": "55.647,12.1936"
},
{
"Name": "Høje Taastrup",
"PostCode": "0800",
"LatLong": "55.6471,12.2742"
},
{
"Name": "Roskilde",
"PostCode": "4000",
"LatLong": "55.6415,12.0803"
},
{
"Name": "Taastrup",
"PostCode": "2630",
"LatLong": "55.6517,12.2922"
}
]
}
]
},
{
"Name": "Lyngby-Taarbæk Kommune",
"Code": "173",
"Communities": [
{
"Places": [
{
"Name": "Holte",
"PostCode": "2840",
"LatLong": "55.8167,12.4667"
},
{
"Name": "Klampenborg",
"PostCode": "2930",
"LatLong": "55.7763,12.5901"
},
{
"Name": "Kongens Lyngby",
"PostCode": "2800",
"LatLong": "55.7704,12.5038"
},
{
"Name": "Værløse",
"PostCode": "3500",
"LatLong": "55.7825,12.3686"
},
{
"Name": "Virum",
"PostCode": "2830",
"LatLong": "55.7949,12.451"
}
]
}
]
},
{
"Name": "Rødovre Kommune",
"Code": "175",
"Communities": [
{
"Places": [
{
"Name": "Herlev",
"PostCode": "2730",
"LatLong": "55.7237,12.44"
},
{
"Name": "Rødovre",
"PostCode": "2610",
"LatLong": "55.6806,12.4537"
}
]
}
]
},
{
"Name": "Ishøj Kommune",
"Code": "183",
"Communities": [
{
"Places": [
{
"Name": "Hedehusene",
"PostCode": "2640",
"LatLong": "55.647,12.1936"
},
{
"Name": "Ishøj",
"PostCode": "2635",
"LatLong": "55.6154,12.3518"
}
]
}
]
},
{
"Name": "Tårnby Kommune",
"Code": "185",
"Communities": [
{
"Places": [
{
"Name": "Dragør",
"PostCode": "2791",
"LatLong": "55.5945,12.6664"
},
{
"Name": "Kastrup",
"PostCode": "2770",
"LatLong": "55.6352,12.6489"
},
{
"Name": "København S",
"PostCode": "2300",
"LatLong": "55.6759,12.5655"
},
{
"Name": "København V",
"PostCode": "1532",
"LatLong": "55.6759,12.5655"
},
{
"Name": "København V",
"PostCode": "1533",
"LatLong": "55.6759,12.5655"
}
]
}
]
},
{
"Name": "Vallensbæk Kommune",
"Code": "187",
"Communities": [
{
"Places": [
{
"Name": "Vallensbæk",
"PostCode": "2625",
"LatLong": "55.6333,12.3667"
},
{
"Name": "Vallensbæk Strand",
"PostCode": "2665",
"LatLong": "55.6139,12.3895"
}
]
}
]
},
{
"Name": "Furesø Kommune",
"Code": "190",
"Communities": [
{
"Places": [
{
"Name": "Bagsværd",
"PostCode": "2880",
"LatLong": "55.7618,12.4679"
},
{
"Name": "Birkerød",
"PostCode": "3460",
"LatLong": "55.8476,12.4279"
},
{
"Name": "Farum",
"PostCode": "3520",
"LatLong": "55.8086,12.3607"
},
{
"Name": "Lynge",
"PostCode": "3540",
"LatLong": "55.8394,12.2772"
},
{
"Name": "Værløse",
"PostCode": "3500",
"LatLong": "55.7825,12.3686"
}
]
}
]
},
{
"Name": "Allerød Kommune",
"Code": "201",
"Communities": [
{
"Places": [
{
"Name": "Allerød",
"PostCode": "3450",
"LatLong": "55.8703,12.3574"
},
{
"Name": "Birkerød",
"PostCode": "3460",
"LatLong": "55.8476,12.4279"
},
{
"Name": "Farum",
"PostCode": "3520",
"LatLong": "55.8086,12.3607"
},
{
"Name": "Hillerød",
"PostCode": "3400",
"LatLong": "55.9279,12.3008"
},
{
"Name": "Lynge",
"PostCode": "3540",
"LatLong": "55.8394,12.2772"
},
{
"Name": "Slangerup",
"PostCode": "3550",
"LatLong": "55.85,12.1833"
}
]
}
]
},
{
"Name": "Fredensborg Kommune",
"Code": "210",
"Communities": [
{
"Places": [
{
"Name": "Allerød",
"PostCode": "3450",
"LatLong": "55.8703,12.3574"
},
{
"Name": "Espergærde",
"PostCode": "3060",
"LatLong": "56,12.5667"
},
{
"Name": "Fredensborg",
"PostCode": "3480",
"LatLong": "55.9756,12.4031"
},
{
"Name": "Hillerød",
"PostCode": "3400",
"LatLong": "55.9279,12.3008"
},
{
"Name": "Hørsholm",
"PostCode": "2970",
"LatLong": "55.881,12.5011"
},
{
"Name": "Humlebæk",
"PostCode": "3050",
"LatLong": "55.9618,12.5341"
},
{
"Name": "Kokkedal",
"PostCode": "2980",
"LatLong": "55.9118,12.4995"
},
{
"Name": "Kvistgård",
"PostCode": "3490",
"LatLong": "55.9935,12.5045"
},
{
"Name": "Nivå",
"PostCode": "2990",
"LatLong": "55.9341,12.5048"
}
]
}
]
},
{
"Name": "Helsingør Kommune",
"Code": "217",
"Communities": [
{
"Places": [
{
"Name": "Ålsgårde",
"PostCode": "3140",
"LatLong": "56.0756,12.5399"
},
{
"Name": "Espergærde",
"PostCode": "3060",
"LatLong": "56,12.5667"
},
{
"Name": "Fredensborg",
"PostCode": "3480",
"LatLong": "55.9756,12.4031"
},
{
"Name": "Græsted",
"PostCode": "3230",
"LatLong": "56.0656,12.2851"
},
{
"Name": "Hellebæk",
"PostCode": "3150",
"LatLong": "56.0682,12.5578"
},
{
"Name": "Helsingør",
"PostCode": "3000",
"LatLong": "56.0361,12.6136"
},
{
"Name": "Hornbæk",
"PostCode": "3100",
"LatLong": "56.0854,12.4505"
},
{
"Name": "Humlebæk",
"PostCode": "3050",
"LatLong": "55.9618,12.5341"
},
{
"Name": "Kvistgård",
"PostCode": "3490",
"LatLong": "55.9935,12.5045"
},
{
"Name": "Snekkersten",
"PostCode": "3070",
"LatLong": "56.009,12.586"
},
{
"Name": "Tikøb",
"PostCode": "3080",
"LatLong": "56.0206,12.4531"
}
]
}
]
},
{
"Name": "Hillerød Kommune",
"Code": "219",
"Communities": [
{
"Places": [
{
"Name": "Allerød",
"PostCode": "3450",
"LatLong": "55.8703,12.3574"
},
{
"Name": "Fredensborg",
"PostCode": "3480",
"LatLong": "55.9756,12.4031"
},
{
"Name": "Frederikssund",
"PostCode": "3600",
"LatLong": "55.8396,12.069"
},
{
"Name": "Gørløse",
"PostCode": "3330",
"LatLong": "55.8852,12.1982"
},
{
"Name": "Græsted",
"PostCode": "3230",
"LatLong": "56.0656,12.2851"
},
{
"Name": "Helsinge",
"PostCode": "3200",
"LatLong": "56.0228,12.1975"
},
{
"Name": "Hillerød",
"PostCode": "3400",
"LatLong": "55.9279,12.3008"
},
{
"Name": "Lynge",
"PostCode": "3540",
"LatLong": "55.8394,12.2772"
},
{
"Name": "Ølsted",
"PostCode": "3310",
"LatLong": "55.9232,12.0707"
},
{
"Name": "Skævinge",
"PostCode": "3320",
"LatLong": "55.9079,12.1504"
},
{
"Name": "Slangerup",
"PostCode": "3550",
"LatLong": "55.85,12.1833"
}
]
}
]
},
{
"Name": "Hørsholm Kommune",
"Code": "223",
"Communities": [
{
"Places": [
{
"Name": "Hørsholm",
"PostCode": "2970",
"LatLong": "55.881,12.5011"
},
{
"Name": "Kokkedal",
"PostCode": "2980",
"LatLong": "55.9118,12.4995"
},
{
"Name": "Rungsted Kyst",
"PostCode": "2960",
"LatLong": "55.8349,12.5451"
},
{
"Name": "Vedbæk",
"PostCode": "2950",
"LatLong": "55.8473,12.5689"
}
]
}
]
},
{
"Name": "Rudersdal Kommune",
"Code": "230",
"Communities": [
{
"Places": [
{
"Name": "Birkerød",
"PostCode": "3460",
"LatLong": "55.8476,12.4279"
},
{
"Name": "Holte",
"PostCode": "2840",
"LatLong": "55.8167,12.4667"
},
{
"Name": "Hørsholm",
"PostCode": "2970",
"LatLong": "55.881,12.5011"
},
{
"Name": "Kongens Lyngby",
"PostCode": "2800",
"LatLong": "55.7704,12.5038"
},
{
"Name": "Nærum",
"PostCode": "2850",
"LatLong": "55.816,12.5385"
},
{
"Name": "Skodsborg",
"PostCode": "2942",
"LatLong": "55.8225,12.5732"
},
{
"Name": "Vedbæk",
"PostCode": "2950",
"LatLong": "55.8473,12.5689"
},
{
"Name": "Virum",
"PostCode": "2830",
"LatLong": "55.7949,12.451"
}
]
}
]
},
{
"Name": "Egedal Kommune",
"Code": "240",
"Communities": [
{
"Places": [
{
"Name": "Ballerup",
"PostCode": "2750",
"LatLong": "55.7316,12.3633"
},
{
"Name": "Farum",
"PostCode": "3520",
"LatLong": "55.8086,12.3607"
},
{
"Name": "Lynge",
"PostCode": "3540",
"LatLong": "55.8394,12.2772"
},
{
"Name": "Ølstykke",
"PostCode": "3650",
"LatLong": "55.7916,12.145"
},
{
"Name": "Slangerup",
"PostCode": "3550",
"LatLong": "55.85,12.1833"
},
{
"Name": "Smørum",
"PostCode": "2765",
"LatLong": "55.7423,12.3028"
},
{
"Name": "Stenløse",
"PostCode": "3660",
"LatLong": "55.7683,12.1972"
},
{
"Name": "Værløse",
"PostCode": "3500",
"LatLong": "55.7825,12.3686"
},
{
"Name": "Veksø Sjælland",
"PostCode": "3670",
"LatLong": "55.8223,12.0862"
}
]
}
]
},
{
"Name": "Frederikssund Kommune",
"Code": "250",
"Communities": [
{
"Places": [
{
"Name": "Frederikssund",
"PostCode": "3600",
"LatLong": "55.8396,12.069"
},
{
"Name": "Jægerspris",
"PostCode": "3630",
"LatLong": "55.8554,11.9679"
},
{
"Name": "Skibby",
"PostCode": "4050",
"LatLong": "55.7512,11.9608"
},
{
"Name": "Slangerup",
"PostCode": "3550",
"LatLong": "55.85,12.1833"
}
]
}
]
},
{
"Name": "Halsnæs Kommune",
"Code": "260",
"Communities": [
{
"Places": [
{
"Name": "Frederikssund",
"PostCode": "3600",
"LatLong": "55.8396,12.069"
},
{
"Name": "Frederiksværk",
"PostCode": "3300",
"LatLong": "55.9707,12.0225"
},
{
"Name": "Hundested",
"PostCode": "3390",
"LatLong": "55.9667,11.8667"
},
{
"Name": "Liseleje",
"PostCode": "3360",
"LatLong": "56.0053,11.9483"
},
{
"Name": "Melby",
"PostCode": "3370",
"LatLong": "55.9962,11.9676"
},
{
"Name": "Ølsted",
"PostCode": "3310",
"LatLong": "55.9232,12.0707"
},
{
"Name": "Skævinge",
"PostCode": "3320",
"LatLong": "55.9079,12.1504"
}
]
}
]
},
{
"Name": "Gribskov Kommune",
"Code": "270",
"Communities": [
{
"Places": [
{
"Name": "Dronningmølle",
"PostCode": "3120",
"LatLong": "56.0949,12.3852"
},
{
"Name": "Frederiksværk",
"PostCode": "3300",
"LatLong": "55.9707,12.0225"
},
{
"Name": "Gilleleje",
"PostCode": "3250",
"LatLong": "56.122,12.3106"
},
{
"Name": "Græsted",
"PostCode": "3230",
"LatLong": "56.0656,12.2851"
},
{
"Name": "Helsinge",
"PostCode": "3200",
"LatLong": "56.0228,12.1975"
},
{
"Name": "Hornbæk",
"PostCode": "3100",
"LatLong": "56.0854,12.4505"
},
{
"Name": "Tisvildeleje",
"PostCode": "3220",
"LatLong": "56.0598,12.0741"
},
{
"Name": "Vejby",
"PostCode": "3210",
"LatLong": "56.0639,12.1419"
}
]
}
]
},
{
"Name": "Bornholm Kommune",
"Code": "400",
"Communities": [
{
"Places": [
{
"Name": "Aakirkeby",
"PostCode": "3720",
"LatLong": "55.0708,14.9198"
},
{
"Name": "Allinge",
"PostCode": "3770",
"LatLong": "55.2759,14.8024"
},
{
"Name": "Gudhjem",
"PostCode": "3760",
"LatLong": "55.2105,14.9713"
},
{
"Name": "Hasle",
"PostCode": "3790",
"LatLong": "55.1821,14.7112"
},
{
"Name": "Klemensker",
"PostCode": "3782",
"LatLong": "55.1727,14.8099"
},
{
"Name": "Nexø",
"PostCode": "3730",
"LatLong": "55.0607,15.1306"
},
{
"Name": "Østermarie",
"PostCode": "3751",
"LatLong": "55.1407,15.0125"
},
{
"Name": "Rønne",
"PostCode": "3700",
"LatLong": "55.1009,14.7066"
},
{
"Name": "Svaneke",
"PostCode": "3740",
"LatLong": "55.1357,15.1414"
}
]
}
]
},
{
"Name": "Christiansø",
"Code": "411",
"Communities": [
{
"Places": [
{
"Name": "Gudhjem",
"PostCode": "3760",
"LatLong": "55.2105,14.9713"
}
]
}
]
}
]
},
{
"Name": "Region Sjælland",
"Code": "85",
"Provinces": [
{
"Name": "Greve Kommune",
"Code": "253",
"Communities": [
{
"Places": [
{
"Name": "Greve",
"PostCode": "2670",
"LatLong": "55.5833,12.3"
},
{
"Name": "Hedehusene",
"PostCode": "2640",
"LatLong": "55.647,12.1936"
},
{
"Name": "Karlslunde",
"PostCode": "2690",
"LatLong": "55.5726,12.2258"
},
{
"Name": "Tune",
"PostCode": "4030",
"LatLong": "55.5953,12.1832"
}
]
}
]
},