[
{
"Name": "Adrar",
"Code": "01",
"Provinces": [
{
"Communities": [
{
"Places": [
{
"Name": "Abani",
"PostCode": "01027",
"Location": {
"Latitude": 28.4179,
"Longitude": -0.1887
}
},
{
"Name": "Abenkour",
"PostCode": "01021",
"Location": {
"Latitude": 27.9365,
"Longitude": -0.243
}
},
{
"Name": "Aboud",
"PostCode": "01012",
"Location": {
"Latitude": 28.7141,
"Longitude": 0.3337
}
},
{
"Name": "Adgha",
"PostCode": "01016",
"Location": {
"Latitude": 28.7358,
"Longitude": 0.2367
}
},
{
"Name": "Adjir",
"PostCode": "01032",
"Location": {
"Latitude": 28.8251,
"Longitude": -0.0191
}
},
{
"Name": "Adjir Cherghi",
"PostCode": "01032",
"Location": {
"Latitude": 28.8251,
"Longitude": -0.0191
}
},
{
"Name": "Adjir Gharbi",
"PostCode": "01032",
"Location": {
"Latitude": 28.8251,
"Longitude": -0.0191
}
},
{
"Name": "Admeur",
"PostCode": "01007",
"Location": {
"Latitude": 27.1877,
"Longitude": -0.1746
}
},
{
"Name": "Adrar 1er Nov 54",
"PostCode": "01005",
"Location": {
"Latitude": 28.07,
"Longitude": 0.1158
}
},
{
"Name": "Adrar Cite Administrative",
"PostCode": "01006",
"Location": {
"Latitude": 28.07,
"Longitude": 0.1158
}
},
{
"Name": "Adrar Cite Zerrari Med",
"PostCode": "01000",
"Location": {
"Latitude": 28.07,
"Longitude": 0.1158
}
},
{
"Name": "Adrar Hay El Gharbi",
"PostCode": "01018",
"Location": {
"Latitude": 28.7358,
"Longitude": 0.2367
}
},
{
"Name": "Adrar Rp",
"PostCode": "01000",
"Location": {
"Latitude": 28.07,
"Longitude": 0.1158
}
},
{
"Name": "Adrar Sidi Med Belekbir",
"PostCode": "01002",
"Location": {
"Latitude": 28.07,
"Longitude": 0.1158
}
},
{
"Name": "Adreur",
"PostCode": "01007",
"Location": {
"Latitude": 27.1877,
"Longitude": -0.1746
}
},
{
"Name": "Aghil",
"PostCode": "01024",
"Location": {
"Latitude": 27.9365,
"Longitude": -0.243
}
},
{
"Name": "Ait Messaoud",
"PostCode": "01045",
"Location": {
"Latitude": 27.1441,
"Longitude": 0.6003
}
},
{
"Name": "Akabli",
"PostCode": "01044",
"Location": {
"Latitude": 26.7083,
"Longitude": 1.3753
}
},
{
"Name": "Akbour",
"PostCode": "01036",
"Location": {
"Latitude": 28.7683,
"Longitude": 0.0266
}
},
{
"Name": "Akhnatir",
"PostCode": "01000",
"Location": {
"Latitude": 28.07,
"Longitude": 0.1158
}
},
{
"Name": "Allouchia",
"PostCode": "01027",
"Location": {
"Latitude": 27.6504,
"Longitude": -0.3151
}
},
{
"Name": "Ammor",
"PostCode": "01015",
"Location": {
"Latitude": 28.7358,
"Longitude": 0.2367
}
},
{
"Name": "Antar",
"PostCode": "01020",
"Location": {
"Latitude": 27.4471,
"Longitude": -0.2675
}
},
{
"Name": "Aougrout",
"PostCode": "01012",
"Location": {
"Latitude": 28.7029,
"Longitude": 0.3352
}
},
{
"Name": "Aoulef",
"PostCode": "01003",
"Location": {
"Latitude": 26.95,
"Longitude": 1.0833
}
},
{
"Name": "Aoulef Cheurfa",
"PostCode": "01043",
"Location": {
"Latitude": 27.01,
"Longitude": 1.0634
}
},
{
"Name": "Aourire",
"PostCode": "01036",
"Location": {
"Latitude": 28.7824,
"Longitude": 0.0413
}
},
{
"Name": "Arriane Erras",
"PostCode": "01015",
"Location": {
"Latitude": 28.7358,
"Longitude": 0.2367
}
},
{
"Name": "Asfaou",
"PostCode": "01014",
"Location": {
"Latitude": 28.2438,
"Longitude": -0.0909
}
},
{
"Name": "Azoua",
"PostCode": "01040",
"Location": {
"Latitude": 27.1138,
"Longitude": -0.1375
}
},
{
"Name": "Azzekour",
"PostCode": "01001",
"Location": {
"Latitude": 29.2687,
"Longitude": 0.2604
}
},
{
"Name": "Azzi",
"PostCode": "01027",
"Location": {
"Latitude": 28.4179,
"Longitude": -0.1887
}
},
{
"Name": "Baabdellah",
"PostCode": "01025",
"Location": {
"Latitude": 27.8444,
"Longitude": -0.3494
}
},
{
"Name": "Baamar",
"PostCode": "01008",
"Location": {
"Latitude": 28.2145,
"Longitude": -0.1335
}
},
{
"Name": "Badriane",
"PostCode": "01001",
"Location": {
"Latitude": 29.3382,
"Longitude": 0.3404
}
},
{
"Name": "Bahamou",
"PostCode": "01034",
"Location": {
"Latitude": 29.415,
"Longitude": -0.4039
}
},
{
"Name": "Bahou",
"PostCode": "01017",
"Location": {
"Latitude": 28.7358,
"Longitude": 0.2367
}
},
{
"Name": "Baouandji",
"PostCode": "01050",
"Location": {
"Latitude": 28.2134,
"Longitude": 0.1323
}
},
{
"Name": "Barbaa",
"PostCode": "01016",
"Location": {
"Latitude": 28.7358,
"Longitude": 0.2367
}
},
{
"Name": "Barchid",
"PostCode": "01008",
"Location": {
"Latitude": 28.2145,
"Longitude": -0.1335
}
},
{
"Name": "Benaid",
"PostCode": "01012",
"Location": {
"Latitude": 28.7015,
"Longitude": 0.3377
}
},
{
"Name": "Benhmi",
"PostCode": "01027",
"Location": {
"Latitude": 28.4179,
"Longitude": -0.1887
}
},
{
"Name": "Beni Islem",
"PostCode": "01014",
"Location": {
"Latitude": 28.2438,
"Longitude": -0.0909
}
},
{
"Name": "Beni Mahlal",
"PostCode": "01001",
"Location": {
"Latitude": 29.2687,
"Longitude": 0.2604
}
},
{
"Name": "Beni Ouazel",
"PostCode": "01026",
"Location": {
"Latitude": 27.9365,
"Longitude": -0.243
}
},
{
"Name": "Beni Tameur",
"PostCode": "01025",
"Location": {
"Latitude": 27.8444,
"Longitude": -0.3494
}
},
{
"Name": "Benillou",
"PostCode": "01026",
"Location": {
"Latitude": 27.9365,
"Longitude": -0.243
}
},
{
"Name": "Bentalha",
"PostCode": "01011",
"Location": {
"Latitude": 28.3319,
"Longitude": -0.2243
}
},
{
"Name": "Berich",
"PostCode": "01017",
"Location": {
"Latitude": 28.7358,
"Longitude": 0.2367
}
},
{
"Name": "Bni Aissi",
"PostCode": "01035",
"Location": {
"Latitude": 28.8251,
"Longitude": -0.0191
}
},
{
"Name": "Bordj Badji Mokhtar",
"PostCode": "01010",
"Location": {
"Latitude": 28.7358,
"Longitude": 0.2367
}
},
{
"Name": "Bouali",
"PostCode": "01040",
"Location": {
"Latitude": 27.1484,
"Longitude": -0.1461
}
},
{
"Name": "Bouda Bendraou",
"PostCode": "01026",
"Location": {
"Latitude": 27.9365,
"Longitude": -0.243
}
},
{
"Name": "Bouda El Mansour",
"PostCode": "01023",
"Location": {
"Latitude": 27.9365,
"Longitude": -0.243
}
},
{
"Name": "Boufadi",
"PostCode": "01021",
"Location": {
"Latitude": 27.9365,
"Longitude": -0.243
}
},
{
"Name": "Bouguema",
"PostCode": "01012",
"Location": {
"Latitude": 28.7015,
"Longitude": 0.3377
}
},
{
"Name": "Bouhamed",
"PostCode": "01007",
"Location": {
"Latitude": 27.1877,
"Longitude": -0.1746
}
},
{
"Name": "Bouria",
"PostCode": "01045",
"Location": {
"Latitude": 27.1441,
"Longitude": 0.6003
}
},
{
"Name": "Bourtimadanine",
"PostCode": "01048",
"Location": {
"Latitude": 27.1441,
"Longitude": 0.6003
}
},
{
"Name": "Bouyahia",
"PostCode": "01020",
"Location": {
"Latitude": 27.4535,
"Longitude": -0.27
}
},
{
"Name": "Bouzane",
"PostCode": "01025",
"Location": {
"Latitude": 27.8444,
"Longitude": -0.3494
}
},
{
"Name": "Brinkane",
"PostCode": "01015",
"Location": {
"Latitude": 28.7358,
"Longitude": 0.2367
}
},
{
"Name": "Charef",
"PostCode": "01012",
"Location": {
"Latitude": 28.7015,
"Longitude": 0.3377
}
},
{
"Name": "Charouine",
"PostCode": "01014",
"Location": {
"Latitude": 29.015,
"Longitude": -0.2644
}
},
{
"Name": "Deldoul",
"PostCode": "01036",
"Location": {
"Latitude": 28.7824,
"Longitude": 0.0413
}
},
{
"Name": "Djedid",
"PostCode": "01003",
"Location": {
"Latitude": 27.4598,
"Longitude": -0.2726
}
},
{
"Name": "Djedid",
"PostCode": "01020",
"Location": {
"Latitude": 27.4598,
"Longitude": -0.2726
}
},
{
"Name": "El Barka",
"PostCode": "01036",
"Location": {
"Latitude": 28.8074,
"Longitude": 0.0436
}
},
{
"Name": "El Gasba",
"PostCode": "01001",
"Location": {
"Latitude": 29.2687,
"Longitude": 0.2604
}
},
{
"Name": "El Habdane",
"PostCode": "01036",
"Location": {
"Latitude": 28.7824,
"Longitude": 0.0413
}
},
{
"Name": "El Habla",
"PostCode": "01011",
"Location": {
"Latitude": 28.3319,
"Longitude": -0.2243
}
},
{
"Name": "El Kaf",
"PostCode": "01001",
"Location": {
"Latitude": 29.2687,
"Longitude": 0.2604
}
},
{
"Name": "El Khalfi",
"PostCode": "01007",
"Location": {
"Latitude": 27.0718,
"Longitude": -0.1158
}
},
{
"Name": "El Mansour",
"PostCode": "01008",
"Location": {
"Latitude": 28.7623,
"Longitude": 0.033
}
},
{
"Name": "El Mansour",
"PostCode": "01009",
"Location": {
"Latitude": 28.7623,
"Longitude": 0.033
}
},
{
"Name": "El Meharza",
"PostCode": "01009",
"Location": {
"Latitude": 28.3412,
"Longitude": 0.086
}
},
{
"Name": "El Mestour",
"PostCode": "01017",
"Location": {
"Latitude": 28.7358,
"Longitude": 0.2367
}
},
{
"Name": "Elmanjour",
"PostCode": "01001",
"Location": {
"Latitude": 29.2687,
"Longitude": 0.2604
}
},
{
"Name": "Ennefis",
"PostCode": "01048",
"Location": {
"Latitude": 27.1441,
"Longitude": 0.6003
}
},
{
"Name": "Fatis",
"PostCode": "01013",
"Location": {
"Latitude": 29.7335,
"Longitude": 0.6585
}
},
{
"Name": "Fenoughil",
"PostCode": "01008",
"Location": {
"Latitude": 27.6667,
"Longitude": -0.3
}
},
{
"Name": "Gasbet Bellal",
"PostCode": "01003",
"Location": {
"Latitude": 27.2049,
"Longitude": 0.4054
}
},
{
"Name": "Gasbet Djenna",
"PostCode": "01043",
"Location": {
"Latitude": 27.0134,
"Longitude": 1.035
}
},
{
"Name": "Gasbet El Kaid",
"PostCode": "01000",
"Location": {
"Latitude": 28.07,
"Longitude": 0.1158
}
},
{
"Name": "Gasbet Maikhaf",
"PostCode": "01003",
"Location": {
"Latitude": 27.2049,
"Longitude": 0.4054
}
},
{
"Name": "Gasbet Moulay Hiba",
"PostCode": "01043",
"Location": {
"Latitude": 27.0134,
"Longitude": 1.035
}
},
{
"Name": "Gasbet Sidi Said",
"PostCode": "01026",
"Location": {
"Latitude": 27.9365,
"Longitude": -0.243
}
},
{
"Name": "Gasibet Lahrar",
"PostCode": "01008",
"Location": {
"Latitude": 28.2145,
"Longitude": -0.1335
}
},
{
"Name": "Ghabet Moulay Ali",
"PostCode": "01011",
"Location": {
"Latitude": 28.3319,
"Longitude": -0.2243
}
},
{
"Name": "Gherme Ali",
"PostCode": "01026",
"Location": {
"Latitude": 27.9365,
"Longitude": -0.243
}
},
{
"Name": "Ghermianou",
"PostCode": "01028",
"Location": {
"Latitude": 27.9365,
"Longitude": -0.243
}
},
{
"Name": "Ghiat",
"PostCode": "01001",
"Location": {
"Latitude": 29.2687,
"Longitude": 0.2604
}
},
{
"Name": "Guellou",
"PostCode": "01034",
"Location": {
"Latitude": 29.415,
"Longitude": -0.4039
}
},
{
"Name": "Guentour",
"PostCode": "01001",
"Location": {
"Latitude": 29.2687,
"Longitude": 0.2604
}
},
{
"Name": "Guettouf",
"PostCode": "01034",
"Location": {
"Latitude": 29.415,
"Longitude": -0.4039
}
},
{
"Name": "Hadj El Mamoun",
"PostCode": "01029",
"Location": {
"Latitude": 27.7605,
"Longitude": -0.26
}
},
{
"Name": "Hadj Guelmane",
"PostCode": "01039",
"Location": {
"Latitude": 29.4249,
"Longitude": 0.273
}
},
{
"Name": "Hammad",
"PostCode": "01015",
"Location": {
"Latitude": 28.7358,
"Longitude": 0.2367
}
},
{
"Name": "Hiha",
"PostCode": "01051",
"Location": {
"Latitude": 28.2134,
"Longitude": 0.1323
}
},
{
"Name": "Ighzer",
"PostCode": "01039",
"Location": {
"Latitude": 29.4116,
"Longitude": 0.2435
}
},
{
"Name": "Iguesten",
"PostCode": "01036",
"Location": {
"Latitude": 28.7824,
"Longitude": 0.0413
}
},
{
"Name": "Ikkis",
"PostCode": "01024",
"Location": {
"Latitude": 27.9365,
"Longitude": -0.243
}
},
{
"Name": "Ikouba",
"PostCode": "01001",
"Location": {
"Latitude": 29.2687,
"Longitude": 0.2604
}
},
{
"Name": "In Belbel",
"PostCode": "01041",
"Location": {
"Latitude": 27.8829,
"Longitude": 1.1698
}
},
{
"Name": "In Zeglouf",
"PostCode": "01045",
"Location": {
"Latitude": 27.1441,
"Longitude": 0.6003
}
},
{
"Name": "Inguelo≈Ø",
"PostCode": "01035",
"Location": {
"Latitude": 28.8251,
"Longitude": -0.0191
}
},
{
"Name": "Inhammou",
"PostCode": "01013",
"Location": {
"Latitude": 29.7617,
"Longitude": 0.7062
}
},
{
"Name": "Inner",
"PostCode": "01043",
"Location": {
"Latitude": 27.0134,
"Longitude": 1.035
}
},
{
"Name": "Inzeghmir",
"PostCode": "01049",
"Location": {
"Latitude": 27.0938,
"Longitude": -0.1206
}
},
{
"Name": "Izrafine",
"PostCode": "01004",
"Location": {
"Latitude": 26.7099,
"Longitude": 0.1943
}
},
{
"Name": "Kaberten",
"PostCode": "01015",
"Location": {
"Latitude": 28.7358,
"Longitude": 0.2367
}
},
{
"Name": "Kali",
"PostCode": "01039",
"Location": {
"Latitude": 29.3982,
"Longitude": 0.2139
}
},
{
"Name": "Koussane",
"PostCode": "01025",
"Location": {
"Latitude": 27.8444,
"Longitude": -0.3494
}
},
{
"Name": "Ksar El Hadj",
"PostCode": "01012",
"Location": {
"Latitude": 28.696,
"Longitude": 0.3404
}
},
{
"Name": "Ksar Kaddour",
"PostCode": "01035",
"Location": {
"Latitude": 28.8251,
"Longitude": -0.0191
}
},
{
"Name": "Ksiba",
"PostCode": "01026",
"Location": {
"Latitude": 27.9365,
"Longitude": -0.243
}
},
{
"Name": "L'Maiz",
"PostCode": "01019",
"Location": {
"Latitude": 28.7358,
"Longitude": 0.2367
}
},
{
"Name": "Laa Marine",
"PostCode": "01026",
"Location": {
"Latitude": 27.9365,
"Longitude": -0.243
}
},
{
"Name": "Laayad",
"PostCode": "01015",
"Location": {
"Latitude": 28.7358,
"Longitude": 0.2367
}
},
{
"Name": "Laghmara",
"PostCode": "01026",
"Location": {
"Latitude": 27.9365,
"Longitude": -0.243
}
},
{
"Name": "Lagrara",
"PostCode": "01022",
"Location": {
"Latitude": 28.2078,
"Longitude": -0.1744
}
},
{
"Name": "Lahmeur",
"PostCode": "01024",
"Location": {
"Latitude": 27.9365,
"Longitude": -0.243
}
},
{
"Name": "Lichta",
"PostCode": "01001",
"Location": {
"Latitude": 29.2267,
"Longitude": 0.1994
}
},
{
"Name": "Louajda",
"PostCode": "01001",
"Location": {
"Latitude": 29.2687,
"Longitude": 0.2604
}
},
{
"Name": "M'Guiden",
"PostCode": "01037",
"Location": {
"Latitude": 28.8251,
"Longitude": -0.0191
}
},
{
"Name": "M'Kara",
"PostCode": "01008",
"Location": {
"Latitude": 28.2145,
"Longitude": -0.1335
}
},
{
"Name": "M'Nassir",
"PostCode": "01007",
"Location": {
"Latitude": 27.1877,
"Longitude": -0.1746
}
},
{
"Name": "M'Sahel",
"PostCode": "01001",
"Location": {
"Latitude": 29.2687,
"Longitude": 0.2604
}
},
{
"Name": "Macine",
"PostCode": "01001",
"Location": {
"Latitude": 29.2687,
"Longitude": 0.2604
}
},
{
"Name": "Mansouria",
"PostCode": "01025",
"Location": {
"Latitude": 27.8444,
"Longitude": -0.3494
}
},
{
"Name": "Mehdia",
"PostCode": "01025",
"Location": {
"Latitude": 27.8444,
"Longitude": -0.3494
}
},
{
"Name": "Melouka",
"PostCode": "01030",
"Location": {
"Latitude": 27.8638,
"Longitude": -0.3418
}
},
{
"Name": "Meraguen",
"PostCode": "01000",
"Location": {
"Latitude": 28.07,
"Longitude": 0.1158
}
},
{
"Name": "Metarfa",
"PostCode": "01038",
"Location": {
"Latitude": 28.5844,
"Longitude": -0.1504
}
},
{
"Name": "Moulay El Arbi",
"PostCode": "01009",
"Location": {
"Latitude": 28.3412,
"Longitude": 0.086
}
},
{
"Name": "Naama",
"PostCode": "01034",
"Location": {
"Latitude": 29.415,
"Longitude": -0.4039
}
},
{
"Name": "Nebda",
"PostCode": "01026",
"Location": {
"Latitude": 27.9365,
"Longitude": -0.243
}
},
{
"Name": "Noum Ennasse",
"PostCode": "01029",
"Location": {
"Latitude": 27.7605,
"Longitude": -0.26
}
},
{
"Name": "Omanate",
"PostCode": "01003",
"Location": {
"Latitude": 27.2049,
"Longitude": 0.4054
}
},
{
"Name": "Ouadgha",
"PostCode": "01027",
"Location": {
"Latitude": 28.4179,
"Longitude": -0.1887
}
},
{
"Name": "Ouadhaghe",
"PostCode": "01013",
"Location": {
"Latitude": 29.7617,
"Longitude": 0.7062
}
},
{
"Name": "Ouaina",
"PostCode": "01030",
"Location": {
"Latitude": 27.8638,
"Longitude": -0.3418
}
},
{
"Name": "Oudjlane",
"PostCode": "01019",
"Location": {
"Latitude": 28.7358,
"Longitude": 0.2367
}
},
{
"Name": "Oufrane",
"PostCode": "01033",
"Location": {
"Latitude": 28.5401,
"Longitude": 0.1843
}
},
{
"Name": "Ouguedim",
"PostCode": "01016",
"Location": {
"Latitude": 28.7358,
"Longitude": 0.2367
}
},
{
"Name": "Ouled Abbou",
"PostCode": "01036",
"Location": {
"Latitude": 28.7716,
"Longitude": 0.0537
}
},
{
"Name": "Ouled Ahmed",
"PostCode": "01025",
"Location": {
"Latitude": 27.8444,
"Longitude": -0.3494
}
},
{
"Name": "Ouled Aissa",
"PostCode": "01051",
"Location": {
"Latitude": 28.2134,
"Longitude": 0.1323
}
},
{
"Name": "Ouled Ali",
"PostCode": "01000",
"Location": {
"Latitude": 28.07,
"Longitude": 0.1158
}
},
{
"Name": "Ouled Ali Lakracha",
"PostCode": "01038",
"Location": {
"Latitude": 28.5844,
"Longitude": -0.1504
}
},
{
"Name": "Ouled Arroussa",
"PostCode": "01025",
"Location": {
"Latitude": 27.8444,
"Longitude": -0.3494
}
},
{
"Name": "Ouled Bouhafs",
"PostCode": "01025",
"Location": {
"Latitude": 27.8444,
"Longitude": -0.3494
}
},
{
"Name": "Ouled Brahim",
"PostCode": "01001",
"Location": {
"Latitude": 29.2687,
"Longitude": 0.2604
}
},
{
"Name": "Ouled Brahim",
"PostCode": "01025",
"Location": {
"Latitude": 27.8444,
"Longitude": -0.3494
}
},
{
"Name": "Ouled El Hadj",
"PostCode": "01001",
"Location": {
"Latitude": 29.2687,
"Longitude": 0.2604
}
},
{
"Name": "Ouled El Hadj Bordja",
"PostCode": "01007",
"Location": {
"Latitude": 27.1877,
"Longitude": -0.1746
}
},
{
"Name": "Ouled Mahmoud",
"PostCode": "01033",
"Location": {
"Latitude": 28.6086,
"Longitude": 0.047
}
},
{
"Name": "Ouled Moulay Lahcen",
"PostCode": "01008",
"Location": {
"Latitude": 28.2145,
"Longitude": -0.1335
}
},
{
"Name": "Ouled Moulay Omar",
"PostCode": "01008",
"Location": {
"Latitude": 28.2145,
"Longitude": -0.1335
}
},
{
"Name": "Ouled Oungal",
"PostCode": "01000",
"Location": {
"Latitude": 28.07,
"Longitude": 0.1158
}
},
{
"Name": "Ouled Rached",
"PostCode": "01033",
"Location": {
"Latitude": 28.6772,
"Longitude": -0.0903
}
},
{
"Name": "Ouled Said",
"PostCode": "01039",
"Location": {
"Latitude": 29.4116,
"Longitude": 0.2435
}
},
{
"Name": "Ouledtahar",
"PostCode": "01001",
"Location": {
"Latitude": 29.2687,
"Longitude": 0.2604
}
},
{
"Name": "Reggane",
"PostCode": "01004",
"Location": {
"Latitude": 26.7158,
"Longitude": 0.1714
}
},
{
"Name": "Rokina",
"PostCode": "01003",
"Location": {
"Latitude": 27.2049,
"Longitude": 0.4054
}
},
{
"Name": "Saguia",
"PostCode": "01034",
"Location": {
"Latitude": 29.415,
"Longitude": -0.4039
}
},
{
"Name": "Sahla",
"PostCode": "01038",
"Location": {
"Latitude": 28.5844,
"Longitude": -0.1504
}
},
{
"Name": "Sali",
"PostCode": "01009",
"Location": {
"Latitude": 26.9655,
"Longitude": -0.0404
}
},
{
"Name": "Sbaa",
"PostCode": "01022",
"Location": {
"Latitude": 28.2078,
"Longitude": -0.1744
}
},
{
"Name": "Sidi Cherif",
"PostCode": "01009",
"Location": {
"Latitude": 29.2959,
"Longitude": 0.2655
}
},
{
"Name": "Sidi Youcef",
"PostCode": "01008",
"Location": {
"Latitude": 28.2145,
"Longitude": -0.1335
}
},
{
"Name": "T'Sabit",
"PostCode": "01011",
"Location": {
"Latitude": 28.3319,
"Longitude": -0.2243
}
},
{
"Name": "Taarabine",
"PostCode": "01034",
"Location": {
"Latitude": 29.415,
"Longitude": -0.4039
}
},
{
"Name": "Taarabt",
"PostCode": "01004",
"Location": {
"Latitude": 26.7099,
"Longitude": 0.1943
}
},
{
"Name": "Tabelkoza",
"PostCode": "01013",
"Location": {
"Latitude": 29.7899,
"Longitude": 0.7538
}
},
{
"Name": "Taghouzi",
"PostCode": "01034",
"Location": {
"Latitude": 29.415,
"Longitude": -0.4039
}
},
{
"Name": "Taguelzi",
"PostCode": "01014",
"Location": {
"Latitude": 29.0124,
"Longitude": -0.2255
}
},
{
"Name": "Tahatait",
"PostCode": "01001",
"Location": {
"Latitude": 29.2687,
"Longitude": 0.2604
}
},
{
"Name": "Takaref",
"PostCode": "01003",
"Location": {
"Latitude": 27.2049,
"Longitude": 0.4054
}
},
{
"Name": "Takhfift",
"PostCode": "01007",
"Location": {
"Latitude": 27.1877,
"Longitude": -0.1746
}
},
{
"Name": "Talmine",
"PostCode": "01034",
"Location": {
"Latitude": 29.415,
"Longitude": -0.4039
}
},
{
"Name": "Talmine Lekbir",
"PostCode": "01034",
"Location": {
"Latitude": 29.415,
"Longitude": -0.4039
}
},
{
"Name": "Tamentit",
"PostCode": "01029",
"Location": {
"Latitude": 27.7605,
"Longitude": -0.26
}
},
{
"Name": "Tamest",
"PostCode": "01024",
"Location": {
"Latitude": 27.9365,
"Longitude": -0.243
}
},
{
"Name": "Tamnsguelout",
"PostCode": "01034",
"Location": {
"Latitude": 29.415,
"Longitude": -0.4039
}
},
{
"Name": "Taourirt",
"PostCode": "01004",
"Location": {
"Latitude": 26.7041,
"Longitude": 0.2172
}
},
{
"Name": "Taourirt",
"PostCode": "01014",
"Location": {
"Latitude": 26.7041,
"Longitude": 0.2172
}
},
{
"Name": "Taoursit",
"PostCode": "01001",
"Location": {
"Latitude": 29.1667,
"Longitude": 0.1983
}
},
{
"Name": "Taridalet",
"PostCode": "01025",
"Location": {
"Latitude": 27.8444,
"Longitude": -0.3494
}
},
{
"Name": "Tasfaout",
"PostCode": "01027",
"Location": {
"Latitude": 29.1854,
"Longitude": -0.0622
}
},
{
"Name": "Tasfaoute",
"PostCode": "01051",
"Location": {
"Latitude": 28.2134,
"Longitude": 0.1323
}
},
{
"Name": "Tazegghat",
"PostCode": "01001",
"Location": {
"Latitude": 29.2687,
"Longitude": 0.2604
}
},
{
"Name": "Tazliza",
"PostCode": "01013",
"Location": {
"Latitude": 29.7617,
"Longitude": 0.7062
}
},
{
"Name": "Tazoult",
"PostCode": "01040",
"Location": {
"Latitude": 27.1831,
"Longitude": -0.1547
}
},
{
"Name": "Tebbou",
"PostCode": "01014",
"Location": {
"Latitude": 28.2438,
"Longitude": -0.0909
}
},
{
"Name": "Tganet",
"PostCode": "01035",
"Location": {
"Latitude": 28.8251,
"Longitude": -0.0191
}
},
{
"Name": "Thantas",
"PostCode": "01013",
"Location": {
"Latitude": 29.7617,
"Longitude": 0.7062
}
},
{
"Name": "Tiberghamine",
"PostCode": "01012",
"Location": {
"Latitude": 28.708,
"Longitude": 0.3351
}
},
{
"Name": "Tidmaine",
"PostCode": "01049",
"Location": {
"Latitude": 27.0938,
"Longitude": -0.1206
}
},
{
"Name": "Tileghmine",
"PostCode": "01035",
"Location": {
"Latitude": 28.8251,
"Longitude": -0.0191
}
},
{
"Name": "Tililane",
"PostCode": "01000",
"Location": {
"Latitude": 28.07,
"Longitude": 0.1158
}
},
{
"Name": "Tillouline",
"PostCode": "01047",
"Location": {
"Latitude": 27.1441,
"Longitude": 0.6003
}
},
{
"Name": "Timadanine",
"PostCode": "01048",
"Location": {
"Latitude": 27.1441,
"Longitude": 0.6003
}
},
{
"Name": "Timezlane",
"PostCode": "01035",
"Location": {
"Latitude": 28.8251,
"Longitude": -0.0191
}
},
{
"Name": "Timiaouine",
"PostCode": "01042",
"Location": {
"Latitude": 27.1441,
"Longitude": 0.6003
}
},
{
"Name": "Timimoun",
"PostCode": "01001",
"Location": {
"Latitude": 29.2639,
"Longitude": 0.231
}
},
{
"Name": "Timimoun Hay Belbey",
"PostCode": "01001",
"Location": {
"Latitude": 29.2687,
"Longitude": 0.2604
}
},
{
"Name": "Timimoun Zaouiet El Ma",
"PostCode": "01052",
"Location": {
"Latitude": 28.2134,
"Longitude": 0.1323
}
},
{
"Name": "Timliha",
"PostCode": "01025",
"Location": {
"Latitude": 27.8444,
"Longitude": -0.3494
}
},
{
"Name": "Timoktene",
"PostCode": "01043",
"Location": {
"Latitude": 27.0168,
"Longitude": 1.0065
}
},
{
"Name": "Tinekline",
"PostCode": "01012",
"Location": {
"Latitude": 28.6864,
"Longitude": 0.3439
}
},
{
"Name": "Tinekram",
"PostCode": "01014",
"Location": {
"Latitude": 28.2438,
"Longitude": -0.0909
}
},
{
"Name": "Tinerkouk",
"PostCode": "01013",
"Location": {
"Latitude": 29.7617,
"Longitude": 0.7062
}
},
{
"Name": "Tinoulef Djedida",
"PostCode": "01004",
"Location": {
"Latitude": 26.7099,
"Longitude": 0.1943
}
},
{
"Name": "Tinourt",
"PostCode": "01046",
"Location": {
"Latitude": 27.1441,
"Longitude": 0.6003
}
},
{
"Name": "Tiouririne",
"PostCode": "01007",
"Location": {
"Latitude": 27.1877,
"Longitude": -0.1746
}
},
{
"Name": "Tit",
"PostCode": "01031",
"Location": {
"Latitude": 28.8251,
"Longitude": -0.0191
}
},
{
"Name": "Tittaf",
"PostCode": "01028",
"Location": {
"Latitude": 27.9365,
"Longitude": -0.243
}
},
{
"Name": "Tittaouine Lakhras",
"PostCode": "01050",
"Location": {
"Latitude": 28.2134,
"Longitude": 0.1323
}
},
{
"Name": "Tlalet",
"PostCode": "01001",
"Location": {
"Latitude": 29.3482,
"Longitude": 0.3328
}
},
{
"Name": "Tmana",
"PostCode": "01001",
"Location": {
"Latitude": 29.2687,
"Longitude": 0.2604
}
},
{
"Name": "Tmasekht",
"PostCode": "01024",
"Location": {
"Latitude": 27.9365,
"Longitude": -0.243
}
},
{
"Name": "Touki",
"PostCode": "01021",
"Location": {
"Latitude": 27.9365,
"Longitude": -0.243
}
},
{
"Name": "Zaglou",
"PostCode": "01007",
"Location": {
"Latitude": 27.2686,
"Longitude": -0.2101
}
},
{
"Name": "Zaouiet Cheikh B  Abdelkrim",
"PostCode": "01040",
"Location": {
"Latitude": 27.1484,
"Longitude": -0.1461
}
},
{
"Name": "Zaouiet Cheikh Benoumeur",
"PostCode": "01026",
"Location": {
"Latitude": 27.9365,
"Longitude": -0.243
}
},
{
"Name": "Zaouiet Debbagh",
"PostCode": "01013",
"Location": {
"Latitude": 29.7617,
"Longitude": 0.7062
}
},
{
"Name": "Zaouiet Haimoun",
"PostCode": "01003",
"Location": {
"Latitude": 27.2049,
"Longitude": 0.4054
}
},
{
"Name": "Zaouiet Kounta",
"PostCode": "01007",
"Location": {
"Latitude": 27.2227,
"Longitude": -0.1978
}
},
{
"Name": "Zaouiet Lahchef",
"PostCode": "01017",
"Location": {
"Latitude": 28.7358,
"Longitude": 0.2367
}
},
{
"Name": "Zaouiet Reggani",
"PostCode": "01004",
"Location": {
"Latitude": 26.7099,
"Longitude": 0.1943
}
},
{
"Name": "Zaouiet Sidi Abdelkader",
"PostCode": "01008",
"Location": {
"Latitude": 28.2145,
"Longitude": -0.1335
}
},
{
"Name": "Zaouiet Sidi Abdellah",
"PostCode": "01012",
"Location": {
"Latitude": 28.7015,
"Longitude": 0.3377
}
},
{
"Name": "Zaouiet Sidi El Bekri",
"PostCode": "01025",
"Location": {
"Latitude": 27.8444,
"Longitude": -0.3494
}
},
{
"Name": "Zaouiet Sidi El Hadj Belkacem",
"PostCode": "01001",
"Location": {
"Latitude": 29.2687,
"Longitude": 0.2604
}
},
{
"Name": "Zaouiet Sidi Hida",
"PostCode": "01026",
"Location": {
"Latitude": 27.9365,
"Longitude": -0.243
}
},
{
"Name": "Zaouiet Sidi Omar",
"PostCode": "01012",
"Location": {
"Latitude": 28.7015,
"Longitude": 0.3377
}
}
]
}
]
}
]
},
{
"Name": "Chlef",
"Code": "02",
"Provinces": [
{
"Communities": [
{
"Places": [
{
"Name": "Abou El Hassan",
"PostCode": "02018",
"Location": {
"Latitude": 36.4166,
"Longitude": 1.1962
}
},
{
"Name": "Adjab",
"PostCode": "02043",
"Location": {
"Latitude": 36.3251,
"Longitude": 1.1278
}
},
{
"Name": "Adraissane",
"PostCode": "02017",
"Location": {
"Latitude": 36.5142,
"Longitude": 1.578
}
},
{
"Name": "Ahmed Khalfaoui",
"PostCode": "02016",
"Location": {
"Latitude": 36.2851,
"Longitude": 1.3001
}
},
{
"Name": "Aidaouan",
"PostCode": "02035",
"Location": {
"Latitude": 36.2688,
"Longitude": 1.4888
}
},
{
"Name": "Ain Azla",
"PostCode": "02040",
"Location": {
"Latitude": 36.2573,
"Longitude": 1.2802
}
},
{
"Name": "Ain Bouzid",
"PostCode": "02073",
"Location": {
"Latitude": 36.2493,
"Longitude": 1.3191
}
},
{
"Name": "Ain Hamadi",
"PostCode": "02015",
"Location": {
"Latitude": 36.4036,
"Longitude": 0.9168
}
},
{
"Name": "Ain Merane",
"PostCode": "02004",
"Location": {
"Latitude": 36.2394,
"Longitude": 1.3342
}
},
{
"Name": "Ain Sarak",
"PostCode": "02004",
"Location": {
"Latitude": 36.2394,
"Longitude": 1.3342
}
},
{
"Name": "Ain Serdoune",
"PostCode": "02040",
"Location": {
"Latitude": 36.2573,
"Longitude": 1.2802
}
},
{
"Name": "Ain Soltane",
"PostCode": "02043",
"Location": {
"Latitude": 36.2722,
"Longitude": 1.1274
}
},
{
"Name": "Ain Tolba",
"PostCode": "02014",
"Location": {
"Latitude": 36.3508,
"Longitude": 1.431
}
},
{
"Name": "Aissaoua",
"PostCode": "02028",
"Location": {
"Latitude": 36.0995,
"Longitude": 1.3321
}
},
{
"Name": "Amraoua",
"PostCode": "02009",
"Location": {
"Latitude": 36.4451,
"Longitude": 1.2861
}
},
{
"Name": "Antria",
"PostCode": "02046",
"Location": {
"Latitude": 36.2573,
"Longitude": 1.2802
}
},
{
"Name": "Ard El Beida",
"PostCode": "02007",
"Location": {
"Latitude": 36.1545,
"Longitude": 1.2131
}
},
{
"Name": "Attatfa",
"PostCode": "02048",
"Location": {
"Latitude": 36.2573,
"Longitude": 1.2802
}
},
{
"Name": "Attatou",
"PostCode": "02008",
"Location": {
"Latitude": 36.0823,
"Longitude": 1.4854
}
},
{
"Name": "Ayachiche",
"PostCode": "02043",
"Location": {
"Latitude": 36.3462,
"Longitude": 1.1182
}
},
{
"Name": "Ayachiche (Azzouzine)",
"PostCode": "02049",
"Location": {
"Latitude": 36.1443,
"Longitude": 1.5343
}
},
{
"Name": "Baadid",
"PostCode": "02009",
"Location": {
"Latitude": 36.4451,
"Longitude": 1.2861
}
},
{
"Name": "Badnia",
"PostCode": "02037",
"Location": {
"Latitude": 36.0765,
"Longitude": 1.4447
}
},
{
"Name": "Barnamedj (Cite)",
"PostCode": "02038",
"Location": {
"Latitude": 36.2087,
"Longitude": 1.3671
}
},
{
"Name": "Bekhatia",
"PostCode": "02033",
"Location": {
"Latitude": 36.1349,
"Longitude": 1.1197
}
},
{
"Name": "Benairia",
"PostCode": "02039",
"Location": {
"Latitude": 36.3539,
"Longitude": 1.374
}
},
{
"Name": "Benanta",
"PostCode": "02018",
"Location": {
"Latitude": 36.3205,
"Longitude": 1.3241
}
},
{
"Name": "Benchelaoua",
"PostCode": "02009",
"Location": {
"Latitude": 36.4451,
"Longitude": 1.2861
}
},
{
"Name": "Beni Abdessalam",
"PostCode": "02017",
"Location": {
"Latitude": 36.5142,
"Longitude": 1.578
}
},
{
"Name": "Beni Akil",
"PostCode": "02017",
"Location": {
"Latitude": 36.4817,
"Longitude": 1.5908
}
},
{
"Name": "Beni Bouattab",
"PostCode": "02071",
"Location": {
"Latitude": 36.3267,
"Longitude": 1.3823
}
},
{
"Name": "Beni Bouaziza",
"PostCode": "02017",
"Location": {
"Latitude": 36.5108,
"Longitude": 1.569
}
},
{
"Name": "Beni Haoua",
"PostCode": "02017",
"Location": {
"Latitude": 36.5311,
"Longitude": 1.5689
}
},
{
"Name": "Beni Hareth",
"PostCode": "02065",
"Location": {
"Latitude": 36.4356,
"Longitude": 1.0964
}
},
{
"Name": "Beni Merlef",
"PostCode": "02043",
"Location": {
"Latitude": 36.3251,
"Longitude": 1.1278
}
},
{
"Name": "Beni Niat",
"PostCode": "02065",
"Location": {
"Latitude": 36.4356,
"Longitude": 1.0964
}
},
{
"Name": "Beni Ouazane",
"PostCode": "02069",
"Location": {
"Latitude": 36.3285,
"Longitude": 1.0907
}
},
{
"Name": "Beni Oudrene",
"PostCode": "02076",
"Location": {
"Latitude": 36.3267,
"Longitude": 1.3823
}
},
{
"Name": "Beni Rached",
"PostCode": "02035",
"Location": {
"Latitude": 36.2768,
"Longitude": 1.5218
}
},
{
"Name": "Berarcha",
"PostCode": "02008",
"Location": {
"Latitude": 36.0977,
"Longitude": 1.5194
}
},
{
"Name": "Berekmouche",
"PostCode": "02014",
"Location": {
"Latitude": 36.3508,
"Longitude": 1.431
}
},
{
"Name": "Bessailia",
"PostCode": "02018",
"Location": {
"Latitude": 36.3205,
"Longitude": 1.3241
}
},
{
"Name": "Bessakra",
"PostCode": "02008",
"Location": {
"Latitude": 36.0977,
"Longitude": 1.5194
}
},
{
"Name": "Bessakra",
"PostCode": "02024",
"Location": {
"Latitude": 36.2139,
"Longitude": 1.4026
}
},
{
"Name": "Betiour Idouari",
"PostCode": "02018",
"Location": {
"Latitude": 36.3205,
"Longitude": 1.3241
}
},
{
"Name": "Bir Safsaf",
"PostCode": "02034",
"Location": {
"Latitude": 36.2028,
"Longitude": 1.5936
}
},
{
"Name": "Bissa",
"PostCode": "02084",
"Location": {
"Latitude": 36.1814,
"Longitude": 1.5542
}
},
{
"Name": "Bocca Ardh Beida",
"PostCode": "02007",
"Location": {
"Latitude": 36.1545,
"Longitude": 1.2131
}
},
{
"Name": "Bocca Attatfa",
"PostCode": "02048",
"Location": {
"Latitude": 36.2573,
"Longitude": 1.2802
}
},
{
"Name": "Bocca Chorfa",
"PostCode": "02022",
"Location": {
"Latitude": 36.1724,
"Longitude": 1.3797
}
},
{
"Name": "Bocca El Ayeda",
"PostCode": "02010",
"Location": {
"Latitude": 36.1942,
"Longitude": 1.2765
}
},
{
"Name": "Bocca Guetaibia",
"PostCode": "02010",
"Location": {
"Latitude": 36.1942,
"Longitude": 1.2765
}
},
{
"Name": "Bocca Haddar",
"PostCode": "02007",
"Location": {
"Latitude": 36.1545,
"Longitude": 1.2131
}
},
{
"Name": "Bocca Moidhia",
"PostCode": "02021",
"Location": {
"Latitude": 36.3381,
"Longitude": 1.24
}
},
{
"Name": "Bocca Ouled Hadj Abed",
"PostCode": "02011",
"Location": {
"Latitude": 36.1059,
"Longitude": 1.2034
}
},
{
"Name": "Bocca Ouled Sidi Cherif",
"PostCode": "02010",
"Location": {
"Latitude": 36.1942,
"Longitude": 1.2765
}
},
{
"Name": "Bocca Smaha",
"PostCode": "02010",
"Location": {
"Latitude": 36.1942,
"Longitude": 1.2765
}
},
{
"Name": "Bordj Baal",
"PostCode": "02083",
"Location": {
"Latitude": 36.1884,
"Longitude": 1.6186
}
},
{
"Name": "Bou Hidjeb",
"PostCode": "02084",
"Location": {
"Latitude": 36.1814,
"Longitude": 1.5542
}
},
{
"Name": "Bouachria",
"PostCode": "02002",
"Location": {
"Latitude": 36.0489,
"Longitude": 1.2552
}
},
{
"Name": "Bouaricha",
"PostCode": "02037",
"Location": {
"Latitude": 36.0765,
"Longitude": 1.4447
}
},
{
"Name": "Boucheghal",
"PostCode": "02061",
"Location": {
"Latitude": 36.3285,
"Longitude": 1.0907
}
},
{
"Name": "Bouchitane (Cite)",
"PostCode": "02021",
"Location": {
"Latitude": 36.3381,
"Longitude": 1.24
}
},
{
"Name": "Bouhadjla",
"PostCode": "02035",
"Location": {
"Latitude": 36.2688,
"Longitude": 1.4888
}
},
{
"Name": "Bouhamad",
"PostCode": "02043",
"Location": {
"Latitude": 36.3251,
"Longitude": 1.1278
}
},
{
"Name": "Bouhenyene",
"PostCode": "02079",
"Location": {
"Latitude": 36.3267,
"Longitude": 1.3823
}
},
{
"Name": "Boukadir",
"PostCode": "02002",
"Location": {
"Latitude": 36.0663,
"Longitude": 1.126
}
},
{
"Name": "Boukadir El Houria",
"PostCode": "02026",
"Location": {
"Latitude": 36.1724,
"Longitude": 1.3797
}
},
{
"Name": "Boukdjoun (Douar)",
"PostCode": "02018",
"Location": {
"Latitude": 36.3205,
"Longitude": 1.3241
}
},
{
"Name": "Boukfilane (Douar)",
"PostCode": "02015",
"Location": {
"Latitude": 36.4036,
"Longitude": 0.9168
}
},
{
"Name": "Boukhandek",
"PostCode": "02009",
"Location": {
"Latitude": 36.4451,
"Longitude": 1.2861
}
},
{
"Name": "Boukraba",
"PostCode": "02084",
"Location": {
"Latitude": 36.1814,
"Longitude": 1.5542
}
},
{
"Name": "Boulefred",
"PostCode": "02058",
"Location": {
"Latitude": 36.3837,
"Longitude": 1.368
}
},
{
"Name": "Boumendil",
"PostCode": "02018",
"Location": {
"Latitude": 36.3205,
"Longitude": 1.3241
}
},
{
"Name": "Bourezg",
"PostCode": "02066",
"Location": {
"Latitude": 36.0119,
"Longitude": 1.0183
}
},
{
"Name": "Bouyazit",
"PostCode": "02018",
"Location": {
"Latitude": 36.3205,
"Longitude": 1.3241
}
},
{
"Name": "Bouzanaza",
"PostCode": "02070",
"Location": {
"Latitude": 36.5333,
"Longitude": 1.5833
}
},
{
"Name": "Bouzeghaia",
"PostCode": "02021",
"Location": {
"Latitude": 36.3381,
"Longitude": 1.24
}
},
{
"Name": "Bouzoumene",
"PostCode": "02035",
"Location": {
"Latitude": 36.2688,
"Longitude": 1.4888
}
},
{
"Name": "Bouzoumene (Cite)",
"PostCode": "02011",
"Location": {
"Latitude": 36.1059,
"Longitude": 1.2034
}
},
{
"Name": "Brancia",
"PostCode": "02041",
"Location": {
"Latitude": 36.2573,
"Longitude": 1.2802
}
},
{
"Name": "Breira",
"PostCode": "02070",
"Location": {
"Latitude": 36.5333,
"Longitude": 1.5833
}
},
{
"Name": "Brihienne",
"PostCode": "02010",
"Location": {
"Latitude": 36.1942,
"Longitude": 1.2765
}
},
{
"Name": "Chaabia",
"PostCode": "02036",
"Location": {
"Latitude": 36.3404,
"Longitude": 1.0134
}
},
{
"Name": "Chaabnia",
"PostCode": "02072",
"Location": {
"Latitude": 36.3517,
"Longitude": 1.5581
}
},
{
"Name": "Chaarir",
"PostCode": "02064",
"Location": {
"Latitude": 36.3285,
"Longitude": 1.0907
}
},
{
"Name": "Chairia",
"PostCode": "02035",
"Location": {
"Latitude": 36.2688,
"Longitude": 1.4888
}
},
{
"Name": "Chaouia",
"PostCode": "02065",
"Location": {
"Latitude": 36.4356,
"Longitude": 1.0964
}
},
{
"Name": "Chekallil",
"PostCode": "02008",
"Location": {
"Latitude": 36.0977,
"Longitude": 1.5194
}
},
{
"Name": "Chekallil",
"PostCode": "02024",
"Location": {
"Latitude": 36.2139,
"Longitude": 1.4026
}
},
{
"Name": "Chekhakhra",
"PostCode": "02034",
"Location": {
"Latitude": 36.1925,
"Longitude": 1.5882
}
},
{
"Name": "Cheraga",
"PostCode": "02035",
"Location": {
"Latitude": 36.2523,
"Longitude": 1.525
}
},
{
"Name": "Cheroukat",
"PostCode": "02008",
"Location": {
"Latitude": 36.0977,
"Longitude": 1.5194
}
},
{
"Name": "Chettia Vsa",
"PostCode": "02020",
"Location": {
"Latitude": 36.1724,
"Longitude": 1.3797
}
},
{
"Name": "Chigua",
"PostCode": "02009",
"Location": {
"Latitude": 36.4451,
"Longitude": 1.2861
}
},
{
"Name": "Chlef Centre Cheques Postaux",
"PostCode": "02801",
"Location": {
"Latitude": 36.2477,
"Longitude": 1.3278
}
},
{
"Name": "Chlef Crc",
"PostCode": "02802",
"Location": {
"Latitude": 36.2477,
"Longitude": 1.3278
}
},
{
"Name": "Chlef Crcoe",
"PostCode": "02803",
"Location": {
"Latitude": 36.2477,
"Longitude": 1.3278
}
},
{
"Name": "Chlef Crme",
"PostCode": "02804",
"Location": {
"Latitude": 36.2477,
"Longitude": 1.3278
}
},
{
"Name": "Chlef Ctr",
"PostCode": "02800",
"Location": {
"Latitude": 36.2477,
"Longitude": 1.3278
}
},
{
"Name": "Chota",
"PostCode": "02009",
"Location": {
"Latitude": 36.4451,
"Longitude": 1.2861
}
},
{
"Name": "Chouchaoua",
"PostCode": "02053",
"Location": {
"Latitude": 36.3837,
"Longitude": 1.368
}
},
{
"Name": "Choulett",
"PostCode": "02024",
"Location": {
"Latitude": 36.2139,
"Longitude": 1.4026
}
},
{
"Name": "Cite Beni Bouaziza",
"PostCode": "02017",
"Location": {
"Latitude": 36.5142,
"Longitude": 1.578
}
},
{
"Name": "Cite Bouchitane",
"PostCode": "02021",
"Location": {
"Latitude": 36.3381,
"Longitude": 1.24
}
},
{
"Name": "Cite Bouzoutab",
"PostCode": "02011",
"Location": {
"Latitude": 36.1059,
"Longitude": 1.2034
}
},
{
"Name": "Cite Caper",
"PostCode": "02010",
"Location": {
"Latitude": 36.1942,
"Longitude": 1.2765
}
},
{
"Name": "Cite Caper",
"PostCode": "02011",
"Location": {
"Latitude": 36.1059,
"Longitude": 1.2034
}
},
{
"Name": "Cite Caper",
"PostCode": "02033",
"Location": {
"Latitude": 36.1349,
"Longitude": 1.1197
}
},
{
"Name": "Cite Dramla",
"PostCode": "02066",
"Location": {
"Latitude": 36.0119,
"Longitude": 1.0183
}
},
{
"Name": "D'Har El Meddah",
"PostCode": "02063",
"Location": {
"Latitude": 36.3285,
"Longitude": 1.0907
}
},
{
"Name": "Dachra",
"PostCode": "02004",
"Location": {
"Latitude": 36.2394,
"Longitude": 1.3342
}
},
{
"Name": "Dahmania",
"PostCode": "02034",
"Location": {
"Latitude": 36.1925,
"Longitude": 1.5882
}
},
{
"Name": "Dahra",
"PostCode": "02036",
"Location": {
"Latitude": 36.3404,
"Longitude": 1.0134
}
},
{
"Name": "Dechria",
"PostCode": "02032",
"Location": {
"Latitude": 36.2087,
"Longitude": 1.3671
}
},
{
"Name": "Dhamnia",
"PostCode": "02035",
"Location": {
"Latitude": 36.2688,
"Longitude": 1.4888
}
},
{
"Name": "Dhamnia (Douar)",
"PostCode": "02046",
"Location": {
"Latitude": 36.2573,
"Longitude": 1.2802
}
},
{
"Name": "Diour",
"PostCode": "02036",
"Location": {
"Latitude": 36.3404,
"Longitude": 1.0134
}
},
{
"Name": "Djabouyahia",
"PostCode": "02010",
"Location": {
"Latitude": 36.1942,
"Longitude": 1.2765
}
},
{
"Name": "Djebana",
"PostCode": "02028",
"Location": {
"Latitude": 36.0995,
"Longitude": 1.3321
}
},
{
"Name": "Djoualil",
"PostCode": "02010",
"Location": {
"Latitude": 36.2374,
"Longitude": 1.182
}
},
{
"Name": "Domaine Mihard",
"PostCode": "02011",
"Location": {
"Latitude": 36.1059,
"Longitude": 1.2034
}
},
{
"Name": "Domaine Salem Attia",
"PostCode": "02011",
"Location": {
"Latitude": 36.1059,
"Longitude": 1.2034
}
},
{
"Name": "Douadiche",
"PostCode": "02011",
"Location": {
"Latitude": 36.1059,
"Longitude": 1.2034
}
},
{
"Name": "Douaidia",
"PostCode": "02002",
"Location": {
"Latitude": 36.0489,
"Longitude": 1.2552
}
},
{
"Name": "Douaouda",
"PostCode": "02018",
"Location": {
"Latitude": 36.3205,
"Longitude": 1.3241
}
},
{
"Name": "Douar Ben Zidane",
"PostCode": "02037",
"Location": {
"Latitude": 36.0765,
"Longitude": 1.4447
}
},
{
"Name": "Douar Beni Tamou",
"PostCode": "02018",
"Location": {
"Latitude": 36.3205,
"Longitude": 1.3241
}
},
{
"Name": "Douar Bessailita",
"PostCode": "02018",
"Location": {
"Latitude": 36.3205,
"Longitude": 1.3241
}
},
{
"Name": "Douar Bouaricha",
"PostCode": "02037",
"Location": {
"Latitude": 36.0765,
"Longitude": 1.4447
}
},
{
"Name": "Douar Boukeline",
"PostCode": "02015",
"Location": {
"Latitude": 36.4036,
"Longitude": 0.9168
}
},
{
"Name": "Douar Dhamnia",
"PostCode": "02046",
"Location": {
"Latitude": 36.2573,
"Longitude": 1.2802
}
},
{
"Name": "Douar Kalaa",
"PostCode": "02018",
"Location": {
"Latitude": 36.3205,
"Longitude": 1.3241
}
},
{
"Name": "Douar Lirem",
"PostCode": "02046",
"Location": {
"Latitude": 36.2573,
"Longitude": 1.2802
}
},
{
"Name": "Douar Mechachta",
"PostCode": "02018",
"Location": {
"Latitude": 36.3205,
"Longitude": 1.3241
}
},
{
"Name": "Douar Medjahdia",
"PostCode": "02018",
"Location": {
"Latitude": 36.3205,
"Longitude": 1.3241
}
},
{
"Name": "Douar Mehadjer",
"PostCode": "02018",
"Location": {
"Latitude": 36.3205,
"Longitude": 1.3241
}
},
{
"Name": "Douar Meroughi",
"PostCode": "02037",
"Location": {
"Latitude": 36.0765,
"Longitude": 1.4447
}
},
{
"Name": "Douar Ouled Arbia",
"PostCode": "02018",
"Location": {
"Latitude": 36.3205,
"Longitude": 1.3241
}
},
{
"Name": "Douar Ouled Saradj",
"PostCode": "02037",
"Location": {
"Latitude": 36.0765,
"Longitude": 1.4447
}
},
{
"Name": "Douar Ouled Zitouni",
"PostCode": "02046",
"Location": {
"Latitude": 36.2573,
"Longitude": 1.2802
}
},
{
"Name": "Douar Sidi Abdellah",
"PostCode": "02015",
"Location": {
"Latitude": 36.4036,
"Longitude": 0.9168
}
},
{
"Name": "Douar Sidi Mohamed",
"PostCode": "02018",
"Location": {
"Latitude": 36.2725,
"Longitude": 1.388
}
},
{
"Name": "Douar Tafraout",
"PostCode": "02018",
"Location": {
"Latitude": 36.3205,
"Longitude": 1.3241
}
},
{
"Name": "Douar Zemoura",
"PostCode": "02054",
"Location": {
"Latitude": 36.3837,
"Longitude": 1.368
}
},
{
"Name": "Draa",
"PostCode": "02028",
"Location": {
"Latitude": 36.013,
"Longitude": 1.1572
}
},
{
"Name": "Ech Cheliff Base Aerienne",
"PostCode": "02000",
"Location": {
"Latitude": 36.2394,
"Longitude": 1.3342
}
},
{
"Name": "Ech Cheliff Bensouna",
"PostCode": "02005",
"Location": {
"Latitude": 36.2507,
"Longitude": 1.24
}
},
{
"Name": "Ech Cheliff Chegga",
"PostCode": "02057",
"Location": {
"Latitude": 36.3837,
"Longitude": 1.368
}
},
{
"Name": "Ech Cheliff Chettia",
"PostCode": "02007",
"Location": {
"Latitude": 36.1545,
"Longitude": 1.2131
}
},
{
"Name": "Ech Cheliff Cite Administrative",
"PostCode": "02013",
"Location": {
"Latitude": 36.2851,
"Longitude": 1.3001
}
},
{
"Name": "Ech Cheliff Cite Universitaire",
"PostCode": "02000",
"Location": {
"Latitude": 36.2394,
"Longitude": 1.3342
}
},
{
"Name": "Ech Cheliff Hay Abbad",
"PostCode": "02045",
"Location": {
"Latitude": 36.2573,
"Longitude": 1.2802
}
},
{
"Name": "Ech Cheliff Hay Badr",
"PostCode": "02022",
"Location": {
"Latitude": 36.1724,
"Longitude": 1.3797
}
},
{
"Name": "Ech Cheliff Hay Nasr",
"PostCode": "02023",
"Location": {
"Latitude": 36.1628,
"Longitude": 1.3706
}
},
{
"Name": "Ech Cheliff Lala Aouda",
"PostCode": "02042",
"Location": {
"Latitude": 36.2573,
"Longitude": 1.2802
}
},
{
"Name": "Ech Cheliff Rp",
"PostCode": "02000",
"Location": {
"Latitude": 36.2394,
"Longitude": 1.3342
}
},
{
"Name": "Ech Cheliff Sahli",
"PostCode": "02041",
"Location": {
"Latitude": 36.2573,
"Longitude": 1.2802
}
},
{
"Name": "El Amalassa",
"PostCode": "02033",
"Location": {
"Latitude": 36.1349,
"Longitude": 1.1197
}
},
{
"Name": "El Amamassa",
"PostCode": "02002",
"Location": {
"Latitude": 36.0489,
"Longitude": 1.2552
}
},
{
"Name": "El Amri",
"PostCode": "02018",
"Location": {
"Latitude": 36.3205,
"Longitude": 1.3241
}
},
{
"Name": "El Ancor",
"PostCode": "02035",
"Location": {
"Latitude": 36.2688,
"Longitude": 1.4888
}
},
{
"Name": "El Arais",
"PostCode": "02039",
"Location": {
"Latitude": 36.2681,
"Longitude": 1.4784
}
},
{
"Name": "El Assala",
"PostCode": "02030",
"Location": {
"Latitude": 36.1525,
"Longitude": 1.0508
}
},
{
"Name": "El Athmania",
"PostCode": "02028",
"Location": {
"Latitude": 36.0995,
"Longitude": 1.3321
}
},
{
"Name": "El Ayaida",
"PostCode": "02036",
"Location": {
"Latitude": 36.3404,
"Longitude": 1.0134
}
},
{
"Name": "El Azza",
"PostCode": "02033",
"Location": {
"Latitude": 36.1239,
"Longitude": 1.1182
}
},
{
"Name": "El Bachtia",
"PostCode": "02036",
"Location": {
"Latitude": 36.3404,
"Longitude": 1.0134
}
},
{
"Name": "El Guenanssa",
"PostCode": "02030",
"Location": {
"Latitude": 36.1525,
"Longitude": 1.0508
}
},
{
"Name": "El Haad",
"PostCode": "02008",
"Location": {
"Latitude": 36.0977,
"Longitude": 1.5194
}
},
{
"Name": "El Habbariche",
"PostCode": "02040",
"Location": {
"Latitude": 36.2573,
"Longitude": 1.2802
}
},
{
"Name": "El Hadjadj",
"PostCode": "02050",
"Location": {
"Latitude": 36.3837,
"Longitude": 1.368
}
},
{
"Name": "El Hammam",
"PostCode": "02024",
"Location": {
"Latitude": 36.2283,
"Longitude": 1.4158
}
},
{
"Name": "El Hammama",
"PostCode": "02014",
"Location": {
"Latitude": 36.3508,
"Longitude": 1.431
}
},
{
"Name": "El Houaoura",
"PostCode": "02030",
"Location": {
"Latitude": 36.1525,
"Longitude": 1.0508
}
},
{
"Name": "El Houara",
"PostCode": "02030",
"Location": {
"Latitude": 36.1525,
"Longitude": 1.0508
}
},
{
"Name": "El Ittihad (Domaine)",
"PostCode": "02011",
"Location": {
"Latitude": 36.1059,
"Longitude": 1.2034
}
},
{
"Name": "El Kalaa Bouhallou",
"PostCode": "02044",
"Location": {
"Latitude": 36.2573,
"Longitude": 1.2802
}
},
{
"Name": "El Karimia",
"PostCode": "02008",
"Location": {
"Latitude": 36.113,
"Longitude": 1.5534
}
},
{
"Name": "El Main",
"PostCode": "02068",
"Location": {
"Latitude": 36.3285,
"Longitude": 1.0907
}
},
{
"Name": "El Marsa",
"PostCode": "02015",
"Location": {
"Latitude": 36.4036,
"Longitude": 0.9168
}
},
{
"Name": "El Meratine",
"PostCode": "02072",
"Location": {
"Latitude": 36.3517,
"Longitude": 1.5581
}
},
{
"Name": "El Naharet",
"PostCode": "02030",
"Location": {
"Latitude": 36.1525,
"Longitude": 1.0508
}
},
{
"Name": "El Ouana",
"PostCode": "02033",
"Location": {
"Latitude": 36.1349,
"Longitude": 1.1197
}
},
{
"Name": "El Ouassassra",
"PostCode": "02030",
"Location": {
"Latitude": 36.1525,
"Longitude": 1.0508
}
},
{
"Name": "El Oued",
"PostCode": "02012",
"Location": {
"Latitude": 36.2474,
"Longitude": 0.9237
}
},
{
"Name": "El Oukait",
"PostCode": "02035",
"Location": {
"Latitude": 36.2688,
"Longitude": 1.4888
}
},
{
"Name": "Enser N'Hass",
"PostCode": "02009",
"Location": {
"Latitude": 36.4451,
"Longitude": 1.2861
}
},
{
"Name": "Gare Des Heumis",
"PostCode": "02019",
"Location": {
"Latitude": 36.2851,
"Longitude": 1.3001
}
},
{
"Name": "Ghaliat",
"PostCode": "02035",
"Location": {
"Latitude": 36.2688,
"Longitude": 1.4888
}
},
{
"Name": "Ghebel",
"PostCode": "02065",
"Location": {
"Latitude": 36.4356,
"Longitude": 1.0964
}
},
{
"Name": "Gheragha",
"PostCode": "02033",
"Location": {
"Latitude": 36.1349,
"Longitude": 1.1197
}
},
{
"Name": "Gouasmia",
"PostCode": "02041",
"Location": {
"Latitude": 36.2573,
"Longitude": 1.2802
}
},
{
"Name": "Graiche",
"PostCode": "02072",
"Location": {
"Latitude": 36.3517,
"Longitude": 1.5581
}
},
{
"Name": "Grand Barrage",
"PostCode": "02053",
"Location": {
"Latitude": 36.3837,
"Longitude": 1.368
}
},
{
"Name": "Guelaftia",
"PostCode": "02075",
"Location": {
"Latitude": 36.1809,
"Longitude": 1.4192
}
},
{
"Name": "Guelta",
"PostCode": "02046",
"Location": {
"Latitude": 36.2573,
"Longitude": 1.2802
}
},
{
"Name": "Guenansa",
"PostCode": "02002",
"Location": {
"Latitude": 36.0489,
"Longitude": 1.2552
}
},
{
"Name": "Guenanssa",
"PostCode": "02028",
"Location": {
"Latitude": 36.0995,
"Longitude": 1.3321
}
},
{
"Name": "Guerboussa",
"PostCode": "02050",
"Location": {
"Latitude": 36.3837,
"Longitude": 1.368
}
},
{
"Name": "Habaza",
"PostCode": "02035",
"Location": {
"Latitude": 36.2688,
"Longitude": 1.4888
}
},
{
"Name": "Habbair",
"PostCode": "02041",
"Location": {
"Latitude": 36.2573,
"Longitude": 1.2802
}
},
{
"Name": "Hachelif",
"PostCode": "02033",
"Location": {
"Latitude": 36.1349,
"Longitude": 1.1197
}
},
{
"Name": "Haddadou",
"PostCode": "02008",
"Location": {
"Latitude": 36.0977,
"Longitude": 1.5194
}
},
{
"Name": "Hadj Abed",
"PostCode": "02011",
"Location": {
"Latitude": 36.1093,
"Longitude": 1.169
}
},
{
"Name": "Hamaid",
"PostCode": "02029",
"Location": {
"Latitude": 36.2081,
"Longitude": 1.503
}
},
{
"Name": "Hamichette",
"PostCode": "02030",
"Location": {
"Latitude": 36.1525,
"Longitude": 1.0508
}
},
{
"Name": "Haouch El Ghaba",
"PostCode": "02051",
"Location": {
"Latitude": 36.3837,
"Longitude": 1.368
}
},
{
"Name": "Harachnia",
"PostCode": "02002",
"Location": {
"Latitude": 36.0489,
"Longitude": 1.2552
}
},
{
"Name": "Harchoun",
"PostCode": "02031",
"Location": {
"Latitude": 36.113,
"Longitude": 1.5534
}
},
{
"Name": "Harenfa",
"PostCode": "02038",
"Location": {
"Latitude": 36.2087,
"Longitude": 1.3671
}
},
{
"Name": "Helchaoui",
"PostCode": "02049",
"Location": {
"Latitude": 36.1443,
"Longitude": 1.5343
}
},
{
"Name": "Heumaissia",
"PostCode": "02024",
"Location": {
"Latitude": 36.2139,
"Longitude": 1.4026
}
},
{
"Name": "Heumis Ain Beida",
"PostCode": "02019",
"Location": {
"Latitude": 36.2851,
"Longitude": 1.3001
}
},
{
"Name": "Isrem (Douar)",
"PostCode": "02046",
"Location": {
"Latitude": 36.2573,
"Longitude": 1.2802
}
},
{
"Name": "Izrem",
"PostCode": "02083",
"Location": {
"Latitude": 36.1884,
"Longitude": 1.6186
}
},
{
"Name": "Kahloul",
"PostCode": "02081",
"Location": {
"Latitude": 36.1814,
"Longitude": 1.5542
}
},
{
"Name": "Kalaa (Douar)",
"PostCode": "02018",
"Location": {
"Latitude": 36.3205,
"Longitude": 1.3241
}
},
{
"Name": "Karachira",
"PostCode": "02008",
"Location": {
"Latitude": 36.0977,
"Longitude": 1.5194
}
},
{
"Name": "Kechachda",
"PostCode": "02047",
"Location": {
"Latitude": 36.2573,
"Longitude": 1.2802
}
},
{
"Name": "Kedadra",
"PostCode": "02070",
"Location": {
"Latitude": 36.5333,
"Longitude": 1.5833
}
},
{
"Name": "Kefafsa",
"PostCode": "02023",
"Location": {
"Latitude": 36.1628,
"Longitude": 1.3706
}
},
{
"Name": "Khattar",
"PostCode": "02084",
"Location": {
"Latitude": 36.1814,
"Longitude": 1.5542
}
},
{
"Name": "Khelaif",
"PostCode": "02002",
"Location": {
"Latitude": 36.0678,
"Longitude": 1.0416
}
},
{
"Name": "Khelloufa",
"PostCode": "02017",
"Location": {
"Latitude": 36.5142,
"Longitude": 1.578
}
},
{
"Name": "Khelloufa",
"PostCode": "02084",
"Location": {
"Latitude": 36.1814,
"Longitude": 1.5542
}
},
{
"Name": "Khenanda",
"PostCode": "02038",
"Location": {
"Latitude": 36.2087,
"Longitude": 1.3671
}
},
{
"Name": "Kherrara",
"PostCode": "02049",
"Location": {
"Latitude": 36.1443,
"Longitude": 1.5343
}
},
{
"Name": "Khouathia",
"PostCode": "02004",
"Location": {
"Latitude": 36.2394,
"Longitude": 1.3342
}
},
{
"Name": "Khoudeum",
"PostCode": "02032",
"Location": {
"Latitude": 36.2087,
"Longitude": 1.3671
}
},
{
"Name": "Kouachimia (Douar)",
"PostCode": "02008",
"Location": {
"Latitude": 36.0977,
"Longitude": 1.5194
}
},
{
"Name": "Kouadjelia",
"PostCode": "02034",
"Location": {
"Latitude": 36.1925,
"Longitude": 1.5882
}
},
{
"Name": "Labiodh Medjadja",
"PostCode": "02049",
"Location": {
"Latitude": 36.1443,
"Longitude": 1.5343
}
},
{
"Name": "Ladjeraf",
"PostCode": "02041",
"Location": {
"Latitude": 36.2573,
"Longitude": 1.2802
}
},
{
"Name": "Laghmoun Bahri",
"PostCode": "02068",
"Location": {
"Latitude": 36.3285,
"Longitude": 1.0907
}
},
{
"Name": "Laghmoun El Hadjar",
"PostCode": "02068",
"Location": {
"Latitude": 36.3285,
"Longitude": 1.0907
}
},
{
"Name": "Larmouna",
"PostCode": "02084",
"Location": {
"Latitude": 36.1814,
"Longitude": 1.5542
}
},
{
"Name": "Le Malk",
"PostCode": "02084",
"Location": {
"Latitude": 36.1814,
"Longitude": 1.5542
}
},
{
"Name": "Leassamine",
"PostCode": "02084",
"Location": {
"Latitude": 36.1814,
"Longitude": 1.5542
}
},
{
"Name": "Main Sinfita",
"PostCode": "02068",
"Location": {
"Latitude": 36.3285,
"Longitude": 1.0907
}
},
{
"Name": "Maison Cantonniers",
"PostCode": "02066",
"Location": {
"Latitude": 36.0119,
"Longitude": 1.0183
}
},
{
"Name": "Maizia",
"PostCode": "02075",
"Location": {
"Latitude": 36.1809,
"Longitude": 1.4192
}
},
{
"Name": "Makhalfia",
"PostCode": "02012",
"Location": {
"Latitude": 36.2474,
"Longitude": 0.9237
}
},
{
"Name": "Mechachta (Douar)",
"PostCode": "02018",
"Location": {
"Latitude": 36.3205,
"Longitude": 1.3241
}
},
{
"Name": "Meddina",
"PostCode": "02073",
"Location": {
"Latitude": 36.2493,
"Longitude": 1.3191
}
},
{
"Name": "Mehadjar",
"PostCode": "02018",
"Location": {
"Latitude": 36.3205,
"Longitude": 1.3241
}
},
{
"Name": "Meknassa",
"PostCode": "02011",
"Location": {
"Latitude": 36.1277,
"Longitude": 1.2783
}
},
{
"Name": "Melka",
"PostCode": "02035",
"Location": {
"Latitude": 36.2688,
"Longitude": 1.4888
}
},
{
"Name": "Merdja",
"PostCode": "02066",
"Location": {
"Latitude": 36.0119,
"Longitude": 1.0183
}
},
{
"Name": "Messaidia",
"PostCode": "02015",
"Location": {
"Latitude": 36.4036,
"Longitude": 0.9168
}
},
{
"Name": "Metairia",
"PostCode": "02002",
"Location": {
"Latitude": 36.0489,
"Longitude": 1.2552
}
},
{
"Name": "Mezaout",
"PostCode": "02078",
"Location": {
"Latitude": 36.3267,
"Longitude": 1.3823
}
},
{
"Name": "Mkame",
"PostCode": "02004",
"Location": {
"Latitude": 36.2394,
"Longitude": 1.3342
}
},
{
"Name": "Moifkia",
"PostCode": "02041",
"Location": {
"Latitude": 36.2573,
"Longitude": 1.2802
}
},
{
"Name": "Mouahl",
"PostCode": "02002",
"Location": {
"Latitude": 36.0489,
"Longitude": 1.2552
}
},
{
"Name": "Mouamnia",
"PostCode": "02002",
"Location": {
"Latitude": 36.0489,
"Longitude": 1.2552
}
},
{
"Name": "Mouassia",
"PostCode": "02066",
"Location": {
"Latitude": 36.0119,
"Longitude": 1.0183
}
},
{
"Name": "Moussadek",
"PostCode": "02060",
"Location": {
"Latitude": 36.3538,
"Longitude": 1.0092
}
},
{
"Name": "Necissa",
"PostCode": "02034",
"Location": {
"Latitude": 36.1925,
"Longitude": 1.5882
}
},
{
"Name": "Nefoussa",
"PostCode": "02035",
"Location": {
"Latitude": 36.2688,
"Longitude": 1.4888
}
},
{
"Name": "Oued Benali",
"PostCode": "02009",
"Location": {
"Latitude": 36.4451,
"Longitude": 1.2861
}
},
{
"Name": "Oued Fodda",
"PostCode": "02003",
"Location": {
"Latitude": 36.185,
"Longitude": 1.533
}
},
{
"Name": "Oued Fodda Moussalaha",
"PostCode": "02001",
"Location": {
"Latitude": 36.2394,
"Longitude": 1.3342
}
},
{
"Name": "Oued Goussine",
"PostCode": "02061",
"Location": {
"Latitude": 36.3285,
"Longitude": 1.0907
}
},
{
"Name": "Oued Hamlil",
"PostCode": "02068",
"Location": {
"Latitude": 36.3285,
"Longitude": 1.0907
}
},
{
"Name": "Oued Sly",
"PostCode": "02011",
"Location": {
"Latitude": 36.1012,
"Longitude": 1.1995
}
},
{
"Name": "Oued Sly Hay Houria",
"PostCode": "02056",
"Location": {
"Latitude": 36.3837,
"Longitude": 1.368
}
},
{
"Name": "Oued Zeboudj",
"PostCode": "02066",
"Location": {
"Latitude": 36.0119,
"Longitude": 1.0183
}
},
{
"Name": "Oukha Oukha",
"PostCode": "02033",
"Location": {
"Latitude": 36.1349,
"Longitude": 1.1197
}
},
{
"Name": "Ouled Abbes",
"PostCode": "02029",
"Location": {
"Latitude": 36.2191,
"Longitude": 1.488
}
},
{
"Name": "Ouled Abdellah",
"PostCode": "02002",
"Location": {
"Latitude": 36.0489,
"Longitude": 1.2552
}
},
{
"Name": "Ouled Abdelli",
"PostCode": "02035",
"Location": {
"Latitude": 36.3335,
"Longitude": 1.5071
}
},
{
"Name": "Ouled Ahmed",
"PostCode": "02028",
"Location": {
"Latitude": 36.2476,
"Longitude": 1.3855
}
},
{
"Name": "Ouled Ahmed",
"PostCode": "02035",
"Location": {
"Latitude": 36.2476,
"Longitude": 1.3855
}
},
{
"Name": "Ouled Ahmed",
"PostCode": "02049",
"Location": {
"Latitude": 36.2476,
"Longitude": 1.3855
}
},
{
"Name": "Ouled Ali",
"PostCode": "02034",
"Location": {
"Latitude": 36.1823,
"Longitude": 1.5828
}
},
{
"Name": "Ouled Ali",
"PostCode": "02039",
"Location": {
"Latitude": 36.1823,
"Longitude": 1.5828
}
},
{
"Name": "Ouled Ali",
"PostCode": "02072",
"Location": {
"Latitude": 36.3517,
"Longitude": 1.5581
}
},
{
"Name": "Ouled Allel",
"PostCode": "02028",
"Location": {
"Latitude": 36.0995,
"Longitude": 1.3321
}
},
{
"Name": "Ouled Arbia (Douar)",
"PostCode": "02009",
"Location": {
"Latitude": 36.4451,
"Longitude": 1.2861
}
},
{
"Name": "Ouled Bakhti",
"PostCode": "02014",
"Location": {
"Latitude": 36.3508,
"Longitude": 1.431
}
},
{
"Name": "Ouled Belgacem",
"PostCode": "02038",
"Location": {
"Latitude": 36.2087,
"Longitude": 1.3671
}
},
{
"Name": "Ouled Ben Abdelkader",
"PostCode": "02037",
"Location": {
"Latitude": 36.0765,
"Longitude": 1.4447
}
},
{
"Name": "Ouled Ben Ali",
"PostCode": "02028",
"Location": {
"Latitude": 36.0378,
"Longitude": 1.4535
}
},
{
"Name": "Ouled Ben Benchebira",
"PostCode": "02049",
"Location": {
"Latitude": 36.1443,
"Longitude": 1.5343
}
},
{
"Name": "Ouled Ben Yatou",
"PostCode": "02030",
"Location": {
"Latitude": 36.1525,
"Longitude": 1.0508
}
},
{
"Name": "Ouled Benziane",
"PostCode": "02018",
"Location": {
"Latitude": 36.3205,
"Longitude": 1.3241
}
},
{
"Name": "Ouled Berradjah",
"PostCode": "02074",
"Location": {
"Latitude": 36.3267,
"Longitude": 1.3823
}
},
{
"Name": "Ouled Bou Chakor",
"PostCode": "02010",
"Location": {
"Latitude": 36.1942,
"Longitude": 1.2765
}
},
{
"Name": "Ouled Bou Douma",
"PostCode": "02012",
"Location": {
"Latitude": 36.2474,
"Longitude": 0.9237
}
},
{
"Name": "Ouled Bouaicha",
"PostCode": "02031",
"Location": {
"Latitude": 36.113,
"Longitude": 1.5534
}
},
{
"Name": "Ouled Bouali",
"PostCode": "02077",
"Location": {
"Latitude": 36.3184,
"Longitude": 1.0317
}
},
{
"Name": "Ouled Bouzaguet",
"PostCode": "02049",
"Location": {
"Latitude": 36.1443,
"Longitude": 1.5343
}
},
{
"Name": "Ouled Bouzid",
"PostCode": "02037",
"Location": {
"Latitude": 36.0765,
"Longitude": 1.4447
}
},
{
"Name": "Ouled Brahim",
"PostCode": "02046",
"Location": {
"Latitude": 36.2573,
"Longitude": 1.2802
}
},
{
"Name": "Ouled Cheikh",
"PostCode": "02037",
"Location": {
"Latitude": 36.0765,
"Longitude": 1.4447
}
},
{
"Name": "Ouled Djillali",
"PostCode": "02033",
"Location": {
"Latitude": 36.1667,
"Longitude": 1.1623
}
},
{
"Name": "Ouled Fares",
"PostCode": "02010",
"Location": {
"Latitude": 36.2336,
"Longitude": 1.2381
}
},
{
"Name": "Ouled Fetti",
"PostCode": "02059",
"Location": {
"Latitude": 36.3837,
"Longitude": 1.368
}
},
{
"Name": "Ouled Hadj Abed",
"PostCode": "02011",
"Location": {
"Latitude": 36.1093,
"Longitude": 1.169
}
},
{
"Name": "Ouled Hamadi",
"PostCode": "02033",
"Location": {
"Latitude": 36.1349,
"Longitude": 1.1197
}
},
{
"Name": "Ouled Hamdane",
"PostCode": "02010",
"Location": {
"Latitude": 36.1942,
"Longitude": 1.2765
}
},
{
"Name": "Ouled Hamida",
"PostCode": "02039",
"Location": {
"Latitude": 36.2681,
"Longitude": 1.4784
}
},
{
"Name": "Ouled Henni",
"PostCode": "02010",
"Location": {
"Latitude": 36.1115,
"Longitude": 1.4094
}
},
{
"Name": "Ouled Kef",
"PostCode": "02030",
"Location": {
"Latitude": 36.1525,
"Longitude": 1.0508
}
},
{
"Name": "Ouled Kessab",
"PostCode": "02068",
"Location": {
"Latitude": 36.3285,
"Longitude": 1.0907
}
},
{
"Name": "Ouled Khadda",
"PostCode": "02083",
"Location": {
"Latitude": 36.1884,
"Longitude": 1.6186
}
},
{
"Name": "Ouled Laid",
"PostCode": "02004",
"Location": {
"Latitude": 36.2394,
"Longitude": 1.3342
}
},
{
"Name": "Ouled Larbi",
"PostCode": "02006",
"Location": {
"Latitude": 36.5253,
"Longitude": 1.3236
}
},
{
"Name": "Ouled Larbi",
"PostCode": "02029",
"Location": {
"Latitude": 36.2136,
"Longitude": 1.4955
}
},
{
"Name": "Ouled M'Gazi",
"PostCode": "02024",
"Location": {
"Latitude": 36.2139,
"Longitude": 1.4026
}
},
{
"Name": "Ouled Maafa",
"PostCode": "02068",
"Location": {
"Latitude": 36.3285,
"Longitude": 1.0907
}
},
{
"Name": "Ouled Meghafou",
"PostCode": "02037",
"Location": {
"Latitude": 36.0765,
"Longitude": 1.4447
}
},
{
"Name": "Ouled Mohamed",
"PostCode": "02023",
"Location": {
"Latitude": 36.1628,
"Longitude": 1.3706
}
},
{
"Name": "Ouled Mouhenni",
"PostCode": "02012",
"Location": {
"Latitude": 36.2474,
"Longitude": 0.9237
}
},
{
"Name": "Ouled Mustapfia",
"PostCode": "02021",
"Location": {
"Latitude": 36.3381,
"Longitude": 1.24
}
},
{
"Name": "Ouled Safi",
"PostCode": "02004",
"Location": {
"Latitude": 36.2394,
"Longitude": 1.3342
}
},
{
"Name": "Ouled Said",
"PostCode": "02083",
"Location": {
"Latitude": 36.1884,
"Longitude": 1.6186
}
},
{
"Name": "Ouled Salem",
"PostCode": "02033",
"Location": {
"Latitude": 36.1391,
"Longitude": 1.0901
}
},
{
"Name": "Ouled Si Mohamed",
"PostCode": "02049",
"Location": {
"Latitude": 36.1443,
"Longitude": 1.5343
}
},
{
"Name": "Ouled Sidi Bouali",
"PostCode": "02068",
"Location": {
"Latitude": 36.3285,
"Longitude": 1.0907
}
},
{
"Name": "Ouled Sidi Djiliali",
"PostCode": "02073",
"Location": {
"Latitude": 36.2493,
"Longitude": 1.3191
}
},
{
"Name": "Ouled Sidi Henni",
"PostCode": "02012",
"Location": {
"Latitude": 36.2474,
"Longitude": 0.9237
}
},
{
"Name": "Ouled Sidi Henni",
"PostCode": "02073",
"Location": {
"Latitude": 36.2493,
"Longitude": 1.3191
}
},
{
"Name": "Ouled Sidi Khelifa",
"PostCode": "02028",
"Location": {
"Latitude": 36.0995,
"Longitude": 1.3321
}
},
{
"Name": "Ouled Slimane",
"PostCode": "02035",
"Location": {
"Latitude": 36.2638,
"Longitude": 1.5364
}
},
{
"Name": "Ouled Souid",
"PostCode": "02011",
"Location": {
"Latitude": 36.1059,
"Longitude": 1.2034
}
},
{
"Name": "Ouled Tahar",
"PostCode": "02002",
"Location": {
"Latitude": 36.0489,
"Longitude": 1.2552
}
},
{
"Name": "Ouled Yahia",
"PostCode": "02036",
"Location": {
"Latitude": 36.3404,
"Longitude": 1.0134
}
},
{
"Name": "Ouled Yahia",
"PostCode": "02060",
"Location": {
"Latitude": 36.3404,
"Longitude": 1.0134
}
},
{
"Name": "Ouled Youcef",
"PostCode": "02035",
"Location": {
"Latitude": 36.2386,
"Longitude": 1.4569
}
},
{
"Name": "Ouled Ziad",
"PostCode": "02030",
"Location": {
"Latitude": 36.1525,
"Longitude": 1.0508
}
},
{
"Name": "Ouled Zitouni (Douar)",
"PostCode": "02046",
"Location": {
"Latitude": 36.2573,
"Longitude": 1.2802
}
},
{
"Name": "Oum Drou",
"PostCode": "02024",
"Location": {
"Latitude": 36.1995,
"Longitude": 1.3893
}
},
{
"Name": "Oussasra",
"PostCode": "02011",
"Location": {
"Latitude": 36.0822,
"Longitude": 1.201
}
},
{
"Name": "Pepiniere Ontf",
"PostCode": "02011",
"Location": {
"Latitude": 36.1059,
"Longitude": 1.2034
}
},
{
"Name": "Port Breira",
"PostCode": "02017",
"Location": {
"Latitude": 36.5333,
"Longitude": 1.5833
}
},
{
"Name": "Rabia",
"PostCode": "02014",
"Location": {
"Latitude": 36.3508,
"Longitude": 1.431
}
},
{
"Name": "Ramlia",
"PostCode": "02041",
"Location": {
"Latitude": 36.2573,
"Longitude": 1.2802
}
},
{
"Name": "Razim Maamar",
"PostCode": "02082",
"Location": {
"Latitude": 36.1814,
"Longitude": 1.5542
}
},
{
"Name": "Reggoun",
"PostCode": "02067",
"Location": {
"Latitude": 36.3285,
"Longitude": 1.0907
}
},
{
"Name": "Rouafia",
"PostCode": "02038",
"Location": {
"Latitude": 36.2087,
"Longitude": 1.3671
}
},
{
"Name": "Sahou",
"PostCode": "02040",
"Location": {
"Latitude": 36.2573,
"Longitude": 1.2802
}
},
{
"Name": "Salem Atta (Domaine)",
"PostCode": "02011",
"Location": {
"Latitude": 36.1059,
"Longitude": 1.2034
}
},
{
"Name": "Sehailia",
"PostCode": "02004",
"Location": {
"Latitude": 36.2394,
"Longitude": 1.3342
}
},
{
"Name": "Sendjas",
"PostCode": "02025",
"Location": {
"Latitude": 36.0696,
"Longitude": 1.3939
}
},
{
"Name": "Seradj (Douar)",
"PostCode": "02037",
"Location": {
"Latitude": 36.0765,
"Longitude": 1.4447
}
},
{
"Name": "Si Belkacem",
"PostCode": "02055",
"Location": {
"Latitude": 36.3837,
"Longitude": 1.368
}
},
{
"Name": "Sidi Abdelhadi (Douar)",
"PostCode": "02015",
"Location": {
"Latitude": 36.4036,
"Longitude": 0.9168
}
},
{
"Name": "Sidi Abdelkader",
"PostCode": "02006",
"Location": {
"Latitude": 36.5253,
"Longitude": 1.3236
}
},
{
"Name": "Sidi Abderahmane",
"PostCode": "02066",
"Location": {
"Latitude": 36.0119,
"Longitude": 1.0183
}
},
{
"Name": "Sidi Aissa",
"PostCode": "02043",
"Location": {
"Latitude": 36.3251,
"Longitude": 1.1278
}
},
{
"Name": "Sidi Akkacha",
"PostCode": "02009",
"Location": {
"Latitude": 36.4647,
"Longitude": 1.3026
}
},
{
"Name": "Sidi Ali Aichoune",
"PostCode": "02053",
"Location": {
"Latitude": 36.3837,
"Longitude": 1.368
}
},
{
"Name": "Sidi Arbi",
"PostCode": "02068",
"Location": {
"Latitude": 36.3285,
"Longitude": 1.0907
}
},
{
"Name": "Sidi Bouaissi",
"PostCode": "02009",
"Location": {
"Latitude": 36.4451,
"Longitude": 1.2861
}
},
{
"Name": "Sidi Maamar",
"PostCode": "02029",
"Location": {
"Latitude": 36.2136,
"Longitude": 1.4955
}
},
{
"Name": "Sidi Medjbar",
"PostCode": "02070",
"Location": {
"Latitude": 36.5333,
"Longitude": 1.5833
}
},
{
"Name": "Sidi Merouane",
"PostCode": "02006",
"Location": {
"Latitude": 36.5399,
"Longitude": 1.3391
}
},
{
"Name": "Sidi Mohamed (Douar)",
"PostCode": "02018",
"Location": {
"Latitude": 36.2725,
"Longitude": 1.388
}
},
{
"Name": "Sidi Moussa",
"PostCode": "02032",
"Location": {
"Latitude": 36.2087,
"Longitude": 1.3671
}
},
{
"Name": "Sidi Rahmoune",
"PostCode": "02028",
"Location": {
"Latitude": 36.0995,
"Longitude": 1.3321
}
},
{
"Name": "Sidi Salah",
"PostCode": "02040",
"Location": {
"Latitude": 36.2573,
"Longitude": 1.2802
}
},
{
"Name": "Sidi Touil",
"PostCode": "02028",
"Location": {
"Latitude": 36.0995,
"Longitude": 1.3321
}
},
{
"Name": "Sidi Youcef",
"PostCode": "02012",
"Location": {
"Latitude": 36.2474,
"Longitude": 0.9237
}
},
{
"Name": "Sidi Ziane",
"PostCode": "02043",
"Location": {
"Latitude": 36.3137,
"Longitude": 1.149
}
},
{
"Name": "Sidikhelifa Charef",
"PostCode": "02030",
"Location": {
"Latitude": 36.1525,
"Longitude": 1.0508
}
},
{
"Name": "Slim",
"PostCode": "02011",
"Location": {
"Latitude": 36.1059,
"Longitude": 1.2034
}
},
{
"Name": "Smala (Caper)",
"PostCode": "02011",
"Location": {
"Latitude": 36.1059,
"Longitude": 1.2034
}
},
{
"Name": "Sobha",
"PostCode": "02033",
"Location": {
"Latitude": 36.11,
"Longitude": 1.1084
}
},
{
"Name": "Souairia",
"PostCode": "02065",
"Location": {
"Latitude": 36.4356,
"Longitude": 1.0964
}
},
{
"Name": "Souala",
"PostCode": "02030",
"Location": {
"Latitude": 36.1525,
"Longitude": 1.0508
}
},
{
"Name": "Soualmia",
"PostCode": "02009",
"Location": {
"Latitude": 36.4255,
"Longitude": 1.2696
}
},
{
"Name": "Souameur",
"PostCode": "02017",
"Location": {
"Latitude": 36.5142,
"Longitude": 1.578
}
},
{
"Name": "Souk El Haad",
"PostCode": "02008",
"Location": {
"Latitude": 36.0977,
"Longitude": 1.5194
}
},
{
"Name": "Station Pompage",
"PostCode": "02011",
"Location": {
"Latitude": 36.1059,
"Longitude": 1.2034
}
},
{
"Name": "Tadjena",
"PostCode": "02043",
"Location": {
"Latitude": 36.3238,
"Longitude": 1.1359
}
},
{
"Name": "Tafrout (Douar)",
"PostCode": "02018",
"Location": {
"Latitude": 36.3205,
"Longitude": 1.3241
}
},
{
"Name": "Talassa",
"PostCode": "02065",
"Location": {
"Latitude": 36.4356,
"Longitude": 1.0964
}
},
{
"Name": "Tamzguida",
"PostCode": "02084",
"Location": {
"Latitude": 36.1814,
"Longitude": 1.5542
}
},
{
"Name": "Taougrite",
"PostCode": "02012",
"Location": {
"Latitude": 36.2474,
"Longitude": 0.9237
}
},
{
"Name": "Tarania",
"PostCode": "02006",
"Location": {
"Latitude": 36.5253,
"Longitude": 1.3236
}
},
{
"Name": "Tarzoult",
"PostCode": "02066",
"Location": {
"Latitude": 36.0119,
"Longitude": 1.0183
}
},
{
"Name": "Temdrara",
"PostCode": "02025",
"Location": {
"Latitude": 36.0696,
"Longitude": 1.3939
}
},
{
"Name": "Tenes",
"PostCode": "02006",
"Location": {
"Latitude": 36.5108,
"Longitude": 1.3081
}
},
{
"Name": "Tenes Mohamed Boudiaf",
"PostCode": "02027",
"Location": {
"Latitude": 36.1724,
"Longitude": 1.3797
}
},
{
"Name": "Tidda",
"PostCode": "02018",
"Location": {
"Latitude": 36.3205,
"Longitude": 1.3241
}
},
{
"Name": "Titaouine",
"PostCode": "02012",
"Location": {
"Latitude": 36.2474,
"Longitude": 0.9237
}
},
{
"Name": "Titaouine",
"PostCode": "02017",
"Location": {
"Latitude": 36.5142,
"Longitude": 1.578
}
},
{
"Name": "Tizi Oulman",
"PostCode": "02084",
"Location": {
"Latitude": 36.1814,
"Longitude": 1.5542
}
},
{
"Name": "Touadjine",
"PostCode": "02014",
"Location": {
"Latitude": 36.3508,
"Longitude": 1.431
}
},
{
"Name": "Touafria",
"PostCode": "02049",
"Location": {
"Latitude": 36.1727,
"Longitude": 1.6195
}
},
{
"Name": "Vieux Tenes",
"PostCode": "02062",
"Location": {
"Latitude": 36.5007,
"Longitude": 1.3162
}
},
{
"Name": "Zaouia",
"PostCode": "02002",
"Location": {
"Latitude": 36.0126,
"Longitude": 1.5981
}
},
{
"Name": "Zaouia",
"PostCode": "02049",
"Location": {
"Latitude": 36.0126,
"Longitude": 1.5981
}
},
{
"Name": "Zebabdja",
"PostCode": "02080",
"Location": {
"Latitude": 36.1744,
"Longitude": 1.4897
}
},
{
"Name": "Zeboudja",
"PostCode": "02014",
"Location": {
"Latitude": 36.3508,
"Longitude": 1.431
}
},
{
"Name": "Zeboudjet Allel",
"PostCode": "02017",
"Location": {
"Latitude": 36.5142,
"Longitude": 1.578
}
},
{
"Name": "Zekarif",
"PostCode": "02030",
"Location": {
"Latitude": 36.1525,
"Longitude": 1.0508
}
},
{
"Name": "Zelgou",
"PostCode": "02052",
"Location": {
"Latitude": 36.3837,
"Longitude": 1.368
}
},
{
"Name": "Zemoul",
"PostCode": "02003",
"Location": {
"Latitude": 36.185,
"Longitude": 1.533
}
},
{
"Name": "Zemoura",
"PostCode": "02054",
"Location": {
"Latitude": 36.3837,
"Longitude": 1.368
}
},
{
"Name": "Zenaitia",
"PostCode": "02046",
"Location": {
"Latitude": 36.2573,
"Longitude": 1.2802
}
},
{
"Name": "Zenatria",
"PostCode": "02043",
"Location": {
"Latitude": 36.3698,
"Longitude": 1.1085
}
},
{
"Name": "Zeraig",
"PostCode": "02033",
"Location": {
"Latitude": 36.1349,
"Longitude": 1.1197
}
},
{
"Name": "Zerarka",
"PostCode": "02028",
"Location": {
"Latitude": 36.0995,
"Longitude": 1.3321
}
},
{
"Name": "Zmala",
"PostCode": "02005",
"Location": {
"Latitude": 36.2507,
"Longitude": 1.24
}
},
{
"Name": "Zone Industrielle",
"PostCode": "02011",
"Location": {
"Latitude": 36.1059,
"Longitude": 1.2034
}
}
]
}
]
}
]
},
{
"Name": "L.Aghouat",
"Code": "03",
"Provinces": [
{
"Communities": [
{
"Places": [
{
"Name": "Aflou",
"PostCode": "03001",
"Location": {
"Latitude": 34.1128,
"Longitude": 2.1023
}
},
{
"Name": "Aflou Hai Med Boudiaf",
"PostCode": "03021",
"Location": {
"Latitude": 34.0661,
"Longitude": 2.0698
}
},
{
"Name": "Aflou Hay El Gaada",
"PostCode": "03020",
"Location": {
"Latitude": 34.0661,
"Longitude": 2.0698
}
},
{
"Name": "Agueb",
"PostCode": "03038",
"Location": {
"Latitude": 33.9131,
"Longitude": 2.4344
}
},
{
"Name": "Ain Bekkai",
"PostCode": "03029",
"Location": {
"Latitude": 34.0661,
"Longitude": 2.0698
}
},
{
"Name": "Ain Madhi",
"PostCode": "03012",
"Location": {
"Latitude": 33.7956,
"Longitude": 2.3052
}
},
{
"Name": "Ain Mansour",
"PostCode": "03001",
"Location": {
"Latitude": 34.1128,
"Longitude": 2.1023
}
},
{
"Name": "Ain Rich",
"PostCode": "03028",
"Location": {
"Latitude": 34.0661,
"Longitude": 2.0698
}
},
{
"Name": "Ain Sidi Ali",
"PostCode": "03028",
"Location": {
"Latitude": 34.0661,
"Longitude": 2.0698
}
},
{
"Name": "Ain Skhouna",
"PostCode": "03030",
"Location": {
"Latitude": 33.9131,
"Longitude": 2.4344
}
},
{
"Name": "Anfous",
"PostCode": "03037",
"Location": {
"Latitude": 33.9131,
"Longitude": 2.4344
}
},
{
"Name": "Beidha",
"PostCode": "03013",
"Location": {
"Latitude": 33.8083,
"Longitude": 2.5913
}
},
{
"Name": "Bekhedache",
"PostCode": "03019",
"Location": {
"Latitude": 34.1294,
"Longitude": 3.0144
}
},
{
"Name": "Bellil",
"PostCode": "03008",
"Location": {
"Latitude": 33.9164,
"Longitude": 2.5379
}
},
{
"Name": "Benacer Ben Chohra",
"PostCode": "03033",
"Location": {
"Latitude": 33.9131,
"Longitude": 2.4344
}
},
{
"Name": "Bennana",
"PostCode": "03045",
"Location": {
"Latitude": 33.9131,
"Longitude": 2.4344
}
},
{
"Name": "Bordj Senouci",
"PostCode": "03032",
"Location": {
"Latitude": 33.9131,
"Longitude": 2.4344
}
},
{
"Name": "Bouchakeur",
"PostCode": "03000",
"Location": {
"Latitude": 33.9164,
"Longitude": 2.5379
}
},
{
"Name": "Bouguenifid",
"PostCode": "03014",
"Location": {
"Latitude": 33.8264,
"Longitude": 2.9899
}
},
{
"Name": "Bouguetaif",
"PostCode": "03025",
"Location": {
"Latitude": 34.2961,
"Longitude": 1.9462
}
},
{
"Name": "Bouzertala",
"PostCode": "03001",
"Location": {
"Latitude": 34.1128,
"Longitude": 2.1023
}
},
{
"Name": "Brida",
"PostCode": "03005",
"Location": {
"Latitude": 33.9693,
"Longitude": 1.7372
}
},
{
"Name": "Chebkha",
"PostCode": "03028",
"Location": {
"Latitude": 34.0661,
"Longitude": 2.0698
}
},
{
"Name": "Chekkala",
"PostCode": "03031",
"Location": {
"Latitude": 33.9131,
"Longitude": 2.4344
}
},
{
"Name": "Chouabir",
"PostCode": "03023",
"Location": {
"Latitude": 33.9316,
"Longitude": 2.1435
}
},
{
"Name": "Dekhla",
"PostCode": "03000",
"Location": {
"Latitude": 33.9164,
"Longitude": 2.5379
}
},
{
"Name": "Dhaiet Freha",
"PostCode": "03028",
"Location": {
"Latitude": 34.0661,
"Longitude": 2.0698
}
},
{
"Name": "Dhaiet Menad",
"PostCode": "03025",
"Location": {
"Latitude": 34.2961,
"Longitude": 1.9462
}
},
{
"Name": "Dhaiet Moulay Ali",
"PostCode": "03028",
"Location": {
"Latitude": 34.0661,
"Longitude": 2.0698
}
},
{
"Name": "Djedar",
"PostCode": "03027",
"Location": {
"Latitude": 34.1651,
"Longitude": 2.3241
}
},
{
"Name": "Djerboua",
"PostCode": "03028",
"Location": {
"Latitude": 34.0661,
"Longitude": 2.0698
}
},
{
"Name": "Echaab",
"PostCode": "03023",
"Location": {
"Latitude": 33.9316,
"Longitude": 2.1435
}
},
{
"Name": "El Adjeub",
"PostCode": "03007",
"Location": {
"Latitude": 33.8773,
"Longitude": 2.5211
}
},
{
"Name": "El Ain",
"PostCode": "03012",
"Location": {
"Latitude": 33.8227,
"Longitude": 2.3227
}
},
{
"Name": "El Assafia",
"PostCode": "03014",
"Location": {
"Latitude": 33.8264,
"Longitude": 2.9899
}
},
{
"Name": "El Fetha",
"PostCode": "03000",
"Location": {
"Latitude": 33.9164,
"Longitude": 2.5379
}
},
{
"Name": "El Ghicha",
"PostCode": "03023",
"Location": {
"Latitude": 33.9316,
"Longitude": 2.1435
}
},
{
"Name": "El Hadjab",
"PostCode": "03007",
"Location": {
"Latitude": 33.8773,
"Longitude": 2.5211
}
},
{
"Name": "El Hetiba",
"PostCode": "03007",
"Location": {
"Latitude": 33.8773,
"Longitude": 2.5211
}
},
{
"Name": "El Houita",
"PostCode": "03040",
"Location": {
"Latitude": 33.9131,
"Longitude": 2.4344
}
},
{
"Name": "El Kheneg",
"PostCode": "03010",
"Location": {
"Latitude": 33.7467,
"Longitude": 2.7951
}
},
{
"Name": "El Maya",
"PostCode": "03007",
"Location": {
"Latitude": 33.8773,
"Longitude": 2.5211
}
},
{
"Name": "El Medhbouha",
"PostCode": "03023",
"Location": {
"Latitude": 33.9316,
"Longitude": 2.1435
}
},
{
"Name": "Fekairine",
"PostCode": "03005",
"Location": {
"Latitude": 33.9693,
"Longitude": 1.7372
}
},
{
"Name": "Foum El Malah",
"PostCode": "03011",
"Location": {
"Latitude": 33.5021,
"Longitude": 2.103
}
},
{
"Name": "Gandourat Eddoum",
"PostCode": "03011",
"Location": {
"Latitude": 33.5021,
"Longitude": 2.103
}
},
{
"Name": "Ghedir Lahmar",
"PostCode": "03028",
"Location": {
"Latitude": 34.0661,
"Longitude": 2.0698
}
},
{
"Name": "Gueltat Sidi Saad",
"PostCode": "03025",
"Location": {
"Latitude": 34.2961,
"Longitude": 1.9462
}
},
{
"Name": "Guennar",
"PostCode": "03028",
"Location": {
"Latitude": 34.0661,
"Longitude": 2.0698
}
},
{
"Name": "Hadj Mecheri",
"PostCode": "03038",
"Location": {
"Latitude": 33.9131,
"Longitude": 2.4344
}
},
{
"Name": "Hadjadj",
"PostCode": "03003",
"Location": {
"Latitude": 33.8114,
"Longitude": 3.1643
}
},
{
"Name": "Hadjar El Houm",
"PostCode": "03023",
"Location": {
"Latitude": 33.9316,
"Longitude": 2.1435
}
},
{
"Name": "Hadjarel Hibel",
"PostCode": "03025",
"Location": {
"Latitude": 34.2961,
"Longitude": 1.9462
}
},
{
"Name": "Haouch Bahmas",
"PostCode": "03001",
"Location": {
"Latitude": 34.1128,
"Longitude": 2.1023
}
},
{
"Name": "Haouch Benaich",
"PostCode": "03028",
"Location": {
"Latitude": 34.0661,
"Longitude": 2.0698
}
},
{
"Name": "Haouch Bendoumi",
"PostCode": "03028",
"Location": {
"Latitude": 34.0661,
"Longitude": 2.0698
}
},
{
"Name": "Haouch Kaid Slimane",
"PostCode": "03028",
"Location": {
"Latitude": 34.0661,
"Longitude": 2.0698
}
},
{
"Name": "Harchaia",
"PostCode": "03028",
"Location": {
"Latitude": 34.0661,
"Longitude": 2.0698
}
},
{
"Name": "Hassi Dalaa",
"PostCode": "03022",
"Location": {
"Latitude": 34.0661,
"Longitude": 2.0698
}
},
{
"Name": "Hassi Labiodh",
"PostCode": "03001",
"Location": {
"Latitude": 34.1128,
"Longitude": 2.1023
}
},
{
"Name": "Hassi R'Mel",
"PostCode": "03004",
"Location": {
"Latitude": 33.9164,
"Longitude": 2.5379
}
},
{
"Name": "Hassi R'Mel",
"PostCode": "03046",
"Location": {
"Latitude": 33.9131,
"Longitude": 2.4344
}
},
{
"Name": "Hassi R'Mel 1er Nov",
"PostCode": "03009",
"Location": {
"Latitude": 33.9164,
"Longitude": 2.5379
}
},
{
"Name": "Hassian Dhib",
"PostCode": "03044",
"Location": {
"Latitude": 33.9131,
"Longitude": 2.4344
}
},
{
"Name": "Hassian Lahrar",
"PostCode": "03025",
"Location": {
"Latitude": 34.2961,
"Longitude": 1.9462
}
},
{
"Name": "Hemia",
"PostCode": "03019",
"Location": {
"Latitude": 34.1294,
"Longitude": 3.0144
}
},
{
"Name": "Kabeg",
"PostCode": "03003",
"Location": {
"Latitude": 33.8313,
"Longitude": 3.1839
}
},
{
"Name": "Kef Labiodh",
"PostCode": "03028",
"Location": {
"Latitude": 34.0661,
"Longitude": 2.0698
}
},
{
"Name": "Keslan",
"PostCode": "03005",
"Location": {
"Latitude": 33.9693,
"Longitude": 1.7372
}
},
{
"Name": "Khadra",
"PostCode": "03026",
"Location": {
"Latitude": 33.8719,
"Longitude": 1.8654
}
},
{
"Name": "Kheneg El Ham",
"PostCode": "03025",
"Location": {
"Latitude": 34.2961,
"Longitude": 1.9462
}
},
{
"Name": "Kheneg El Heimer",
"PostCode": "03000",
"Location": {
"Latitude": 33.9164,
"Longitude": 2.5379
}
},
{
"Name": "Kourdane",
"PostCode": "03012",
"Location": {
"Latitude": 33.8498,
"Longitude": 2.3403
}
},
{
"Name": "Ksar El Hirane",
"PostCode": "03003",
"Location": {
"Latitude": 33.7915,
"Longitude": 3.1448
}
},
{
"Name": "Laghouat 1er Novembre",
"PostCode": "03017",
"Location": {
"Latitude": 33.8083,
"Longitude": 2.5913
}
},
{
"Name": "Laghouat Air",
"PostCode": "03000",
"Location": {
"Latitude": 33.9164,
"Longitude": 2.5379
}
},
{
"Name": "Laghouat Cite Nord",
"PostCode": "03016",
"Location": {
"Latitude": 33.8083,
"Longitude": 2.5913
}
},
{
"Name": "Laghouat Dca",
"PostCode": "03000",
"Location": {
"Latitude": 33.9164,
"Longitude": 2.5379
}
},
{
"Name": "Laghouat Djamiaa",
"PostCode": "03036",
"Location": {
"Latitude": 33.9131,
"Longitude": 2.4344
}
},
{
"Name": "Laghouat El Makam",
"PostCode": "03006",
"Location": {
"Latitude": 33.9164,
"Longitude": 2.5379
}
},
{
"Name": "Laghouat Essadikia",
"PostCode": "03015",
"Location": {
"Latitude": 33.8083,
"Longitude": 2.5913
}
},
{
"Name": "Laghouat Gare Routiere",
"PostCode": "03018",
"Location": {
"Latitude": 33.8083,
"Longitude": 2.5913
}
},
{
"Name": "Laghouat Maamoura",
"PostCode": "03002",
"Location": {
"Latitude": 33.9164,
"Longitude": 2.5379
}
},
{
"Name": "Laghouat Rp",
"PostCode": "03000",
"Location": {
"Latitude": 33.9164,
"Longitude": 2.5379
}
},
{
"Name": "Lahs El Oud",
"PostCode": "03025",
"Location": {
"Latitude": 34.2961,
"Longitude": 1.9462
}
},
{
"Name": "Lalmaya",
"PostCode": "03042",
"Location": {
"Latitude": 33.9131,
"Longitude": 2.4344
}
},
{
"Name": "Lashaou",
"PostCode": "03005",
"Location": {
"Latitude": 33.9693,
"Longitude": 1.7372
}
},
{
"Name": "M'Hat Soultane",
"PostCode": "03012",
"Location": {
"Latitude": 33.8227,
"Longitude": 2.3227
}
},
{
"Name": "M'Higuene",
"PostCode": "03011",
"Location": {
"Latitude": 33.5021,
"Longitude": 2.103
}
},
{
"Name": "Madna",
"PostCode": "03039",
"Location": {
"Latitude": 33.9131,
"Longitude": 2.4344
}
},
{
"Name": "Mehairef",
"PostCode": "03028",
"Location": {
"Latitude": 34.0661,
"Longitude": 2.0698
}
},
{
"Name": "Mekhareg",
"PostCode": "03000",
"Location": {
"Latitude": 33.9164,
"Longitude": 2.5379
}
},
{
"Name": "Melaab",
"PostCode": "03028",
"Location": {
"Latitude": 34.0661,
"Longitude": 2.0698
}
},
{
"Name": "Menas",
"PostCode": "03003",
"Location": {
"Latitude": 33.8114,
"Longitude": 3.1643
}
},
{
"Name": "Merara",
"PostCode": "03025",
"Location": {
"Latitude": 34.2961,
"Longitude": 1.9462
}
},
{
"Name": "Moharma",
"PostCode": "03019",
"Location": {
"Latitude": 34.1294,
"Longitude": 3.0144
}
},
{
"Name": "Nethela",
"PostCode": "03019",
"Location": {
"Latitude": 34.1294,
"Longitude": 3.0144
}
},
{
"Name": "Oued M'Zi",
"PostCode": "03041",
"Location": {
"Latitude": 33.9131,
"Longitude": 2.4344
}
},
{
"Name": "Oued Morra",
"PostCode": "03027",
"Location": {
"Latitude": 34.1651,
"Longitude": 2.3241
}
},
{
"Name": "Oued Touil",
"PostCode": "03043",
"Location": {
"Latitude": 33.9131,
"Longitude": 2.4344
}
},
{
"Name": "Reg Taounza",
"PostCode": "03003",
"Location": {
"Latitude": 33.8114,
"Longitude": 3.1643
}
},
{
"Name": "Remilat",
"PostCode": "03028",
"Location": {
"Latitude": 34.0661,
"Longitude": 2.0698
}
},
{
"Name": "Ressaf",
"PostCode": "03028",
"Location": {
"Latitude": 34.0661,
"Longitude": 2.0698
}
},
{
"Name": "Sebgag",
"PostCode": "03034",
"Location": {
"Latitude": 33.9131,
"Longitude": 2.4344
}
},
{
"Name": "Seridja",
"PostCode": "03000",
"Location": {
"Latitude": 33.9164,
"Longitude": 2.5379
}
},
{
"Name": "Sidi Bouzid",
"PostCode": "03024",
"Location": {
"Latitude": 34.0661,
"Longitude": 2.0698
}
},
{
"Name": "Sidi Hamza",
"PostCode": "03005",
"Location": {
"Latitude": 33.9693,
"Longitude": 1.7372
}
},
{
"Name": "Sidi Lahcene",
"PostCode": "03025",
"Location": {
"Latitude": 34.2961,
"Longitude": 1.9462
}
},
{
"Name": "Sidi Makhlouf",
"PostCode": "03019",
"Location": {
"Latitude": 34.1294,
"Longitude": 3.0144
}
},
{
"Name": "Sidi Naceur",
"PostCode": "03038",
"Location": {
"Latitude": 33.9131,
"Longitude": 2.4344
}
},
{
"Name": "Tabkhoura",
"PostCode": "03028",
"Location": {
"Latitude": 34.0661,
"Longitude": 2.0698
}
},
{
"Name": "Tadjemout",
"PostCode": "03007",
"Location": {
"Latitude": 33.8773,
"Longitude": 2.5211
}
},
{
"Name": "Tadjerouna",
"PostCode": "03011",
"Location": {
"Latitude": 33.5021,
"Longitude": 2.103
}
},
{
"Name": "Tadmama",
"PostCode": "03001",
"Location": {
"Latitude": 34.1128,
"Longitude": 2.1023
}
},
{
"Name": "Tamelaket",
"PostCode": "03005",
"Location": {
"Latitude": 33.9693,
"Longitude": 1.7372
}
},
{
"Name": "Taouiala",
"PostCode": "03026",
"Location": {
"Latitude": 33.8719,
"Longitude": 1.8654
}
},
{
"Name": "Terghalel",
"PostCode": "03035",
"Location": {
"Latitude": 33.9131,
"Longitude": 2.4344
}
},
{
"Name": "Tilgemt",
"PostCode": "03004",
"Location": {
"Latitude": 33.9164,
"Longitude": 2.5379
}
},
{
"Name": "Tkiste",
"PostCode": "03005",
"Location": {
"Latitude": 33.9693,
"Longitude": 1.7372
}
},
{
"Name": "Tourbi",
"PostCode": "03044",
"Location": {
"Latitude": 33.9131,
"Longitude": 2.4344
}
},
{
"Name": "Traifia",
"PostCode": "03023",
"Location": {
"Latitude": 33.9316,
"Longitude": 2.1435
}
},
{
"Name": "Zargoun",
"PostCode": "03011",
"Location": {
"Latitude": 33.5021,
"Longitude": 2.103
}
},
{
"Name": "Zeraib",
"PostCode": "03028",
"Location": {
"Latitude": 34.0661,
"Longitude": 2.0698
}
},
{
"Name": "Zerari",
"PostCode": "03023",
"Location": {
"Latitude": 33.9316,
"Longitude": 2.1435
}
}
]
}
]
}
]
},
{
"Name": "Oum-El-Bouaghi",
"Code": "04",
"Provinces": [
{
"Communities": [
{
"Places": [
{
"Name": "Abbas Laghrour",
"PostCode": "04000",
"Location": {
"Latitude": 35.7309,
"Longitude": 7.3693
}
},
{
"Name": "Ain Babouche",
"PostCode": "04020",
"Location": {
"Latitude": 35.9419,
"Longitude": 7.1875
}
},
{
"Name": "Ain Beida",
"PostCode": "04001",
"Location": {
"Latitude": 35.7964,
"Longitude": 7.3928
}
},
{
"Name": "Ain Beida 1er Novembre",
"PostCode": "04048",
"Location": {
"Latitude": 35.776,
"Longitude": 7.3576
}
},
{
"Name": "Ain Beida Cite Saidi",
"PostCode": "04001",
"Location": {
"Latitude": 35.7964,
"Longitude": 7.3928
}
},
{
"Name": "Ain Beida Laazabi",
"PostCode": "04007",
"Location": {
"Latitude": 35.7309,
"Longitude": 7.3693
}
},
{
"Name": "Ain Benayad",
"PostCode": "04024",
"Location": {
"Latitude": 35.8887,
"Longitude": 7.1107
}
},
{
"Name": "Ain Benyouche",
"PostCode": "04004",
"Location": {
"Latitude": 35.5967,
"Longitude": 7.6931
}
},
{
"Name": "Ain Charef",
"PostCode": "04020",
"Location": {
"Latitude": 35.9419,
"Longitude": 7.1875
}
},
{
"Name": "Ain Dhala",
"PostCode": "04008",
"Location": {
"Latitude": 35.7309,
"Longitude": 7.3693
}
},
{
"Name": "Ain Diab",
"PostCode": "04004",
"Location": {
"Latitude": 35.5967,
"Longitude": 7.6931
}
},
{
"Name": "Ain Diss",
"PostCode": "04004",
"Location": {
"Latitude": 35.5967,
"Longitude": 7.6931
}
},
{
"Name": "Ain El Bordj",
"PostCode": "04043",
"Location": {
"Latitude": 36.1102,
"Longitude": 6.9454
}
},
{
"Name": "Ain Fakroun",
"PostCode": "04005",
"Location": {
"Latitude": 35.9711,
"Longitude": 6.8737
}
},
{
"Name": "Ain Fakroun Satha",
"PostCode": "04016",
"Location": {
"Latitude": 35.907,
"Longitude": 7.2272
}
},
{
"Name": "Ain Ferhat",
"PostCode": "04024",
"Location": {
"Latitude": 35.8887,
"Longitude": 7.1107
}
},
{
"Name": "Ain Guettar",
"PostCode": "04020",
"Location": {
"Latitude": 35.9419,
"Longitude": 7.1875
}
},
{
"Name": "Ain Kercha",
"PostCode": "04006",
"Location": {
"Latitude": 35.9247,
"Longitude": 6.6953
}
},
{
"Name": "Ain Keskes",
"PostCode": "04026",
"Location": {
"Latitude": 35.8282,
"Longitude": 7.7491
}
},
{
"Name": "Ain Lahma",
"PostCode": "04020",
"Location": {
"Latitude": 35.9419,
"Longitude": 7.1875
}
},
{
"Name": "Ain Laoura",
"PostCode": "04004",
"Location": {
"Latitude": 35.5967,
"Longitude": 7.6931
}
},
{
"Name": "Ain Ledj Ledj",
"PostCode": "04029",
"Location": {
"Latitude": 35.8887,
"Longitude": 7.1107
}
},
{
"Name": "Ain Lehma",
"PostCode": "04019",
"Location": {
"Latitude": 35.907,
"Longitude": 7.2272
}
},
{
"Name": "Ain M'Lila",
"PostCode": "04002",
"Location": {
"Latitude": 36.0369,
"Longitude": 6.5722
}
},
{
"Name": "Ain M'Lila Ben Mhidi",
"PostCode": "04017",
"Location": {
"Latitude": 35.907,
"Longitude": 7.2272
}
},
{
"Name": "Ain M'Lila Gouadjlia",
"PostCode": "04014",
"Location": {
"Latitude": 35.907,
"Longitude": 7.2272
}
},
{
"Name": "Ain Nechmaya",
"PostCode": "04004",
"Location": {
"Latitude": 35.5967,
"Longitude": 7.6931
}
},
{
"Name": "Ain Sedjra",
"PostCode": "04004",
"Location": {
"Latitude": 35.5967,
"Longitude": 7.6931
}
},
{
"Name": "Ain Zitoun",
"PostCode": "04023",
"Location": {
"Latitude": 35.8887,
"Longitude": 7.1107
}
},
{
"Name": "Annana (Douar)",
"PostCode": "04019",
"Location": {
"Latitude": 35.907,
"Longitude": 7.2272
}
},
{
"Name": "Argoub Ettine",
"PostCode": "04008",
"Location": {
"Latitude": 35.7309,
"Longitude": 7.3693
}
},
{
"Name": "Argoub Laraneb",
"PostCode": "04004",
"Location": {
"Latitude": 35.5967,
"Longitude": 7.6931
}
},
{
"Name": "Argoub Lasfar",
"PostCode": "04026",
"Location": {
"Latitude": 35.8282,
"Longitude": 7.7491
}
},
{
"Name": "Ayoun El Beid",
"PostCode": "04047",
"Location": {
"Latitude": 35.6637,
"Longitude": 7.2989
}
},
{
"Name": "Barri",
"PostCode": "04015",
"Location": {
"Latitude": 35.9144,
"Longitude": 7.3767
}
},
{
"Name": "Behair Chergui",
"PostCode": "04026",
"Location": {
"Latitude": 35.8282,
"Longitude": 7.7491
}
},
{
"Name": "Bekoula",
"PostCode": "04020",
"Location": {
"Latitude": 35.9419,
"Longitude": 7.1875
}
},
{
"Name": "Ben Fach",
"PostCode": "04047",
"Location": {
"Latitude": 35.6637,
"Longitude": 7.2989
}
},
{
"Name": "Berriche",
"PostCode": "04015",
"Location": {
"Latitude": 35.9144,
"Longitude": 7.3767
}
},
{
"Name": "Berririche",
"PostCode": "04022",
"Location": {
"Latitude": 35.8887,
"Longitude": 7.1107
}
},
{
"Name": "Bir Achour",
"PostCode": "04029",
"Location": {
"Latitude": 35.8887,
"Longitude": 7.1107
}
},
{
"Name": "Bir Amar",
"PostCode": "04025",
"Location": {
"Latitude": 35.8887,
"Longitude": 7.1107
}
},
{
"Name": "Bir Atrous",
"PostCode": "04020",
"Location": {
"Latitude": 35.9419,
"Longitude": 7.1875
}
},
{
"Name": "Bir Boumaza",
"PostCode": "04020",
"Location": {
"Latitude": 35.9419,
"Longitude": 7.1875
}
},
{
"Name": "Bir Cheb",
"PostCode": "04026",
"Location": {
"Latitude": 35.8282,
"Longitude": 7.7491
}
},
{
"Name": "Bir Chouhada",
"PostCode": "04021",
"Location": {
"Latitude": 35.8958,
"Longitude": 6.3956
}
},
{
"Name": "Bir De Kouacha",
"PostCode": "04047",
"Location": {
"Latitude": 35.6637,
"Longitude": 7.2989
}
},
{
"Name": "Bir Djedida",
"PostCode": "04000",
"Location": {
"Latitude": 35.7309,
"Longitude": 7.3693
}
},
{
"Name": "Bir El Hanchir",
"PostCode": "04010",
"Location": {
"Latitude": 35.907,
"Longitude": 7.2272
}
},
{
"Name": "Bir Khechba",
"PostCode": "04030",
"Location": {
"Latitude": 35.75,
"Longitude": 7.4167
}
},
{
"Name": "Bir Khenga",
"PostCode": "04018",
"Location": {
"Latitude": 36.0831,
"Longitude": 7.2581
}
},
{
"Name": "Bir Laouar",
"PostCode": "04004",
"Location": {
"Latitude": 35.5967,
"Longitude": 7.6931
}
},
{
"Name": "Bir Lasfar",
"PostCode": "04012",
"Location": {
"Latitude": 35.907,
"Longitude": 7.2272
}
},
{
"Name": "Bir Mentenne",
"PostCode": "04024",
"Location": {
"Latitude": 35.8887,
"Longitude": 7.1107
}
},
{
"Name": "Bir Ogla",
"PostCode": "04041",
"Location": {
"Latitude": 35.776,
"Longitude": 7.3576
}
},
{
"Name": "Bir Ounes",
"PostCode": "04046",
"Location": {
"Latitude": 35.776,
"Longitude": 7.3576
}
},
{
"Name": "Bir Raayane",
"PostCode": "04021",
"Location": {
"Latitude": 35.8958,
"Longitude": 6.3956
}
},
{
"Name": "Bir Rogaa",
"PostCode": "04027",
"Location": {
"Latitude": 35.8887,
"Longitude": 7.1107
}
},
{
"Name": "Bir Saheli",
"PostCode": "04029",
"Location": {
"Latitude": 35.8887,
"Longitude": 7.1107
}
},
{
"Name": "Bir Tandja",
"PostCode": "04034",
"Location": {
"Latitude": 35.75,
"Longitude": 7.4167
}
},
{
"Name": "Bouathmane",
"PostCode": "04020",
"Location": {
"Latitude": 35.9419,
"Longitude": 7.1875
}
},
{
"Name": "Boudouh",
"PostCode": "04018",
"Location": {
"Latitude": 36.0831,
"Longitude": 7.2581
}
},
{
"Name": "Bougherara Fedjoudj",
"PostCode": "04042",
"Location": {
"Latitude": 35.776,
"Longitude": 7.3576
}
},
{
"Name": "Bougouas",
"PostCode": "04024",
"Location": {
"Latitude": 35.8887,
"Longitude": 7.1107
}
},
{
"Name": "Boumerghad",
"PostCode": "04032",
"Location": {
"Latitude": 35.75,
"Longitude": 7.4167
}
},
{
"Name": "Boussaada",
"PostCode": "04004",
"Location": {
"Latitude": 35.5967,
"Longitude": 7.6931
}
},
{
"Name": "Boussekren",
"PostCode": "04004",
"Location": {
"Latitude": 35.5967,
"Longitude": 7.6931
}
},
{
"Name": "Boutekhma",
"PostCode": "04008",
"Location": {
"Latitude": 35.7309,
"Longitude": 7.3693
}
},
{
"Name": "Breid (Douar)",
"PostCode": "04005",
"Location": {
"Latitude": 35.9711,
"Longitude": 6.8737
}
},
{
"Name": "Cam Abdelhafid Saou",
"PostCode": "04021",
"Location": {
"Latitude": 35.8958,
"Longitude": 6.3956
}
},
{
"Name": "Cam Aouabdia Laid",
"PostCode": "04019",
"Location": {
"Latitude": 35.907,
"Longitude": 7.2272
}
},
{
"Name": "Cam Bouhzam Laifa",
"PostCode": "04006",
"Location": {
"Latitude": 35.9247,
"Longitude": 6.6953
}
},
{
"Name": "Cam Bouhzam Laifa",
"PostCode": "04012",
"Location": {
"Latitude": 35.907,
"Longitude": 7.2272
}
},
{
"Name": "Cam Boulguerne Lekmiss",
"PostCode": "04032",
"Location": {
"Latitude": 35.75,
"Longitude": 7.4167
}
},
{
"Name": "Cam Bradat Douadi",
"PostCode": "04005",
"Location": {
"Latitude": 35.9711,
"Longitude": 6.8737
}
},
{
"Name": "Cam Lamri Mohamed",
"PostCode": "04006",
"Location": {
"Latitude": 35.9247,
"Longitude": 6.6953
}
},
{
"Name": "Cam Matougui Daouadji",
"PostCode": "04005",
"Location": {
"Latitude": 35.9711,
"Longitude": 6.8737
}
},
{
"Name": "Cam Matougui Slimane",
"PostCode": "04032",
"Location": {
"Latitude": 35.75,
"Longitude": 7.4167
}
},
{
"Name": "Capra Achari Tayeb",
"PostCode": "04019",
"Location": {
"Latitude": 35.907,
"Longitude": 7.2272
}
},
{
"Name": "Capra Berkane",
"PostCode": "04041",
"Location": {
"Latitude": 35.776,
"Longitude": 7.3576
}
},
{
"Name": "Capra Bladehane Sebti",
"PostCode": "04019",
"Location": {
"Latitude": 35.907,
"Longitude": 7.2272
}
},
{
"Name": "Capra Marouf Mohamed",
"PostCode": "04019",
"Location": {
"Latitude": 35.907,
"Longitude": 7.2272
}
},
{
"Name": "Capra Rabai Laid",
"PostCode": "04019",
"Location": {
"Latitude": 35.907,
"Longitude": 7.2272
}
},
{
"Name": "Capra Terche Miloud",
"PostCode": "04019",
"Location": {
"Latitude": 35.907,
"Longitude": 7.2272
}
},
{
"Name": "Cite Emir Abdelkader",
"PostCode": "04006",
"Location": {
"Latitude": 35.9247,
"Longitude": 6.6953
}
},
{
"Name": "Comite De Gestion Ghorab Ramdane",
"PostCode": "04019",
"Location": {
"Latitude": 35.907,
"Longitude": 7.2272
}
},
{
"Name": "Demnet Berrouag",
"PostCode": "04026",
"Location": {
"Latitude": 35.8282,
"Longitude": 7.7491
}
},
{
"Name": "Dhalaa",
"PostCode": "04008",
"Location": {
"Latitude": 35.7309,
"Longitude": 7.3693
}
},
{
"Name": "Djemaa",
"PostCode": "04047",
"Location": {
"Latitude": 35.6637,
"Longitude": 7.2989
}
},
{
"Name": "Domaine Kouah Tayeb",
"PostCode": "04001",
"Location": {
"Latitude": 35.7964,
"Longitude": 7.3928
}
},
{
"Name": "Douar Annana",
"PostCode": "04019",
"Location": {
"Latitude": 35.907,
"Longitude": 7.2272
}
},
{
"Name": "Douar Dreid",
"PostCode": "04043",
"Location": {
"Latitude": 36.1102,
"Longitude": 6.9454
}
},
{
"Name": "Douar El Hezbri",
"PostCode": "04005",
"Location": {
"Latitude": 35.9711,
"Longitude": 6.8737
}
},
{
"Name": "Douar Mansouri",
"PostCode": "04019",
"Location": {
"Latitude": 35.907,
"Longitude": 7.2272
}
},
{
"Name": "Douar Mederg Narou",
"PostCode": "04013",
"Location": {
"Latitude": 35.7069,
"Longitude": 7.3578
}
},
{
"Name": "Douar Ouled Sebaa",
"PostCode": "04005",
"Location": {
"Latitude": 35.9711,
"Longitude": 6.8737
}
},
{
"Name": "Douar Ouled Sebaa (Douar)",
"PostCode": "04005",
"Location": {
"Latitude": 35.9711,
"Longitude": 6.8737
}
},
{
"Name": "Douar Ouled Sidi Mesaad",
"PostCode": "04005",
"Location": {
"Latitude": 35.9711,
"Longitude": 6.8737
}
},
{
"Name": "Douar Ouled Sidi Ounis",
"PostCode": "04005",
"Location": {
"Latitude": 35.9711,
"Longitude": 6.8737
}
},
{
"Name": "Douar Zaouia",
"PostCode": "04021",
"Location": {
"Latitude": 35.8958,
"Longitude": 6.3956
}
},
{
"Name": "Draa El Mezdour",
"PostCode": "04004",
"Location": {
"Latitude": 35.5967,
"Longitude": 7.6931
}
},
{
"Name": "Draa Lemkhazen",
"PostCode": "04040",
"Location": {
"Latitude": 35.6135,
"Longitude": 7.5194
}
},
{
"Name": "Draa Snober",
"PostCode": "04004",
"Location": {
"Latitude": 35.5967,
"Longitude": 7.6931
}
},
{
"Name": "Ecole Amedjouj",
"PostCode": "04012",
"Location": {
"Latitude": 35.907,
"Longitude": 7.2272
}
},
{
"Name": "Ecole Boudab",
"PostCode": "04012",
"Location": {
"Latitude": 35.907,
"Longitude": 7.2272
}
},
{
"Name": "Ecole Garaa Saida",
"PostCode": "04006",
"Location": {
"Latitude": 35.9247,
"Longitude": 6.6953
}
},
{
"Name": "Ecole Ghoubal Hamdane",
"PostCode": "04006",
"Location": {
"Latitude": 35.9247,
"Longitude": 6.6953
}
},
{
"Name": "Ecole Gourari Athmane",
"PostCode": "04012",
"Location": {
"Latitude": 35.907,
"Longitude": 7.2272
}
},
{
"Name": "Ecole Kasar Touagene",
"PostCode": "04006",
"Location": {
"Latitude": 35.9247,
"Longitude": 6.6953
}
},
{
"Name": "Ecole Mechta Toumghani",
"PostCode": "04012",
"Location": {
"Latitude": 35.907,
"Longitude": 7.2272
}
},
{
"Name": "Ecole Mixte Koudiat Essaid",
"PostCode": "04019",
"Location": {
"Latitude": 35.907,
"Longitude": 7.2272
}
},
{
"Name": "El Amiria",
"PostCode": "04038",
"Location": {
"Latitude": 35.75,
"Longitude": 7.4167
}
},
{
"Name": "El Azla",
"PostCode": "04010",
"Location": {
"Latitude": 35.907,
"Longitude": 7.2272
}
},
{
"Name": "El Bellala",
"PostCode": "04044",
"Location": {
"Latitude": 35.776,
"Longitude": 7.3576
}
},
{
"Name": "El Berd",
"PostCode": "04047",
"Location": {
"Latitude": 35.6637,
"Longitude": 7.2989
}
},
{
"Name": "El Djazia",
"PostCode": "04040",
"Location": {
"Latitude": 35.6135,
"Longitude": 7.5194
}
},
{
"Name": "El Gourzi",
"PostCode": "04020",
"Location": {
"Latitude": 35.9419,
"Longitude": 7.1875
}
},
{
"Name": "El Guedir",
"PostCode": "04020",
"Location": {
"Latitude": 35.9419,
"Longitude": 7.1875
}
},
{
"Name": "El Guettara",
"PostCode": "04018",
"Location": {
"Latitude": 36.0831,
"Longitude": 7.2581
}
},
{
"Name": "El Hassi",
"PostCode": "04015",
"Location": {
"Latitude": 35.9144,
"Longitude": 7.3767
}
},
{
"Name": "El Hassi",
"PostCode": "04020",
"Location": {
"Latitude": 35.9419,
"Longitude": 7.1875
}
},
{
"Name": "El Kouahi",
"PostCode": "04002",
"Location": {
"Latitude": 36.0369,
"Longitude": 6.5722
}
},
{
"Name": "El Maleh",
"PostCode": "04018",
"Location": {
"Latitude": 36.0831,
"Longitude": 7.2581
}
},
{
"Name": "El Manchar",
"PostCode": "04020",
"Location": {
"Latitude": 35.9419,
"Longitude": 7.1875
}
},
{
"Name": "El Mellah",
"PostCode": "04020",
"Location": {
"Latitude": 35.9419,
"Longitude": 7.1875
}
},
{
"Name": "El Menaa",
"PostCode": "04018",
"Location": {
"Latitude": 36.0831,
"Longitude": 7.2581
}
},
{
"Name": "El Ouassah",
"PostCode": "04015",
"Location": {
"Latitude": 35.9144,
"Longitude": 7.3767
}
},
{
"Name": "El Zorg",
"PostCode": "04024",
"Location": {
"Latitude": 35.8887,
"Longitude": 7.1107
}
},
{
"Name": "F'Kirina",
"PostCode": "04013",
"Location": {
"Latitude": 35.6637,
"Longitude": 7.2989
}
},
{
"Name": "Fedj El Batnia",
"PostCode": "04026",
"Location": {
"Latitude": 35.8282,
"Longitude": 7.7491
}
},
{
"Name": "Fedj Errih",
"PostCode": "04012",
"Location": {
"Latitude": 35.907,
"Longitude": 7.2272
}
},
{
"Name": "Fedj Ettine",
"PostCode": "04040",
"Location": {
"Latitude": 35.6135,
"Longitude": 7.5194
}
},
{
"Name": "Ferme Ratmi Menouar",
"PostCode": "04013",
"Location": {
"Latitude": 35.7069,
"Longitude": 7.3578
}
},
{
"Name": "Ferme Zinai Hamdane",
"PostCode": "04013",
"Location": {
"Latitude": 35.7069,
"Longitude": 7.3578
}
},
{
"Name": "Ferme Zinai Merzoug",
"PostCode": "04013",
"Location": {
"Latitude": 35.7069,
"Longitude": 7.3578
}
},
{
"Name": "Fezguia",
"PostCode": "04002",
"Location": {
"Latitude": 36.0369,
"Longitude": 6.5722
}
},
{
"Name": "Foum El Amba",
"PostCode": "04000",
"Location": {
"Latitude": 35.7309,
"Longitude": 7.3693
}
},
{
"Name": "Fourchi",
"PostCode": "04002",
"Location": {
"Latitude": 36.0369,
"Longitude": 6.5722
}
},
{
"Name": "Gabel Sambrax",
"PostCode": "04036",
"Location": {
"Latitude": 35.75,
"Longitude": 7.4167
}
},
{
"Name": "Gabel Zebar",
"PostCode": "04008",
"Location": {
"Latitude": 35.7309,
"Longitude": 7.3693
}
},
{
"Name": "Garaa Saida",
"PostCode": "04006",
"Location": {
"Latitude": 35.9247,
"Longitude": 6.6953
}
},
{
"Name": "Ghabaza",
"PostCode": "04019",
"Location": {
"Latitude": 35.907,
"Longitude": 7.2272
}
},
{
"Name": "Ghattat",
"PostCode": "04020",
"Location": {
"Latitude": 35.9419,
"Longitude": 7.1875
}
},
{
"Name": "Ghorba Ramdhane",
"PostCode": "04019",
"Location": {
"Latitude": 35.907,
"Longitude": 7.2272
}
},
{
"Name": "Goussa",
"PostCode": "04018",
"Location": {
"Latitude": 36.0831,
"Longitude": 7.2581
}
},
{
"Name": "Guelif",
"PostCode": "04000",
"Location": {
"Latitude": 35.7309,
"Longitude": 7.3693
}
},
{
"Name": "Guelta Zerga",
"PostCode": "04026",
"Location": {
"Latitude": 35.8282,
"Longitude": 7.7491
}
},
{
"Name": "Guern Ahmar",
"PostCode": "04040",
"Location": {
"Latitude": 35.6135,
"Longitude": 7.5194
}
},
{
"Name": "Hamadja",
"PostCode": "04004",
"Location": {
"Latitude": 35.5967,
"Longitude": 7.6931
}
},
{
"Name": "Hanchir Abes",
"PostCode": "04020",
"Location": {
"Latitude": 35.9419,
"Longitude": 7.1875
}
},
{
"Name": "Hanchir Eddaheche",
"PostCode": "04004",
"Location": {
"Latitude": 35.5967,
"Longitude": 7.6931
}
},
{
"Name": "Hanchir El Karma",
"PostCode": "04013",
"Location": {
"Latitude": 35.7069,
"Longitude": 7.3578
}
},
{
"Name": "Hanchir Hesram",
"PostCode": "04004",
"Location": {
"Latitude": 35.5967,
"Longitude": 7.6931
}
},
{
"Name": "Hanchir Lekmine",
"PostCode": "04006",
"Location": {
"Latitude": 35.9247,
"Longitude": 6.6953
}
},
{
"Name": "Hanchir Ouled Melloul",
"PostCode": "04010",
"Location": {
"Latitude": 35.907,
"Longitude": 7.2272
}
},
{
"Name": "Hanchir Ouled Salem",
"PostCode": "04010",
"Location": {
"Latitude": 35.907,
"Longitude": 7.2272
}
},
{
"Name": "Harmilia",
"PostCode": "04032",
"Location": {
"Latitude": 35.75,
"Longitude": 7.4167
}
},
{
"Name": "Henchir Douames",
"PostCode": "04047",
"Location": {
"Latitude": 35.6637,
"Longitude": 7.2989
}
},
{
"Name": "Henchir Laatache",
"PostCode": "04039",
"Location": {
"Latitude": 35.75,
"Longitude": 7.4167
}
},
{
"Name": "Henchir Toumghani",
"PostCode": "04012",
"Location": {
"Latitude": 35.907,
"Longitude": 7.2272
}
},
{
"Name": "Kalkoula",
"PostCode": "04019",
"Location": {
"Latitude": 35.907,
"Longitude": 7.2272
}
},
{
"Name": "Kasar Touagene (Ecole)",
"PostCode": "04006",
"Location": {
"Latitude": 35.9247,
"Longitude": 6.6953
}
},
{
"Name": "Kouah Tayeb (Domaine)",
"PostCode": "04001",
"Location": {
"Latitude": 35.7964,
"Longitude": 7.3928
}
},
{
"Name": "Koudiat El Hamla",
"PostCode": "04004",
"Location": {
"Latitude": 35.5967,
"Longitude": 7.6931
}
},
{
"Name": "Koudiat Essaid",
"PostCode": "04019",
"Location": {
"Latitude": 35.907,
"Longitude": 7.2272
}
},
{
"Name": "Koudiat Sefra",
"PostCode": "04001",
"Location": {
"Latitude": 35.7964,
"Longitude": 7.3928
}
},
{
"Name": "Ksar Sbahi",
"PostCode": "04018",
"Location": {
"Latitude": 36.0831,
"Longitude": 7.2581
}
},
{
"Name": "La Khoudi",
"PostCode": "04024",
"Location": {
"Latitude": 35.8887,
"Longitude": 7.1107
}
},
{
"Name": "Laatatfa",
"PostCode": "04019",
"Location": {
"Latitude": 35.907,
"Longitude": 7.2272
}
},
{
"Name": "Lahmimet",
"PostCode": "04020",
"Location": {
"Latitude": 35.9419,
"Longitude": 7.1875
}
},
{
"Name": "Lahtab",
"PostCode": "04029",
"Location": {
"Latitude": 35.8887,
"Longitude": 7.1107
}
},
{
"Name": "Lefdjoudj",
"PostCode": "04000",
"Location": {
"Latitude": 35.7309,
"Longitude": 7.3693
}
},