[
{
"Provinces": [
{
"Communities": [
{
"Places": [
{
"Name": "El Piedrero",
"PostCode": "900001",
"Location": {
"Latitude": -2.3748,
"Longitude": -79.2673
}
},
{
"Name": "Las Golondrinas",
"PostCode": "900004",
"Location": {
"Latitude": 0.3205,
"Longitude": -79.2133
}
},
{
"Name": "Manga Del Cura",
"PostCode": "900002",
"Location": {
"Latitude": -0.7851,
"Longitude": -79.6408
}
},
{
"Name": "Manga Del Cura",
"PostCode": "900003",
"Location": {
"Latitude": -0.5947,
"Longitude": -79.553
}
}
]
}
]
}
]
},
{
"Name": "Galápagos",
"Code": "01",
"Provinces": [
{
"Name": "Cantón San Cristóbal",
"Code": "2001",
"Communities": [
{
"Places": [
{
"Name": "El Progreso",
"PostCode": "200104",
"Location": {
"Latitude": -0.8258,
"Longitude": -89.4288
}
},
{
"Name": "Española Hood-Puerto Baquerizo Moreno",
"PostCode": "200101",
"Location": {
"Latitude": -1.1811,
"Longitude": -90.1968
}
}
]
}
]
},
{
"Name": "Cantón Isabela",
"Code": "2002",
"Communities": [
{
"Places": [
{
"Name": "Isla Fernandina Narborough",
"PostCode": "200107",
"Location": {
"Latitude": -0.5377,
"Longitude": -91.2237
}
},
{
"Name": "Puerto Villamil",
"PostCode": "200103",
"Location": {
"Latitude": -0.9554,
"Longitude": -90.9665
}
}
]
}
]
},
{
"Name": "Cantón Santa Cruz",
"Code": "2003",
"Communities": [
{
"Places": [
{
"Name": "Bellavista",
"PostCode": "200105",
"Location": {
"Latitude": -0.6955,
"Longitude": -90.3255
}
},
{
"Name": "Isla Pinzon",
"PostCode": "200106",
"Location": {
"Latitude": -0.4848,
"Longitude": -90.4482
}
},
{
"Name": "Puerto Ayora",
"PostCode": "200102",
"Location": {
"Latitude": -0.7402,
"Longitude": -90.3138
}
}
]
}
]
}
]
},
{
"Name": "Azuay",
"Code": "02",
"Provinces": [
{
"Name": "Cantón Cuenca",
"Code": "0101",
"Communities": [
{
"Places": [
{
"Name": "Baños",
"PostCode": "010214",
"Location": {
"Latitude": -2.9216,
"Longitude": -79.0646
}
},
{
"Name": "Chaucha",
"PostCode": "010219",
"Location": {
"Latitude": -2.9091,
"Longitude": -79.413
}
},
{
"Name": "Checa (Jidcay)-Chiquintad",
"PostCode": "010118",
"Location": {
"Latitude": -2.8729,
"Longitude": -79.0459
}
},
{
"Name": "Cuenca Bellavista",
"PostCode": "010109",
"Location": {
"Latitude": -2.8665,
"Longitude": -78.9334
}
},
{
"Name": "Cuenca Bellavista",
"PostCode": "010110",
"Location": {
"Latitude": -2.8639,
"Longitude": -78.8902
}
},
{
"Name": "Cuenca Cañaribamba",
"PostCode": "010105",
"Location": {
"Latitude": -2.881,
"Longitude": -79.0117
}
},
{
"Name": "Cuenca El Batan",
"PostCode": "010207",
"Location": {
"Latitude": -2.8929,
"Longitude": -79.0435
}
},
{
"Name": "Cuenca El Sagrario",
"PostCode": "010107",
"Location": {
"Latitude": -2.8629,
"Longitude": -78.984
}
},
{
"Name": "Cuenca El Vecino",
"PostCode": "010101",
"Location": {
"Latitude": -2.8965,
"Longitude": -79.0029
}
},
{
"Name": "Cuenca El Vecino",
"PostCode": "010102",
"Location": {
"Latitude": -2.8867,
"Longitude": -78.9943
}
},
{
"Name": "Cuenca Gil Ramirez Davalos",
"PostCode": "010108",
"Location": {
"Latitude": -2.8483,
"Longitude": -78.9433
}
},
{
"Name": "Cuenca Hermano Miguel",
"PostCode": "010112",
"Location": {
"Latitude": -2.801,
"Longitude": -79.1703
}
},
{
"Name": "Cuenca Huayna Capac",
"PostCode": "010204",
"Location": {
"Latitude": -2.9156,
"Longitude": -78.9987
}
},
{
"Name": "Cuenca Machangara",
"PostCode": "010113",
"Location": {
"Latitude": -2.7691,
"Longitude": -79.0567
}
},
{
"Name": "Cuenca Machangara",
"PostCode": "010114",
"Location": {
"Latitude": -2.7341,
"Longitude": -79.0253
}
},
{
"Name": "Cuenca Monay",
"PostCode": "010210",
"Location": {
"Latitude": -2.9057,
"Longitude": -78.9732
}
},
{
"Name": "Cuenca San Blas",
"PostCode": "010106",
"Location": {
"Latitude": -2.8523,
"Longitude": -79.0158
}
},
{
"Name": "Cuenca San Sebastian",
"PostCode": "010208",
"Location": {
"Latitude": -2.8921,
"Longitude": -79.0161
}
},
{
"Name": "Cuenca San Sebastian",
"PostCode": "010209",
"Location": {
"Latitude": -2.8959,
"Longitude": -78.9747
}
},
{
"Name": "Cuenca Sucre",
"PostCode": "010202",
"Location": {
"Latitude": -2.8999,
"Longitude": -79.0222
}
},
{
"Name": "Cuenca Sucre",
"PostCode": "010203",
"Location": {
"Latitude": -2.906,
"Longitude": -79.014
}
},
{
"Name": "Cuenca Totorocoha",
"PostCode": "010103",
"Location": {
"Latitude": -2.8905,
"Longitude": -78.9818
}
},
{
"Name": "Cuenca Totorocoha",
"PostCode": "010104",
"Location": {
"Latitude": -2.9016,
"Longitude": -78.9903
}
},
{
"Name": "Cuenca Yanuncay",
"PostCode": "010201",
"Location": {
"Latitude": -2.9115,
"Longitude": -79.0238
}
},
{
"Name": "Cuenca Yanuncay",
"PostCode": "010205",
"Location": {
"Latitude": -2.9185,
"Longitude": -79.0275
}
},
{
"Name": "Cuenca Yanuncay",
"PostCode": "010206",
"Location": {
"Latitude": -2.9193,
"Longitude": -79.0456
}
},
{
"Name": "Molleturo",
"PostCode": "010220",
"Location": {
"Latitude": -2.767,
"Longitude": -79.397
}
},
{
"Name": "Octavio Cordero Palacios (Sta. Rosa)-Sidcay",
"PostCode": "010119",
"Location": {
"Latitude": -2.8729,
"Longitude": -79.0459
}
},
{
"Name": "Paccha-Nulti",
"PostCode": "010115",
"Location": {
"Latitude": -2.7932,
"Longitude": -78.9698
}
},
{
"Name": "Quingeo",
"PostCode": "010216",
"Location": {
"Latitude": -3.0309,
"Longitude": -78.9319
}
},
{
"Name": "Ricaurte-Llacao",
"PostCode": "010120",
"Location": {
"Latitude": -2.8729,
"Longitude": -79.0459
}
},
{
"Name": "San Joaquin",
"PostCode": "010116",
"Location": {
"Latitude": -2.8958,
"Longitude": -79.0513
}
},
{
"Name": "Santa Ana",
"PostCode": "010215",
"Location": {
"Latitude": -2.9398,
"Longitude": -78.9212
}
},
{
"Name": "Sayausi",
"PostCode": "010117",
"Location": {
"Latitude": -2.8714,
"Longitude": -79.0723
}
},
{
"Name": "Sinincay",
"PostCode": "010111",
"Location": {
"Latitude": -2.8515,
"Longitude": -79.0142
}
},
{
"Name": "Tarqui",
"PostCode": "010217",
"Location": {
"Latitude": -3.0142,
"Longitude": -79.0344
}
},
{
"Name": "Turi",
"PostCode": "010213",
"Location": {
"Latitude": -2.9259,
"Longitude": -79.0112
}
},
{
"Name": "Valle",
"PostCode": "010211",
"Location": {
"Latitude": -2.9363,
"Longitude": -78.966
}
},
{
"Name": "Valle",
"PostCode": "010212",
"Location": {
"Latitude": -2.9363,
"Longitude": -78.966
}
},
{
"Name": "Valle",
"PostCode": "010218",
"Location": {
"Latitude": -2.9363,
"Longitude": -78.966
}
}
]
}
]
},
{
"Name": "Cantón Girón",
"Code": "0102",
"PostCode": "010303",
"Communities": [
{
"Places": [
{
"Name": "Giron-San Gerardo-Asuncion",
"PostCode": "010303",
"Location": {
"Latitude": -3.1795,
"Longitude": -79.1593
}
}
],
"PostCode": "010303"
}
]
},
{
"Name": "Cantón Gualaceo",
"Code": "0103",
"Communities": [
{
"Places": [
{
"Name": "Daniel Cordova Toral (El Oriente)-Remigio Crespo Toral (Gulag)-Luis Cordero Vega-Mariano Moreno",
"PostCode": "010403",
"Location": {
"Latitude": -2.912,
"Longitude": -78.7079
}
},
{
"Name": "Gualaceo",
"PostCode": "010401",
"Location": {
"Latitude": -2.8926,
"Longitude": -78.7781
}
},
{
"Name": "Gualaceo",
"PostCode": "010402",
"Location": {
"Latitude": -2.8926,
"Longitude": -78.7781
}
},
{
"Name": "Jadan",
"PostCode": "010407",
"Location": {
"Latitude": -2.8667,
"Longitude": -78.85
}
},
{
"Name": "San Juan-Simon Bolivar (Cab. En Gañanzol)",
"PostCode": "010405",
"Location": {
"Latitude": -2.965,
"Longitude": -78.815
}
},
{
"Name": "Zhidmad",
"PostCode": "010406",
"Location": {
"Latitude": -2.9291,
"Longitude": -78.8987
}
}
]
}
]
},
{
"Name": "Cantón Nabón",
"Code": "0104",
"Communities": [
{
"Places": [
{
"Name": "El Progreso (Cab.En Zhiota)-Las Nieves (Chaya)",
"PostCode": "010502",
"Location": {
"Latitude": -3.3439,
"Longitude": -79.2046
}
},
{
"Name": "Nabon-Cochapata",
"PostCode": "010503",
"Location": {
"Latitude": -3.2844,
"Longitude": -79.0425
}
}
]
}
]
},
{
"Name": "Cantón Paute",
"Code": "0105",
"Communities": [
{
"Places": [
{
"Name": "Guarainag-Tomebamba-Dug Dug-Bulan (Jose Victor Izquierdo)",
"PostCode": "010602",
"Location": {
"Latitude": -2.7086,
"Longitude": -78.7068
}
},
{
"Name": "San Cristobal (Carlos Ordoñez Lazo)-Chican (Guillermo Ortega)-El Cabo-Paute",
"PostCode": "010606",
"Location": {
"Latitude": -2.8106,
"Longitude": -78.7867
}
}
]
}
]
},
{
"Name": "Pucara",
"Code": "0106",
"Communities": [
{
"Places": [
{
"Name": "Pucara",
"PostCode": "010305",
"Location": {
"Latitude": -3.2157,
"Longitude": -79.4688
}
},
{
"Name": "Pucara",
"PostCode": "010306",
"Location": {
"Latitude": -3.2157,
"Longitude": -79.4688
}
},
{
"Name": "San Rafael De Sharug",
"PostCode": "010304",
"Location": {
"Latitude": -3.1616,
"Longitude": -79.4834
}
}
]
}
]
},
{
"Name": "Cantón San Fernando",
"Code": "0107",
"PostCode": "010302",
"Communities": [
{
"Places": [
{
"Name": "San Fernando-Chumblin",
"PostCode": "010302",
"Location": {
"Latitude": -3.1275,
"Longitude": -79.2424
}
}
],
"PostCode": "010302"
}
]
},
{
"Name": "Cantón Santa Isabel",
"Code": "0108",
"PostCode": "010301",
"Communities": [
{
"Places": [
{
"Name": "Abdon Calderon (La Union)-Santa Isabel (Chaguarurco)-Zhaglli (Shaglli )",
"PostCode": "010301",
"Location": {
"Latitude": -3.2023,
"Longitude": -79.3635
}
}
],
"PostCode": "010301"
}
]
},
{
"Name": "Cantón Sigsig",
"Code": "0109",
"Communities": [
{
"Places": [
{
"Name": "Jima (Gima)",
"PostCode": "010801",
"Location": {
"Latitude": -3.1886,
"Longitude": -78.9584
}
},
{
"Name": "Ludo-San Jose De Raranga",
"PostCode": "010802",
"Location": {
"Latitude": -3.1121,
"Longitude": -78.9056
}
},
{
"Name": "San Bartolome-Guel-Sigsig-Cuchil (Cutchil)",
"PostCode": "010803",
"Location": {
"Latitude": -3.093,
"Longitude": -78.7918
}
}
]
}
]
},
{
"Name": "Oña",
"Code": "0110",
"PostCode": "010501",
"Communities": [
{
"Places": [
{
"Name": "Susudel-San Felipe De Oña",
"PostCode": "010501",
"Location": {
"Latitude": -3.4892,
"Longitude": -79.1306
}
}
],
"PostCode": "010501"
}
]
},
{
"Name": "Chordeleg",
"Code": "0111",
"PostCode": "010404",
"Communities": [
{
"Places": [
{
"Name": "San Martin De Puzhio-Luis Galarza Orellana (Cab. En Delegsol)-Principal-Chordeleg-La Union",
"PostCode": "010404",
"Location": {
"Latitude": -2.9867,
"Longitude": -78.734
}
}
],
"PostCode": "010404"
}
]
},
{
"Name": "El Pan",
"Code": "0112",
"PostCode": "010605",
"Communities": [
{
"Places": [
{
"Name": "El Pan-San Vicente",
"PostCode": "010605",
"Location": {
"Latitude": -2.8577,
"Longitude": -78.6547
}
}
],
"PostCode": "010605"
}
]
},
{
"Name": "Sevilla De Oro",
"Code": "0113",
"Communities": [
{
"Places": [
{
"Name": "Amaluza-Palamas",
"PostCode": "010603",
"Location": {
"Latitude": -2.6477,
"Longitude": -78.5471
}
},
{
"Name": "Sevilla De Oro",
"PostCode": "010604",
"Location": {
"Latitude": -2.8028,
"Longitude": -78.654
}
}
]
}
]
},
{
"Name": "Guachapala",
"Code": "0114",
"PostCode": "010601",
"Communities": [
{
"Places": [
{
"Name": "Guachapala",
"PostCode": "010601",
"Location": {
"Latitude": -2.7725,
"Longitude": -78.7125
}
}
],
"PostCode": "010601"
}
]
},
{
"Name": "Camilo Ponce Enríquez",
"Code": "0115",
"Communities": [
{
"Places": [
{
"Name": "Camilo Ponce Enriquez",
"PostCode": "010701",
"Location": {
"Latitude": -3.062,
"Longitude": -79.7458
}
},
{
"Name": "Camilo Ponce Enriquez",
"PostCode": "010703",
"Location": {
"Latitude": -3.062,
"Longitude": -79.7458
}
},
{
"Name": "El Carmen De Pijili",
"PostCode": "010702",
"Location": {
"Latitude": -2.9246,
"Longitude": -79.5582
}
}
]
}
]
}
]
},
{
"Name": "Bolívar",
"Code": "03",
"Provinces": [
{
"Name": "Cantón Guaranda",
"Code": "0201",
"Communities": [
{
"Places": [
{
"Name": "Facundo Vela",
"PostCode": "020111",
"Location": {
"Latitude": -1.2042,
"Longitude": -79.0643
}
},
{
"Name": "Guaranda",
"PostCode": "020101",
"Location": {
"Latitude": -1.5926,
"Longitude": -79.001
}
},
{
"Name": "Guaranda",
"PostCode": "020102",
"Location": {
"Latitude": -1.5926,
"Longitude": -79.001
}
},
{
"Name": "Guaranda",
"PostCode": "020103",
"Location": {
"Latitude": -1.5926,
"Longitude": -79.001
}
},
{
"Name": "Guaranda",
"PostCode": "020104",
"Location": {
"Latitude": -1.5926,
"Longitude": -79.001
}
},
{
"Name": "Guaranda",
"PostCode": "020106",
"Location": {
"Latitude": -1.5926,
"Longitude": -79.001
}
},
{
"Name": "Guaranda",
"PostCode": "020107",
"Location": {
"Latitude": -1.5926,
"Longitude": -79.001
}
},
{
"Name": "Salinas",
"PostCode": "020108",
"Location": {
"Latitude": -1.4054,
"Longitude": -79.0186
}
},
{
"Name": "San Luis De Pambil",
"PostCode": "020110",
"Location": {
"Latitude": -1.2103,
"Longitude": -79.1255
}
},
{
"Name": "Santafe (Santa Fe)-Julio E. Moreno (Catanahuan Grande)-San Simon (Yacoto)-Sanlorenzo",
"PostCode": "020105",
"Location": {
"Latitude": -1.5115,
"Longitude": -79.1109
}
},
{
"Name": "Simiatug",
"PostCode": "020109",
"Location": {
"Latitude": -1.2424,
"Longitude": -78.9572
}
}
]
}
]
},
{
"Name": "Cantón Chillanes",
"Code": "0202",
"Communities": [
{
"Places": [
{
"Name": "Chillanes",
"PostCode": "020201",
"Location": {
"Latitude": -1.9437,
"Longitude": -79.0663
}
},
{
"Name": "San Jose Del Tambo (Tambopamba)",
"PostCode": "020202",
"Location": {
"Latitude": -1.9559,
"Longitude": -79.236
}
}
]
}
]
},
{
"Name": "Cantón Chimbo",
"Code": "0203",
"Communities": [
{
"Places": [
{
"Name": "Magdalena (Chapacoto)-Asuncion (Asancoto)",
"PostCode": "020307",
"Location": {
"Latitude": -1.6801,
"Longitude": -79.1946
}
},
{
"Name": "San Sebastian-San Jose De Chimbo",
"PostCode": "020302",
"Location": {
"Latitude": -1.6729,
"Longitude": -79.0326
}
},
{
"Name": "Telimbela",
"PostCode": "020306",
"Location": {
"Latitude": -1.6658,
"Longitude": -79.1709
}
}
]
}
]
},
{
"Name": "Canton Echeandia",
"Code": "0204",
"PostCode": "020401",
"Communities": [
{
"Places": [
{
"Name": "Echeandia",
"PostCode": "020401",
"Location": {
"Latitude": -1.4311,
"Longitude": -79.2805
}
}
],
"PostCode": "020401"
}
]
},
{
"Name": "Cantón San Miguel",
"Code": "0205",
"Communities": [
{
"Places": [
{
"Name": "Balsapamba-Bilovan-Regulo De Mora",
"PostCode": "020305",
"Location": {
"Latitude": -1.815,
"Longitude": -79.0704
}
},
{
"Name": "San Miguel",
"PostCode": "020301",
"Location": {
"Latitude": -1.7088,
"Longitude": -79.0431
}
},
{
"Name": "San Pablo (San Pablo De Atenas)",
"PostCode": "020304",
"Location": {
"Latitude": -1.8183,
"Longitude": -79.0674
}
},
{
"Name": "Santiago-San Vicente",
"PostCode": "020303",
"Location": {
"Latitude": -1.7271,
"Longitude": -78.944
}
}
]
}
]
},
{
"Name": "Canton Caluma",
"Code": "0206",
"PostCode": "020403",
"Communities": [
{
"Places": [
{
"Name": "Caluma",
"PostCode": "020403",
"Location": {
"Latitude": -1.6082,
"Longitude": -79.219
}
}
],
"PostCode": "020403"
}
]
},
{
"Name": "Canton Las Naves",
"Code": "0207",
"PostCode": "020402",
"Communities": [
{
"Places": [
{
"Name": "Las Naves",
"PostCode": "020402",
"Location": {
"Latitude": -1.2857,
"Longitude": -79.3146
}
}
],
"PostCode": "020402"
}
]
}
]
},
{
"Name": "Cañar",
"Code": "04",
"Provinces": [
{
"Name": "Cantón Azogues",
"Code": "0301",
"Communities": [
{
"Places": [
{
"Name": "Azogues",
"PostCode": "030101",
"Location": {
"Latitude": -2.7397,
"Longitude": -78.8486
}
},
{
"Name": "Azogues",
"PostCode": "030102",
"Location": {
"Latitude": -2.7397,
"Longitude": -78.8486
}
},
{
"Name": "Azogues",
"PostCode": "030108",
"Location": {
"Latitude": -2.7397,
"Longitude": -78.8486
}
},
{
"Name": "Cojitambo-Javier Loyola (Chuquipata)",
"PostCode": "030105",
"Location": {
"Latitude": -2.7881,
"Longitude": -78.8876
}
},
{
"Name": "Guapan",
"PostCode": "030107",
"Location": {
"Latitude": -2.7167,
"Longitude": -78.8167
}
},
{
"Name": "Luis Cordero",
"PostCode": "030103",
"Location": {
"Latitude": -2.7408,
"Longitude": -78.8205
}
},
{
"Name": "Pindilig-Rivera-Taday",
"PostCode": "030112",
"Location": {
"Latitude": -2.5686,
"Longitude": -78.6942
}
},
{
"Name": "San Miguel",
"PostCode": "030104",
"Location": {
"Latitude": -2.7983,
"Longitude": -78.8465
}
}
]
}
]
},
{
"Name": "Cantón Biblián",
"Code": "0302",
"Communities": [
{
"Places": [
{
"Name": "Jerusalen",
"PostCode": "030111",
"Location": {
"Latitude": -2.6537,
"Longitude": -78.9708
}
},
{
"Name": "Nazon (Cab. En Pampa De Dominguez)",
"PostCode": "030110",
"Location": {
"Latitude": -2.6856,
"Longitude": -79.013
}
},
{
"Name": "Turupamba-San Francisco De Sageo-Biblian",
"PostCode": "030106",
"Location": {
"Latitude": -2.6726,
"Longitude": -78.9068
}
}
]
}
]
},
{
"Name": "Cantón Cañar",
"Code": "0303",
"Communities": [
{
"Places": [
{
"Name": "Cañar",
"PostCode": "030201",
"Location": {
"Latitude": -2.5606,
"Longitude": -78.9394
}
},
{
"Name": "General Morales (Socarte)-Ventura-Chontamarca-Ducur",
"PostCode": "030208",
"Location": {
"Latitude": -2.3842,
"Longitude": -79.1292
}
},
{
"Name": "Gualleturo-San Antonio-Chorocopte",
"PostCode": "030204",
"Location": {
"Latitude": -2.5945,
"Longitude": -78.9657
}
},
{
"Name": "Gualleturo-San Antonio-Chorocopte",
"PostCode": "030205",
"Location": {
"Latitude": -2.59,
"Longitude": -79.1658
}
},
{
"Name": "Honorato Vasquez (Tambo Viejo)-Ingapirca",
"PostCode": "030203",
"Location": {
"Latitude": -2.539,
"Longitude": -78.833
}
},
{
"Name": "Zhud-Juncal",
"PostCode": "030207",
"Location": {
"Latitude": -2.442,
"Longitude": -78.9355
}
}
]
}
]
},
{
"Name": "La Troncal",
"Code": "0304",
"Communities": [
{
"Places": [
{
"Name": "La Troncal",
"PostCode": "030301",
"Location": {
"Latitude": -2.4236,
"Longitude": -79.3398
}
},
{
"Name": "La Troncal",
"PostCode": "030302",
"Location": {
"Latitude": -2.4236,
"Longitude": -79.3398
}
},
{
"Name": "La Troncal",
"PostCode": "030303",
"Location": {
"Latitude": -2.4236,
"Longitude": -79.3398
}
},
{
"Name": "Manuel J. Calle-Pancho Negro",
"PostCode": "030304",
"Location": {
"Latitude": -2.4544,
"Longitude": -79.4163
}
}
]
}
]
},
{
"Name": "Canton El Tambo",
"Code": "0305",
"PostCode": "030202",
"Communities": [
{
"Places": [
{
"Name": "El Tambo",
"PostCode": "030202",
"Location": {
"Latitude": -2.5107,
"Longitude": -78.9278
}
}
],
"PostCode": "030202"
}
]
},
{
"Name": "Déleg",
"Code": "0306",
"PostCode": "030109",
"Communities": [
{
"Places": [
{
"Name": "Deleg-Solano",
"PostCode": "030109",
"Location": {
"Latitude": -2.7628,
"Longitude": -78.9394
}
}
],
"PostCode": "030109"
}
]
},
{
"Name": "Suscal",
"Code": "0307",
"PostCode": "030206",
"Communities": [
{
"Places": [
{
"Name": "Suscal",
"PostCode": "030206",
"Location": {
"Latitude": -2.4372,
"Longitude": -79.0517
}
}
],
"PostCode": "030206"
}
]
}
]
},
{
"Name": "Carchi",
"Code": "05",
"Provinces": [
{
"Name": "Cantón Tulcán",
"Code": "0401",
"Communities": [
{
"Places": [
{
"Name": "Julio Andrade (Orejuela)-El Carmelo (El Pun)",
"PostCode": "040109",
"Location": {
"Latitude": 0.6492,
"Longitude": -77.7728
}
},
{
"Name": "Maldonado-Tobar Donoso (La Bocana De Camunbi)-El Chical",
"PostCode": "040113",
"Location": {
"Latitude": 0.8017,
"Longitude": -77.8546
}
},
{
"Name": "Pioter-Santa Martha De Cuba",
"PostCode": "040111",
"Location": {
"Latitude": 0.8017,
"Longitude": -77.8546
}
},
{
"Name": "Tufiño",
"PostCode": "040112",
"Location": {
"Latitude": 0.8017,
"Longitude": -77.8546
}
},
{
"Name": "Tulcan",
"PostCode": "040101",
"Location": {
"Latitude": 0.8119,
"Longitude": -77.7173
}
},
{
"Name": "Tulcan",
"PostCode": "040102",
"Location": {
"Latitude": 0.8119,
"Longitude": -77.7173
}
},
{
"Name": "Tulcan",
"PostCode": "040103",
"Location": {
"Latitude": 0.8119,
"Longitude": -77.7173
}
},
{
"Name": "Tulcan",
"PostCode": "040104",
"Location": {
"Latitude": 0.8119,
"Longitude": -77.7173
}
},
{
"Name": "Tulcan",
"PostCode": "040106",
"Location": {
"Latitude": 0.8119,
"Longitude": -77.7173
}
},
{
"Name": "Tulcan",
"PostCode": "040107",
"Location": {
"Latitude": 0.8119,
"Longitude": -77.7173
}
},
{
"Name": "Tulcan",
"PostCode": "040108",
"Location": {
"Latitude": 0.8119,
"Longitude": -77.7173
}
},
{
"Name": "Urbina (Taya)",
"PostCode": "040105",
"Location": {
"Latitude": 0.7544,
"Longitude": -77.7765
}
}
]
}
]
},
{
"Name": "Canton Bolivar",
"Code": "0402",
"Communities": [
{
"Places": [
{
"Name": "Los Andes-Bolivar",
"PostCode": "040201",
"Location": {
"Latitude": 0.4929,
"Longitude": -77.8922
}
},
{
"Name": "San Rafael-Monte Olivo",
"PostCode": "040203",
"Location": {
"Latitude": 0.4189,
"Longitude": -77.8932
}
},
{
"Name": "San Vicente De Pusir-Garcia Moreno",
"PostCode": "040204",
"Location": {
"Latitude": 0.4827,
"Longitude": -77.9574
}
}
]
}
]
},
{
"Name": "Cantón Espejo",
"Code": "0403",
"Communities": [
{
"Places": [
{
"Name": "El Goaltal",
"PostCode": "040304",
"Location": {
"Latitude": 0.8046,
"Longitude": -78.1586
}
},
{
"Name": "San Isidro-La Libertad (Alizo)-El Angel",
"PostCode": "040301",
"Location": {
"Latitude": 0.6685,
"Longitude": -77.9699
}
}
]
}
]
},
{
"Name": "Cantón Mira",
"Code": "0404",
"Communities": [
{
"Places": [
{
"Name": "Concepcion-Jijon Y Caamaño (Cab. En Rio Blanco)",
"PostCode": "040303",
"Location": {
"Latitude": 0.6573,
"Longitude": -78.1114
}
},
{
"Name": "Juan Montalvo (San Ignacio De Quil)-Mira (Chontahuasi)",
"PostCode": "040302",
"Location": {
"Latitude": 0.5582,
"Longitude": -78.0681
}
}
]
}
]
},
{
"Name": "Cantón Montúfar",
"Code": "0405",
"Communities": [
{
"Places": [
{
"Name": "Cristobal Colon-Fernandez Salvador-Piartal-Chitan De Navarrete",
"PostCode": "040207",
"Location": {
"Latitude": 0.6271,
"Longitude": -77.8569
}
},
{
"Name": "La Paz",
"PostCode": "040202",
"Location": {
"Latitude": 0.5095,
"Longitude": -77.8661
}
},
{
"Name": "San Gabriel",
"PostCode": "040205",
"Location": {
"Latitude": 0.5932,
"Longitude": -77.8308
}
},
{
"Name": "San Gabriel",
"PostCode": "040206",
"Location": {
"Latitude": 0.5932,
"Longitude": -77.8308
}
}
]
}
]
},
{
"Name": "San Pedro De Huaca",
"Code": "0406",
"PostCode": "040110",
"Communities": [
{
"Places": [
{
"Name": "Huaca-Mariscal Sucre",
"PostCode": "040110",
"Location": {
"Latitude": 0.98,
"Longitude": -78.3064
}
}
],
"PostCode": "040110"
}
]
}
]
},
{
"Name": "Chimborazo",
"Code": "06",
"Provinces": [
{
"Name": "Cantón Riobamba",
"Code": "0601",
"Communities": [
{
"Places": [
{
"Name": "Cubijies-Quimiag",
"PostCode": "060116",
"Location": {
"Latitude": -1.7509,
"Longitude": -78.539
}
},
{
"Name": "Lican",
"PostCode": "060115",
"Location": {
"Latitude": -1.6507,
"Longitude": -78.7089
}
},
{
"Name": "Licto-Pungala",
"PostCode": "060120",
"Location": {
"Latitude": -1.8255,
"Longitude": -78.6551
}
},
{
"Name": "Punin-Flores",
"PostCode": "060121",
"Location": {
"Latitude": -1.7616,
"Longitude": -78.6728
}
},
{
"Name": "Riobamba",
"PostCode": "060101",
"Location": {
"Latitude": -1.671,
"Longitude": -78.6471
}
},
{
"Name": "Riobamba",
"PostCode": "060102",
"Location": {
"Latitude": -1.671,
"Longitude": -78.6471
}
},
{
"Name": "Riobamba",
"PostCode": "060103",
"Location": {
"Latitude": -1.671,
"Longitude": -78.6471
}
},
{
"Name": "Riobamba",
"PostCode": "060104",
"Location": {
"Latitude": -1.671,
"Longitude": -78.6471
}
},
{
"Name": "Riobamba",
"PostCode": "060105",
"Location": {
"Latitude": -1.671,
"Longitude": -78.6471
}
},
{
"Name": "Riobamba",
"PostCode": "060106",
"Location": {
"Latitude": -1.671,
"Longitude": -78.6471
}
},
{
"Name": "Riobamba",
"PostCode": "060107",
"Location": {
"Latitude": -1.671,
"Longitude": -78.6471
}
},
{
"Name": "Riobamba",
"PostCode": "060108",
"Location": {
"Latitude": -1.671,
"Longitude": -78.6471
}
},
{
"Name": "Riobamba",
"PostCode": "060109",
"Location": {
"Latitude": -1.671,
"Longitude": -78.6471
}
},
{
"Name": "Riobamba",
"PostCode": "060110",
"Location": {
"Latitude": -1.671,
"Longitude": -78.6471
}
},
{
"Name": "Riobamba",
"PostCode": "060111",
"Location": {
"Latitude": -1.671,
"Longitude": -78.6471
}
},
{
"Name": "Riobamba",
"PostCode": "060112",
"Location": {
"Latitude": -1.671,
"Longitude": -78.6471
}
},
{
"Name": "Riobamba",
"PostCode": "060113",
"Location": {
"Latitude": -1.671,
"Longitude": -78.6471
}
},
{
"Name": "Riobamba",
"PostCode": "060114",
"Location": {
"Latitude": -1.671,
"Longitude": -78.6471
}
},
{
"Name": "San Juan-Calpi",
"PostCode": "060118",
"Location": {
"Latitude": -1.5774,
"Longitude": -78.8144
}
},
{
"Name": "San Luis-Cacha (Cab. En Machangara)",
"PostCode": "060117",
"Location": {
"Latitude": -1.7123,
"Longitude": -78.6741
}
}
]
}
]
},
{
"Name": "Cantón Alausí",
"Code": "0602",
"Communities": [
{
"Places": [
{
"Name": "Achupallas",
"PostCode": "060204",
"Location": {
"Latitude": -2.2828,
"Longitude": -78.7693
}
},
{
"Name": "Alausi",
"PostCode": "060202",
"Location": {
"Latitude": -2.2033,
"Longitude": -78.8471
}
},
{
"Name": "Guasuntos-Pumallacta-Sevilla",
"PostCode": "060203",
"Location": {
"Latitude": -2.257,
"Longitude": -78.799
}
},
{
"Name": "Multitud-Sibambe-Huigra-Pistishi (Nariz Del Diablo)",
"PostCode": "060206",
"Location": {
"Latitude": -2.2102,
"Longitude": -78.9638
}
},
{
"Name": "Tixan",
"PostCode": "060207",
"Location": {
"Latitude": -2.1518,
"Longitude": -78.8026
}
}
]
}
]
},
{
"Name": "Cantón Colta",
"Code": "0603",
"Communities": [
{
"Places": [
{
"Name": "Columbe",
"PostCode": "060405",
"Location": {
"Latitude": -1.8871,
"Longitude": -78.7236
}
},
{
"Name": "Juan De Velasco (Pangor)-Cañi",
"PostCode": "060410",
"Location": {
"Latitude": -1.6897,
"Longitude": -78.7922
}
},
{
"Name": "Santiago De Quito (Cab. En San",
"PostCode": "060408",
"Location": {
"Latitude": -2.0791,
"Longitude": -78.7538
}
},
{
"Name": "Villa La Union (Cajabamba)",
"PostCode": "060406",
"Location": {
"Latitude": -1.7621,
"Longitude": -78.7966
}
},
{
"Name": "Villa La Union (Cajabamba)",
"PostCode": "060407",
"Location": {
"Latitude": -1.7739,
"Longitude": -78.7288
}
}
]
}
]
},
{
"Name": "Chambo",
"Code": "0604",
"PostCode": "060119",
"Communities": [
{
"Places": [
{
"Name": "Chambo",
"PostCode": "060119",
"Location": {
"Latitude": -1.7305,
"Longitude": -78.596
}
}
],
"PostCode": "060119"
}
]
},
{
"Name": "Cantón Chunchi",
"Code": "0605",
"Communities": [
{
"Places": [
{
"Name": "Capzol-Compud-Llagos",
"PostCode": "060205",
"Location": {
"Latitude": -2.3519,
"Longitude": -78.9515
}
},
{
"Name": "Gonzol-Chunchi",
"PostCode": "060201",
"Location": {
"Latitude": -2.2626,
"Longitude": -78.8479
}
}
]
}
]
},
{
"Name": "Cantón Guamote",
"Code": "0606",
"Communities": [
{
"Places": [
{
"Name": "Cebadas",
"PostCode": "060402",
"Location": {
"Latitude": -1.9113,
"Longitude": -78.6433
}
},
{
"Name": "Guamote",
"PostCode": "060401",
"Location": {
"Latitude": -1.9331,
"Longitude": -78.7096
}
},
{
"Name": "Guamote",
"PostCode": "060403",
"Location": {
"Latitude": -1.9331,
"Longitude": -78.7096
}
},
{
"Name": "Guamote",
"PostCode": "060404",
"Location": {
"Latitude": -1.9331,
"Longitude": -78.7096
}
},
{
"Name": "Palmira",
"PostCode": "060409",
"Location": {
"Latitude": -2.0814,
"Longitude": -78.7303
}
}
]
}
]
},
{
"Name": "Cantón Guano",
"Code": "0607",
"Communities": [
{
"Places": [
{
"Name": "Guano-La Providencia-Guanando-Sangerardo De Pacaicaguan",
"PostCode": "060501",
"Location": {
"Latitude": -1.5937,
"Longitude": -78.6036
}
},
{
"Name": "Ilapo-San Jose De Chazo-Valparaiso-Santa Fe De Galan",
"PostCode": "060502",
"Location": {
"Latitude": -1.531,
"Longitude": -78.5794
}
},
{
"Name": "San Andres-San Isidro De Patulu",
"PostCode": "060504",
"Location": {
"Latitude": -1.5258,
"Longitude": -78.7256
}
}
]
}
]
},
{
"Name": "Pallatanga",
"Code": "0608",
"PostCode": "060302",
"Communities": [
{
"Places": [
{
"Name": "Pallatanga",
"PostCode": "060302",
"Location": {
"Latitude": -1.9992,
"Longitude": -78.966
}
}
],
"PostCode": "060302"
}
]
},
{
"Name": "Penipe",
"Code": "0609",
"PostCode": "060503",
"Communities": [
{
"Places": [
{
"Name": "Puela-El Altar-San Antonio De Bayushig-La Candelaria-Bilbao (Cab. En Quilluyacu) Panipe-Matus",
"PostCode": "060503",
"Location": {
"Latitude": -1.5664,
"Longitude": -78.45
}
}
],
"PostCode": "060503"
}
]
},
{
"Name": "Cumanda",
"Code": "0610",
"PostCode": "060301",
"Communities": [
{
"Places": [
{
"Name": "Cumanda",
"PostCode": "060301",
"Location": {
"Latitude": -2.2043,
"Longitude": -79.1337
}
}
],
"PostCode": "060301"
}
]
}
]
},
{
"Name": "Cotopaxi",
"Code": "07",
"Provinces": [
{
"Name": "Cantón Latacunga",
"Code": "0501",
"Communities": [
{
"Places": [
{
"Name": "Belisario Quevedo (Guanailin)",
"PostCode": "050114",
"Location": {
"Latitude": -0.7149,
"Longitude": -78.7575
}
},
{
"Name": "Guaitacama (Guaytacama)",
"PostCode": "050111",
"Location": {
"Latitude": -0.8887,
"Longitude": -78.7066
}
},
{
"Name": "Joseguango Bajo-Alaques (Alaquez)",
"PostCode": "050112",
"Location": {
"Latitude": -0.7641,
"Longitude": -78.6461
}
},
{
"Name": "Latacunga",
"PostCode": "050101",
"Location": {
"Latitude": -0.9352,
"Longitude": -78.6155
}
},
{
"Name": "Latacunga",
"PostCode": "050102",
"Location": {
"Latitude": -0.9352,
"Longitude": -78.6155
}
},
{
"Name": "Latacunga",
"PostCode": "050103",
"Location": {
"Latitude": -0.9352,
"Longitude": -78.6155
}
},
{
"Name": "Latacunga",
"PostCode": "050104",
"Location": {
"Latitude": -0.9352,
"Longitude": -78.6155
}
},
{
"Name": "Latacunga",
"PostCode": "050105",
"Location": {
"Latitude": -0.9352,
"Longitude": -78.6155
}
},
{
"Name": "Latacunga",
"PostCode": "050106",
"Location": {
"Latitude": -0.9352,
"Longitude": -78.6155
}
},
{
"Name": "Latacunga",
"PostCode": "050107",
"Location": {
"Latitude": -0.9352,
"Longitude": -78.6155
}
},
{
"Name": "Latacunga",
"PostCode": "050108",
"Location": {
"Latitude": -0.9352,
"Longitude": -78.6155
}
},
{
"Name": "Latacunga",
"PostCode": "050109",
"Location": {
"Latitude": -0.9352,
"Longitude": -78.6155
}
},
{
"Name": "Latacunga",
"PostCode": "050113",
"Location": {
"Latitude": -0.9352,
"Longitude": -78.6155
}
},
{
"Name": "Mulalo",
"PostCode": "050117",
"Location": {
"Latitude": -0.7833,
"Longitude": -78.5833
}
},
{
"Name": "Poalo-11 De Noviembre (Ilinchisi)",
"PostCode": "050110",
"Location": {
"Latitude": -0.8478,
"Longitude": -78.5056
}
},
{
"Name": "San Juan De Pastocalle",
"PostCode": "050118",
"Location": {
"Latitude": -0.7229,
"Longitude": -78.634
}
},
{
"Name": "Tanicuchi",
"PostCode": "050116",
"Location": {
"Latitude": -0.7796,
"Longitude": -78.6376
}
},
{
"Name": "Toacaso",
"PostCode": "050115",
"Location": {
"Latitude": -0.7538,
"Longitude": -78.6851
}
}
]
}
]
},
{
"Name": "La Maná",
"Code": "0502",
"Communities": [
{
"Places": [
{
"Name": "La Mana",
"PostCode": "050201",
"Location": {
"Latitude": -0.9409,
"Longitude": -79.2251
}
},
{
"Name": "La Mana",
"PostCode": "050202",
"Location": {
"Latitude": -0.9409,
"Longitude": -79.2251
}
},
{
"Name": "Pucayacu-Guasaganda (Cab. En Guasaganda Centro)",
"PostCode": "050203",
"Location": {
"Latitude": -0.7887,
"Longitude": -79.103
}
}
]
}
]
},
{
"Name": "Cantón Pangua",
"Code": "0503",
"Communities": [
{
"Places": [
{
"Name": "El Corazon",
"PostCode": "050301",
"Location": {
"Latitude": -1.1365,
"Longitude": -79.0809
}
},
{
"Name": "Moraspungo",
"PostCode": "050304",
"Location": {
"Latitude": -1.1735,
"Longitude": -79.2235
}
},
{
"Name": "Pinllopata",
"PostCode": "050302",
"Location": {
"Latitude": -1.1435,
"Longitude": -79.027
}
},
{
"Name": "Ramon Campaña",
"PostCode": "050303",
"Location": {
"Latitude": -1.1125,
"Longitude": -79.0892
}
}
]
}
]
},
{
"Name": "Cantón Pujilí",
"Code": "0504",
"Communities": [
{
"Places": [
{
"Name": "Angamarca",
"PostCode": "050409",
"Location": {
"Latitude": -1.1186,
"Longitude": -78.932
}
},
{
"Name": "Guangaje",
"PostCode": "050406",
"Location": {
"Latitude": -0.861,
"Longitude": -78.8458
}
},
{
"Name": "La Victoria",
"PostCode": "050402",
"Location": {
"Latitude": -0.9178,
"Longitude": -78.6965
}
},
{
"Name": "Pilalo",
"PostCode": "050410",
"Location": {
"Latitude": -0.9462,
"Longitude": -78.9935
}
},
{
"Name": "Pujili",
"PostCode": "050401",
"Location": {
"Latitude": -0.9576,
"Longitude": -78.6964
}
},
{
"Name": "Pujili",
"PostCode": "050404",
"Location": {
"Latitude": -0.9576,
"Longitude": -78.6964
}
},
{
"Name": "Pujili",
"PostCode": "050405",
"Location": {
"Latitude": -0.9576,
"Longitude": -78.6964
}
},
{
"Name": "Tingo",
"PostCode": "050411",
"Location": {
"Latitude": -0.9179,
"Longitude": -79.0572
}
},
{
"Name": "Zumbahua",
"PostCode": "050408",
"Location": {
"Latitude": -0.7828,
"Longitude": -78.7219
}
}
]
}
]
},
{
"Name": "Cantón Salcedo",
"Code": "0505",
"Communities": [
{
"Places": [
{
"Name": "Cusubamba",
"PostCode": "050604",
"Location": {
"Latitude": -1.0667,
"Longitude": -78.7
}
},
{
"Name": "Mulalillo-Pansaleo-Antonio Jose Holguin (Santa Lucia)",
"PostCode": "050603",
"Location": {
"Latitude": -1.0206,
"Longitude": -78.4651
}
},
{
"Name": "Mulliquindil (Santa Ana)",
"PostCode": "050601",
"Location": {
"Latitude": -1.0425,
"Longitude": -78.5958
}
},
{
"Name": "San Miguel",
"PostCode": "050602",
"Location": {
"Latitude": -1.0455,
"Longitude": -78.5906
}
}
]
}
]
},
{
"Name": "Saquisilí",
"Code": "0506",
"Communities": [
{
"Places": [
{
"Name": "Chantilin-Saquisili",
"PostCode": "050403",
"Location": {
"Latitude": -0.8528,
"Longitude": -78.6442
}
},
{
"Name": "Cochapamba-Canchagua",
"PostCode": "050407",
"Location": {
"Latitude": -0.8409,
"Longitude": -78.7752
}
}
]
}
]
},
{
"Name": "Cantón Sigchos",
"Code": "0507",
"Communities": [
{
"Places": [
{
"Name": "Chugchillan",
"PostCode": "050503",
"Location": {
"Latitude": -0.7827,
"Longitude": -78.8551
}
},
{
"Name": "Isinlivi",
"PostCode": "050502",
"Location": {
"Latitude": -0.7555,
"Longitude": -78.8681
}
},
{
"Name": "Palo Quemado-Las Pampas",
"PostCode": "050504",
"Location": {
"Latitude": -0.8302,
"Longitude": -78.9847
}
},
{
"Name": "Sigchos",
"PostCode": "050501",
"Location": {
"Latitude": -0.7022,
"Longitude": -78.8865
}
}
]
}
]
}
]
},
{
"Name": "El Oro",
"Code": "08",
"Provinces": [
{
"Name": "Cantón Machala",
"Code": "0701",
"Communities": [
{
"Places": [
{
"Name": "El Retiro",
"PostCode": "070224",
"Location": {
"Latitude": -3.3791,
"Longitude": -79.9568
}
},
{
"Name": "Machala",
"PostCode": "070201",
"Location": {
"Latitude": -3.2586,
"Longitude": -79.9605
}
},
{
"Name": "Machala",
"PostCode": "070202",
"Location": {
"Latitude": -3.2586,
"Longitude": -79.9605
}
},
{
"Name": "Machala",
"PostCode": "070203",
"Location": {
"Latitude": -3.2586,
"Longitude": -79.9605
}
},
{
"Name": "Machala",
"PostCode": "070204",
"Location": {
"Latitude": -3.2586,
"Longitude": -79.9605
}
},
{
"Name": "Machala",
"PostCode": "070205",
"Location": {
"Latitude": -3.2586,
"Longitude": -79.9605
}
},
{
"Name": "Machala",
"PostCode": "070206",
"Location": {
"Latitude": -3.2586,
"Longitude": -79.9605
}
},
{
"Name": "Machala",
"PostCode": "070207",
"Location": {
"Latitude": -3.2586,
"Longitude": -79.9605
}
},
{
"Name": "Machala",
"PostCode": "070208",
"Location": {
"Latitude": -3.2586,
"Longitude": -79.9605
}
},
{
"Name": "Machala",
"PostCode": "070209",
"Location": {
"Latitude": -3.2586,
"Longitude": -79.9605
}
},
{
"Name": "Machala",
"PostCode": "070210",
"Location": {
"Latitude": -3.2586,
"Longitude": -79.9605
}
},
{
"Name": "Machala",
"PostCode": "070211",
"Location": {
"Latitude": -3.2586,
"Longitude": -79.9605
}
},
{
"Name": "Machala",
"PostCode": "070212",
"Location": {
"Latitude": -3.2586,
"Longitude": -79.9605
}
},
{
"Name": "Machala",
"PostCode": "070213",
"Location": {
"Latitude": -3.2586,
"Longitude": -79.9605
}
},
{
"Name": "Machala",
"PostCode": "070214",
"Location": {
"Latitude": -3.2586,
"Longitude": -79.9605
}
},
{
"Name": "Machala",
"PostCode": "070215",
"Location": {
"Latitude": -3.2586,
"Longitude": -79.9605
}
},
{
"Name": "Machala",
"PostCode": "070216",
"Location": {
"Latitude": -3.2586,
"Longitude": -79.9605
}
},
{
"Name": "Machala",
"PostCode": "070217",
"Location": {
"Latitude": -3.2586,
"Longitude": -79.9605
}
},
{
"Name": "Machala",
"PostCode": "070218",
"Location": {
"Latitude": -3.2586,
"Longitude": -79.9605
}
},
{
"Name": "Machala",
"PostCode": "070219",
"Location": {
"Latitude": -3.2586,
"Longitude": -79.9605
}
},
{
"Name": "Machala",
"PostCode": "070220",
"Location": {
"Latitude": -3.2586,
"Longitude": -79.9605
}
},
{
"Name": "Machala",
"PostCode": "070221",
"Location": {
"Latitude": -3.2586,
"Longitude": -79.9605
}
},
{
"Name": "Machala",
"PostCode": "070222",
"Location": {
"Latitude": -3.2586,
"Longitude": -79.9605
}
},
{
"Name": "Machala",
"PostCode": "070223",
"Location": {
"Latitude": -3.2586,
"Longitude": -79.9605
}
}
]
}
]
},
{
"Name": "Cantón Arenillas",
"Code": "0702",
"Communities": [
{
"Places": [
{
"Name": "Arenillas",
"PostCode": "070506",
"Location": {
"Latitude": -3.554,
"Longitude": -80.0668
}
},
{
"Name": "Arenillas",
"PostCode": "070507",
"Location": {
"Latitude": -3.554,
"Longitude": -80.0668
}
},
{
"Name": "Carcabon-Chacras",
"PostCode": "070505",
"Location": {
"Latitude": -3.57,
"Longitude": -80.1637
}
},
{
"Name": "Palmales",
"PostCode": "070508",
"Location": {
"Latitude": -3.6667,
"Longitude": -80.1014
}
}
]
}
]
},
{
"Name": "Atahualpa",
"Code": "0703",
"Communities": [
{
"Places": [
{
"Name": "Cordoncillo-Paccha-Ayapamba-San Jose-Milagro",
"PostCode": "070305",
"Location": {
"Latitude": -3.5719,
"Longitude": -79.6929
}
},
{
"Name": "San Juan De Cerro Azul",
"PostCode": "070308",
"Location": {
"Latitude": -3.7657,
"Longitude": -79.4949
}
}
]
}
]
},
{
"Name": "Balsas",
"Code": "0704",
"PostCode": "070404",
"Communities": [
{
"Places": [
{
"Name": "Balsas-Bellamaria",
"PostCode": "070404",
"Location": {
"Latitude": -3.7688,
"Longitude": -79.8375
}
}
],
"PostCode": "070404"
}
]
},
{
"Name": "Chilla",
"Code": "0705",
"PostCode": "070113",
"Communities": [
{
"Places": [
{
"Name": "Chilla",
"PostCode": "070113",
"Location": {
"Latitude": -3.442,
"Longitude": -79.6277
}
}
],
"PostCode": "070113"
}
]
},
{
"Name": "Cantón Guabo",
"Code": "0706",
"Communities": [
{
"Places": [
{
"Name": "El Guabo",
"PostCode": "070111",
"Location": {
"Latitude": -3.2359,
"Longitude": -79.75
}
},
{
"Name": "El Guabo",
"PostCode": "070115",
"Location": {
"Latitude": -3.2064,
"Longitude": -79.8718
}
},
{
"Name": "La Iberia",
"PostCode": "070114",
"Location": {
"Latitude": -3.2437,
"Longitude": -79.8761
}
},
{
"Name": "Rio Bonito",
"PostCode": "070117",
"Location": {
"Latitude": -3.0774,
"Longitude": -79.773
}
},
{
"Name": "Tendales (Cab. En Puerto Tendales)-Barbones (Sucre)",
"PostCode": "070116",
"Location": {
"Latitude": -3.1428,
"Longitude": -79.8196
}
}
]
}
]
},
{
"Name": "Cantón Huaquillas",
"Code": "0707",
"Communities": [
{
"Places": [
{
"Name": "Huaquillas",
"PostCode": "070501",
"Location": {
"Latitude": -3.4752,
"Longitude": -80.2308
}
},
{
"Name": "Huaquillas",
"PostCode": "070502",
"Location": {
"Latitude": -3.4752,
"Longitude": -80.2308
}
},
{
"Name": "Huaquillas",
"PostCode": "070503",
"Location": {
"Latitude": -3.4752,
"Longitude": -80.2308
}
},
{
"Name": "Huaquillas",
"PostCode": "070504",
"Location": {
"Latitude": -3.4752,
"Longitude": -80.2308
}
}
]
}
]
},
{
"Name": "Marcabelí",
"Code": "0708",
"PostCode": "070406",
"Communities": [
{
"Places": [
{
"Name": "El Ingenio-Marcabeli",
"PostCode": "070406",
"Location": {
"Latitude": -3.735,
"Longitude": -79.9304
}
}
],
"PostCode": "070406"
}
]
},
{
"Name": "Cantón Pasaje",
"Code": "0709",
"Communities": [
{
"Places": [
{
"Name": "Cañaquemada-La Peaña-Buenavista",
"PostCode": "070106",
"Location": {
"Latitude": -3.2825,
"Longitude": -79.8102
}
},
{
"Name": "Cañaquemada-La Peaña-Buenavista",
"PostCode": "070110",
"Location": {
"Latitude": -3.3534,
"Longitude": -79.8386
}
},
{
"Name": "Casacay",
"PostCode": "070108",
"Location": {
"Latitude": -3.3222,
"Longitude": -79.7233
}
},
{
"Name": "Pasaje",
"PostCode": "070101",
"Location": {
"Latitude": -3.3256,
"Longitude": -79.807
}
},
{
"Name": "Pasaje",
"PostCode": "070102",
"Location": {
"Latitude": -3.3256,
"Longitude": -79.807
}
},
{
"Name": "Pasaje",
"PostCode": "070103",
"Location": {
"Latitude": -3.3256,
"Longitude": -79.807
}
},
{
"Name": "Pasaje",
"PostCode": "070104",
"Location": {
"Latitude": -3.3256,
"Longitude": -79.807
}
},
{
"Name": "Pasaje",
"PostCode": "070105",
"Location": {
"Latitude": -3.3256,
"Longitude": -79.807
}
},
{
"Name": "Pasaje",
"PostCode": "070109",
"Location": {
"Latitude": -3.3256,
"Longitude": -79.807
}
},
{
"Name": "Progreso",
"PostCode": "070107",
"Location": {
"Latitude": -3.2916,
"Longitude": -79.7604
}
},
{
"Name": "Uzhcurrumi",
"PostCode": "070112",
"Location": {
"Latitude": -3.352,
"Longitude": -79.5977
}
}
]
}
]
},
{
"Name": "Cantón Piñas",
"Code": "0710",
"Communities": [
{
"Places": [
{
"Name": "Capiro (Cab. En La Capilla De Capiro)",
"PostCode": "070402",
"Location": {
"Latitude": -3.7907,
"Longitude": -79.7572
}
},
{
"Name": "La Bocana-Saracay-Piedras",
"PostCode": "070405",
"Location": {
"Latitude": -3.6702,
"Longitude": -79.8687
}
},
{
"Name": "Moromoro (Cab. En El Vado)",
"PostCode": "070403",
"Location": {
"Latitude": -3.6688,
"Longitude": -79.7642
}
},
{
"Name": "San Roque (Ambrosio Maldonado)-Piñas",
"PostCode": "070401",
"Location": {
"Latitude": -3.7263,
"Longitude": -79.6723
}
}
]
}
]
},
{
"Name": "Cantón Portovelo",
"Code": "0711",
"Communities": [
{
"Places": [
{
"Name": "Morales-Curtincapa",
"PostCode": "070307",
"Location": {
"Latitude": -3.7088,
"Longitude": -79.4726
}
},
{
"Name": "Portovelo",
"PostCode": "070304",
"Location": {
"Latitude": -3.7214,
"Longitude": -79.6219
}
},
{
"Name": "Salati",
"PostCode": "070309",
"Location": {
"Latitude": -3.7534,
"Longitude": -79.5344
}
}
]
}
]
},
{
"Name": "Cantón Santa Rosa",
"Code": "0712",
"Communities": [
{
"Places": [
{
"Name": "Bellamaria",
"PostCode": "070607",
"Location": {
"Latitude": -3.5176,
"Longitude": -79.8569
}
},
{
"Name": "Jambeli",
"PostCode": "070605",
"Location": {
"Latitude": -3.2411,
"Longitude": -80.0483
}
},
{
"Name": "Santa Rosa",
"PostCode": "070601",
"Location": {
"Latitude": -3.4488,
"Longitude": -79.9595
}
},
{
"Name": "Santa Rosa",
"PostCode": "070602",
"Location": {
"Latitude": -3.4488,
"Longitude": -79.9595
}
},
{
"Name": "Santa Rosa",
"PostCode": "070603",
"Location": {
"Latitude": -3.4488,
"Longitude": -79.9595
}
},
{
"Name": "Torata-La Avanzada-Bellavista-San Antonio",
"PostCode": "070604",
"Location": {
"Latitude": -3.5564,
"Longitude": -79.9269
}
},
{
"Name": "Victoria",
"PostCode": "070606",
"Location": {
"Latitude": -3.3694,
"Longitude": -79.8576
}
}
]
}
]
},
{
"Name": "Cantón Zaruma",
"Code": "0713",
"Communities": [
{
"Places": [
{
"Name": "Abañin-Guanazan",
"PostCode": "070306",
"Location": {
"Latitude": -3.4195,
"Longitude": -79.5061
}
},
{
"Name": "Arcapamba-Malvas-Muluncay Grande-Huertas",
"PostCode": "070302",
"Location": {
"Latitude": -3.611,
"Longitude": -79.6118
}
},
{
"Name": "Guizhaguiña-Salvias-Sinsao",
"PostCode": "070303",
"Location": {
"Latitude": -3.6305,
"Longitude": -79.5038
}
},
{
"Name": "Zaruma",
"PostCode": "070301",
"Location": {
"Latitude": -3.6913,
"Longitude": -79.6117
}
}
]
}
]
},
{
"Name": "Las Lajas",
"Code": "0714",
"Communities": [
{
"Places": [
{
"Name": "El Paraiso-San Isidro",
"PostCode": "070509",
"Location": {
"Latitude": -3.7838,
"Longitude": -80.0142
}
},
{
"Name": "La Libertad-La Victoria",
"PostCode": "070510",
"Location": {
"Latitude": -3.8148,
"Longitude": -80.0985
}
}
]
}
]
}
]
},
{
"Name": "Esmeraldas",
"Code": "09",
"Provinces": [
{
"Name": "Cantón Esmeraldas",
"Code": "0801",
"Communities": [
{
"Places": [
{
"Name": "Chinca-Majua-San Mateo",
"PostCode": "080121",
"Location": {
"Latitude": 0.772,
"Longitude": -79.566
}
},
{
"Name": "Esmeraldas",
"PostCode": "080101",
"Location": {
"Latitude": 0.9592,
"Longitude": -79.654
}
},
{
"Name": "Esmeraldas",
"PostCode": "080102",
"Location": {
"Latitude": 0.9592,
"Longitude": -79.654
}
},
{
"Name": "Esmeraldas",
"PostCode": "080103",
"Location": {
"Latitude": 0.9592,
"Longitude": -79.654
}
},
{
"Name": "Esmeraldas",
"PostCode": "080104",
"Location": {
"Latitude": 0.9592,
"Longitude": -79.654
}
},
{
"Name": "Esmeraldas",
"PostCode": "080105",
"Location": {
"Latitude": 0.9592,
"Longitude": -79.654
}
},
{
"Name": "Esmeraldas",
"PostCode": "080106",
"Location": {
"Latitude": 0.9592,
"Longitude": -79.654
}
},
{
"Name": "Esmeraldas",
"PostCode": "080107",
"Location": {
"Latitude": 0.9592,
"Longitude": -79.654
}
},
{
"Name": "Esmeraldas",
"PostCode": "080108",
"Location": {
"Latitude": 0.9592,
"Longitude": -79.654
}
},
{
"Name": "Esmeraldas",
"PostCode": "080109",
"Location": {
"Latitude": 0.9592,
"Longitude": -79.654
}
},
{
"Name": "Esmeraldas",
"PostCode": "080110",
"Location": {
"Latitude": 0.9592,
"Longitude": -79.654
}
},
{
"Name": "Esmeraldas",
"PostCode": "080111",
"Location": {
"Latitude": 0.9592,
"Longitude": -79.654
}
},
{
"Name": "Esmeraldas",
"PostCode": "080112",
"Location": {
"Latitude": 0.9592,
"Longitude": -79.654
}
},
{
"Name": "Esmeraldas",
"PostCode": "080113",
"Location": {
"Latitude": 0.9592,
"Longitude": -79.654
}
},
{
"Name": "Esmeraldas",
"PostCode": "080116",
"Location": {
"Latitude": 0.9592,
"Longitude": -79.654
}
},
{
"Name": "Esmeraldas",
"PostCode": "080117",
"Location": {
"Latitude": 0.9592,
"Longitude": -79.654
}
},
{
"Name": "Esmeraldas",
"PostCode": "080118",
"Location": {
"Latitude": 0.9592,
"Longitude": -79.654
}
},
{
"Name": "Esmeraldas",
"PostCode": "080119",
"Location": {
"Latitude": 0.9592,
"Longitude": -79.654
}
},
{
"Name": "Tabiazo-Crnel. Carlos C. Torres (Cab. En Huele)",
"PostCode": "080123",
"Location": {
"Latitude": 0.7011,
"Longitude": -79.7242
}
},
{
"Name": "Tachina-Camarones (Cab. En San Vicente)",
"PostCode": "080114",
"Location": {
"Latitude": 0.9517,
"Longitude": -79.5383
}
},
{
"Name": "Vuelta Larga",
"PostCode": "080115",
"Location": {
"Latitude": 0.896,
"Longitude": -79.7002
}
},
{
"Name": "Vuelta Larga",
"PostCode": "080120",
"Location": {
"Latitude": 0.896,
"Longitude": -79.7002
}
},
{
"Name": "Vuelta Larga",
"PostCode": "080122",
"Location": {
"Latitude": 0.896,
"Longitude": -79.7002
}
}
]
}
]
},
{
"Name": "Cantón Eloy Alfaro",
"Code": "0802",
"Communities": [
{
"Places": [
{
"Name": "La Tola-Pampanal De Bolivar-Valdez (Limones)",
"PostCode": "080201",
"Location": {
"Latitude": 1.1701,
"Longitude": -79.035
}
},
{
"Name": "Luis V. Torres (Cab. En Playa De Oro)-Selva Alegre-Colon Eloy Del Maria-Maldonado-Timbire",
"PostCode": "080202",
"Location": {
"Latitude": 0.6674,
"Longitude": -78.7483
}
},
{
"Name": "San Jose De Cayapas-Telembi-Borbon-Atahualpa (Cab. En Camarones)",
"PostCode": "080203",
"Location": {
"Latitude": 0.6929,
"Longitude": -78.9235
}
},
{
"Name": "Santo Domingo De Onzole-San Francisco De Onzole-Anchayacu",
"PostCode": "080204",
"Location": {
"Latitude": 0.7654,
"Longitude": -79.141
}
}
]
}
]
},
{
"Name": "Cantón Muisne",
"Code": "0803",
"Communities": [
{
"Places": [
{
"Name": "Bolivar-Daule",
"PostCode": "080308",
"Location": {
"Latitude": 0.4167,
"Longitude": -79.9827
}
},
{
"Name": "Galera-San Francisco-Quingue (Olmedo Perdomo Franco)",
"PostCode": "080302",
"Location": {
"Latitude": 0.7146,
"Longitude": -80.0182
}
},
{
"Name": "Salima-San Jose De Chamanga",
"PostCode": "080307",
"Location": {
"Latitude": 0.3444,
"Longitude": -79.9001
}
},
{
"Name": "San Gregorio-Muisne",
"PostCode": "080301",
"Location": {
"Latitude": 0.5368,
"Longitude": -79.8946
}
}
]
}
]
},
{
"Name": "Cantón Quinindé",
"Code": "0804",
"Communities": [
{
"Places": [
{
"Name": "Cube",
"PostCode": "080407",
"Location": {
"Latitude": 0.5736,
"Longitude": -79.6442
}
},
{
"Name": "La Union",
"PostCode": "080409",
"Location": {
"Latitude": 0.1381,
"Longitude": -79.4015
}
},
{
"Name": "Malimpia",
"PostCode": "080404",
"Location": {
"Latitude": 0.4148,
"Longitude": -79.4294
}
},
{
"Name": "Rosa Zarate (Quininde)",
"PostCode": "080401",
"Location": {
"Latitude": 0.3252,
"Longitude": -79.4952
}
},
{
"Name": "Rosa Zarate (Quininde)",
"PostCode": "080402",
"Location": {
"Latitude": 0.3208,
"Longitude": -79.4489
}
},
{
"Name": "Rosa Zarate (Quininde)",
"PostCode": "080403",
"Location": {
"Latitude": 0.2916,
"Longitude": -79.3758
}
},
{
"Name": "Rosa Zarate (Quininde)",
"PostCode": "080405",
"Location": {
"Latitude": 0.3715,
"Longitude": -79.5797
}
},
{
"Name": "Rosa Zarate (Quininde)",
"PostCode": "080406",
"Location": {
"Latitude": 0.4398,
"Longitude": -79.1972
}
},
{
"Name": "Rosa Zarate (Quininde)",
"PostCode": "080410",
"Location": {
"Latitude": 0.0425,
"Longitude": -79.4388
}
},
{
"Name": "Rosa Zarate (Quininde)",
"PostCode": "080411",
"Location": {
"Latitude": 0.0373,
"Longitude": -79.5503
}
},
{
"Name": "Viche-Chura (Chancama) (Cab. En El Yerbero)",
"PostCode": "080408",
"Location": {
"Latitude": 0.4882,
"Longitude": -79.6726
}
}
]
}
]
},
{
"Name": "Cantón San Lorenzo",
"Code": "0805",
"Communities": [
{
"Places": [
{
"Name": "Carondelet-Calderon-Tululbi  (Cab En Ricaurte)-Santa Rita",
"PostCode": "080502",
"Location": {
"Latitude": 1.1223,
"Longitude": -78.6601
}
},
{
"Name": "Concepcion-San Javier De Cachavi-Urbina-Alto Tambo (Cab En Guadual)-5 De Junio (Cab En Uimbi)",
"PostCode": "080503",
"Location": {
"Latitude": 0.8383,
"Longitude": -78.6457
}
},
{
"Name": "Mataje (Cab En Santander)-San Lorenzo-Ancon (Pichangal) (Cab. En Palma Real)",
"PostCode": "080501",
"Location": {
"Latitude": 1.2728,
"Longitude": -78.7229
}
},
{
"Name": "Tambillo",
"PostCode": "080504",
"Location": {
"Latitude": 1.2554,
"Longitude": -78.8857
}
}
]
}
]
},
{
"Name": "Atacames",
"Code": "0806",
"Communities": [
{
"Places": [
{
"Name": "Atacames",
"PostCode": "080305",
"Location": {
"Latitude": 0.8678,
"Longitude": -79.8547
}
},
{
"Name": "La Union",
"PostCode": "080304",
"Location": {
"Latitude": 0.8104,
"Longitude": -79.8658
}
},
{
"Name": "Sua (Cab En La Bocana)-Tonchigue",
"PostCode": "080303",
"Location": {
"Latitude": 0.7694,
"Longitude": -79.9253
}
},
{
"Name": "Tonsupa",
"PostCode": "080306",
"Location": {
"Latitude": 0.8801,
"Longitude": -79.7727
}
}
]
}
]
},
{
"Name": "Rio Verde",
"Code": "0807",
"Communities": [
{
"Places": [
{
"Name": "Chontaduro-Chumunde-Rioverde",
"PostCode": "080601",
"Location": {
"Latitude": 0.7778,
"Longitude": -79.3945
}
},
{
"Name": "Montalvo (Cab En Horqueta)-Lagarto-Rocafuerte",
"PostCode": "080602",
"Location": {
"Latitude": 0.9362,
"Longitude": -79.281
}
}
]
}
]
}
]
},
{
"Name": "Guayas",
"Code": "10",
"Provinces": [
{
"Name": "Cantón Guayaquil",
"Code": "0901",
"Communities": [
{
"Places": [
{
"Name": "Guayaquil- Chile",
"PostCode": "090303",
"Location": {
"Latitude": -2.1974,
"Longitude": -79.8955
}
},
{
"Name": "Guayaquil- El Cisne",
"PostCode": "090404",
"Location": {
"Latitude": -2.2191,
"Longitude": -79.9248
}
},
{
"Name": "Guayaquil- Esteros",
"PostCode": "090204",
"Location": {
"Latitude": -2.2476,
"Longitude": -79.9031
}
},
{
"Name": "Guayaquil- Esteros",
"PostCode": "090205",
"Location": {
"Latitude": -2.265,
"Longitude": -79.9051
}
},
{
"Name": "Guayaquil- Kennedy",
"PostCode": "090505",
"Location": {
"Latitude": -2.1776,
"Longitude": -79.8997
}
},
{
"Name": "Guayaquil- Trinitaria 1",
"PostCode": "090201",
"Location": {
"Latitude": -2.2342,
"Longitude": -79.9231
}
},
{
"Name": "Guayaquil- Trinitaria 2",
"PostCode": "090206",
"Location": {
"Latitude": -2.2556,
"Longitude": -79.9219
}
},
{
"Name": "Guayaquil- Victoria",
"PostCode": "090305",
"Location": {
"Latitude": -2.2153,
"Longitude": -79.9119
}
},
{
"Name": "Guayaquil-7 Lagos",
"PostCode": "090103",
"Location": {
"Latitude": -2.2569,
"Longitude": -79.8759
}
},
{
"Name": "Guayaquil-9 De Octubre",
"PostCode": "090307",
"Location": {
"Latitude": -2.1951,
"Longitude": -79.8852
}
},
{
"Name": "Guayaquil-Alborada",
"PostCode": "090501",
"Location": {
"Latitude": -2.137,
"Longitude": -79.9087
}
},
{
"Name": "Guayaquil-Alborada",
"PostCode": "090502",
"Location": {
"Latitude": -2.137,
"Longitude": -79.9087
}
},
{
"Name": "Guayaquil-Alborada",
"PostCode": "090507",
"Location": {
"Latitude": -2.137,
"Longitude": -79.9087
}
},
{
"Name": "Guayaquil-Antepara",
"PostCode": "090304",
"Location": {
"Latitude": -2.2169,
"Longitude": -79.9015
}
},
{
"Name": "Guayaquil-Atarazana",
"PostCode": "090504",
"Location": {
"Latitude": -2.1288,
"Longitude": -79.8859
}
},
{
"Name": "Guayaquil-Bastion Popular 1",
"PostCode": "090701",
"Location": {
"Latitude": -2.083,
"Longitude": -79.9275
}
},
{
"Name": "Guayaquil-Bastion Popular N2",
"PostCode": "090704",
"Location": {
"Latitude": -2.0933,
"Longitude": -79.9173
}
},
{
"Name": "Guayaquil-Batallon Del Suburbio",
"PostCode": "090406",
"Location": {
"Latitude": -2.2126,
"Longitude": -79.9401
}
},
{
"Name": "Guayaquil-Bellavista",
"PostCode": "090608",
"Location": {
"Latitude": -2.375,
"Longitude": -80.1333
}
},
{
"Name": "Guayaquil-Centenario",
"PostCode": "090104",
"Location": {
"Latitude": -2.6869,
"Longitude": -80.0251
}
},
{
"Name": "Guayaquil-Chala",
"PostCode": "090403",
"Location": {
"Latitude": -2.2043,
"Longitude": -79.9197
}
},
{
"Name": "Guayaquil-Chongon",
"PostCode": "090903",
"Location": {
"Latitude": -2.236,
"Longitude": -80.0784
}
},
{
"Name": "Guayaquil-Cristo Del Consuelo",
"PostCode": "090306",
"Location": {
"Latitude": -2.1846,
"Longitude": -79.8819
}
},
{
"Name": "Guayaquil-Flor De Bastion",
"PostCode": "090808",
"Location": {
"Latitude": -2.091,
"Longitude": -79.9611
}
},
{
"Name": "Guayaquil-Flor De Bastion",
"PostCode": "090811",
"Location": {
"Latitude": -2.1225,
"Longitude": -80.012
}
},
{
"Name": "Guayaquil-Floresta",
"PostCode": "090102",
"Location": {
"Latitude": -2.258,
"Longitude": -79.8901
}
},
{
"Name": "Guayaquil-Florida",
"PostCode": "090605",
"Location": {
"Latitude": -2.128,
"Longitude": -79.9403
}
},
{
"Name": "Guayaquil-Fortin",
"PostCode": "090803",
"Location": {
"Latitude": -2.1125,
"Longitude": -79.9571
}
},
{
"Name": "Guayaquil-Garay",
"PostCode": "090302",
"Location": {
"Latitude": -2.1965,
"Longitude": -79.9038
}
},
{
"Name": "Guayaquil-Guasmo",
"PostCode": "090105",
"Location": {
"Latitude": -2.2429,
"Longitude": -79.893
}
},
{
"Name": "Guayaquil-Guasmo",
"PostCode": "090106",
"Location": {
"Latitude": -2.2429,
"Longitude": -79.893
}
},
{
"Name": "Guayaquil-Guayacanes",
"PostCode": "090508",
"Location": {
"Latitude": -2.1407,
"Longitude": -79.9077
}
},
{
"Name": "Guayaquil-Juan Montalvo",
"PostCode": "090606",
"Location": {
"Latitude": -2.1185,
"Longitude": -79.921
}
},
{
"Name": "Guayaquil-Los Ceibos",
"PostCode": "090902",
"Location": {
"Latitude": -2.1582,
"Longitude": -79.9696
}
},
{
"Name": "Guayaquil-Malvinas 1",
"PostCode": "090203",
"Location": {
"Latitude": -2.2344,
"Longitude": -79.9051
}
},
{
"Name": "Guayaquil-Malvinas 2",
"PostCode": "090202",
"Location": {
"Latitude": -2.2265,
"Longitude": -79.9054
}
},
{
"Name": "Guayaquil-Mapasingue",
"PostCode": "090604",
"Location": {
"Latitude": -2.15,
"Longitude": -79.9
}
},
{
"Name": "Guayaquil-Martha Roldos",
"PostCode": "090601",
"Location": {
"Latitude": -2.1516,
"Longitude": -79.9231
}
},
{
"Name": "Guayaquil-Martha Roldos",
"PostCode": "090602",
"Location": {
"Latitude": -2.1383,
"Longitude": -79.9221
}
},
{
"Name": "Guayaquil-Martha Roldos",
"PostCode": "090603",
"Location": {
"Latitude": -2.1917,
"Longitude": -79.9387
}
},
{
"Name": "Guayaquil-Monte Bello",
"PostCode": "090705",
"Location": {
"Latitude": -2.0989,
"Longitude": -79.9287
}
},
{
"Name": "Guayaquil-Monte Sinai",
"PostCode": "090806",
"Location": {
"Latitude": -2.1143,
"Longitude": -79.9841
}
},
{
"Name": "Guayaquil-Monte Sinai",
"PostCode": "090807",
"Location": {
"Latitude": -2.0963,
"Longitude": -79.997
}
},
{
"Name": "Guayaquil-Monte Sinai",
"PostCode": "090809",
"Location": {
"Latitude": -2.118,
"Longitude": -79.9956
}
},
{
"Name": "Guayaquil-Monte Sinai",
"PostCode": "090810",
"Location": {
"Latitude": -2.0725,
"Longitude": -79.9727
}
},
{
"Name": "Guayaquil-Monte Sinai",
"PostCode": "090812",
"Location": {
"Latitude": -2.3101,
"Longitude": -79.9728
}
},
{
"Name": "Guayaquil-Mucho Lote",
"PostCode": "090703",
"Location": {
"Latitude": -2.0723,
"Longitude": -79.9052
}
},
{
"Name": "Guayaquil-Nueva Prosperina",
"PostCode": "090804",
"Location": {
"Latitude": -2.1264,
"Longitude": -79.9624
}
},
{
"Name": "Guayaquil-Nueva Prosperina",
"PostCode": "090805",
"Location": {
"Latitude": -2.1288,
"Longitude": -79.9929
}
},
{
"Name": "Guayaquil-Nuevo Guayaquil",
"PostCode": "090801",
"Location": {
"Latitude": -2.1079,
"Longitude": -79.9746
}
},
{
"Name": "Guayaquil-Orquideas",
"PostCode": "090706",
"Location": {
"Latitude": -2.1026,
"Longitude": -79.9416
}
},
{
"Name": "Guayaquil-Paraiso De La Flor",
"PostCode": "090802",
"Location": {
"Latitude": -2.1003,
"Longitude": -79.9628
}
},
{
"Name": "Guayaquil-Pascuales",
"PostCode": "090702",
"Location": {
"Latitude": -2.0713,
"Longitude": -79.933
}
},
{
"Name": "Guayaquil-Portete",
"PostCode": "090401",
"Location": {
"Latitude": -2.1985,
"Longitude": -79.9307
}
},
{
"Name": "Guayaquil-Puente Lucia",
"PostCode": "090708",
"Location": {
"Latitude": -1.995,
"Longitude": -79.9856
}
},
{
"Name": "Guayaquil-Puerto Hondo",
"PostCode": "090901",
"Location": {
"Latitude": -2.1951,
"Longitude": -80.0237
}
},
{
"Name": "Guayaquil-Salinas",
"PostCode": "090402",
"Location": {
"Latitude": -2.1959,
"Longitude": -79.9164
}
},
{
"Name": "Guayaquil-Samanes",
"PostCode": "090607",
"Location": {
"Latitude": -2.1216,
"Longitude": -79.9098
}
},
{
"Name": "Guayaquil-San Francisco",
"PostCode": "090707",
"Location": {
"Latitude": -2.0435,
"Longitude": -79.9588
}
},
{
"Name": "Guayaquil-Sauces",
"PostCode": "090503",
"Location": {
"Latitude": -2.1312,
"Longitude": -79.8931
}
},
{
"Name": "Guayaquil-Sauces",
"PostCode": "090509",
"Location": {
"Latitude": -2.1085,
"Longitude": -79.8947
}
},
{
"Name": "Guayaquil-Suburbio",
"PostCode": "090405",
"Location": {
"Latitude": -2.2254,
"Longitude": -79.938
}
},
{
"Name": "Guayaquil-Union De Bananeros",
"PostCode": "090101",
"Location": {
"Latitude": -2.267,
"Longitude": -79.8807
}
},
{
"Name": "Guayaquil-Urdesa",
"PostCode": "090506",
"Location": {
"Latitude": -2.1713,
"Longitude": -79.9057
}
},
{
"Name": "Guayaquil-Venezuela",
"PostCode": "090301",
"Location": {
"Latitude": -2.2082,
"Longitude": -79.9039
}
},
{
"Name": "Morro",
"PostCode": "091002",
"Location": {
"Latitude": -2.6341,
"Longitude": -80.326
}
},
{
"Name": "Posorja",
"PostCode": "091001",
"Location": {
"Latitude": -2.7101,
"Longitude": -80.2456
}
},
{
"Name": "Progreso-Guayaquil - Area De Expansión",
"PostCode": "091003",
"Location": {
"Latitude": -2.3194,
"Longitude": -80.1651
}
},
{
"Name": "Puna",
"PostCode": "090107",
"Location": {
"Latitude": -2.2453,
"Longitude": -79.8877
}
},
{
"Name": "Tenguel",
"PostCode": "090510",
"Location": {
"Latitude": -2.1793,
"Longitude": -79.8956
}
}
]
}
]
},
{
"Name": "Alfredo Baquerizo Moreno (Juján)",
"Code": "0902",
"Communities": [
{
"Places": [
{
"Name": "Alfredo Baquerizo Moreno (Jujan)",
"PostCode": "091103",
"Location": {
"Latitude": -1.95,
"Longitude": -79.528
}
},
{
"Name": "Alfredo Baquerizo Moreno (Jujan)",
"PostCode": "091104",
"Location": {
"Latitude": -1.9383,
"Longitude": -79.6073
}
}
]
}
]
},
{
"Name": "Balao",
"Code": "0903",
"Communities": [
{
"Places": [
{
"Name": "Balao",
"PostCode": "091207",
"Location": {
"Latitude": -2.8982,
"Longitude": -79.6677
}
},
{
"Name": "Balao",
"PostCode": "091208",
"Location": {
"Latitude": -2.8882,
"Longitude": -79.775
}
}
]
}
]
},
{
"Name": "Cantón Balzar",
"Code": "0904",
"Communities": [
{
"Places": [
{
"Name": "Balzar",
"PostCode": "091301",
"Location": {
"Latitude": -1.365,
"Longitude": -79.9049
}
},
{
"Name": "Balzar",
"PostCode": "091302",
"Location": {
"Latitude": -1.365,
"Longitude": -79.9049
}
},
{
"Name": "Balzar",
"PostCode": "091303",
"Location": {
"Latitude": -1.365,
"Longitude": -79.9049
}
},
{
"Name": "Balzar",
"PostCode": "091304",
"Location": {
"Latitude": -1.365,
"Longitude": -79.9049
}
},
{
"Name": "Balzar",
"PostCode": "091307",
"Location": {
"Latitude": -1.365,
"Longitude": -79.9049
}
}
]
}
]
},
{
"Name": "Canton Colimes",
"Code": "0905",
"Communities": [
{
"Places": [
{
"Name": "Colimes",
"PostCode": "091305",
"Location": {
"Latitude": -1.5455,
"Longitude": -80.0116
}
},
{
"Name": "Colimes",
"PostCode": "091306",
"Location": {
"Latitude": -1.5455,
"Longitude": -80.0116
}
},
{
"Name": "San Jacinto",
"PostCode": "091310",
"Location": {
"Latitude": -1.4637,
"Longitude": -79.9453
}
}
]
}
]
},
{
"Name": "Cantón Daule",
"Code": "0906",
"Communities": [
{
"Places": [
{
"Name": "Daule",
"PostCode": "091901",
"Location": {
"Latitude": -1.8611,
"Longitude": -79.9777
}
},
{
"Name": "Daule",
"PostCode": "091902",
"Location": {
"Latitude": -1.8611,
"Longitude": -79.9777
}
},
{
"Name": "Daule",
"PostCode": "091904",
"Location": {
"Latitude": -1.8611,
"Longitude": -79.9777
}
},
{
"Name": "Daule",
"PostCode": "091911",
"Location": {
"Latitude": -1.8611,
"Longitude": -79.9777
}
},
{
"Name": "Juan Bautista Aguirre (Los Tintos)",
"PostCode": "091909",
"Location": {
"Latitude": -1.7456,
"Longitude": -79.9528
}
},
{
"Name": "Limonal-Laurel",
"PostCode": "091903",
"Location": {
"Latitude": -1.8093,
"Longitude": -79.9705
}
},
{
"Name": "Los Lojas (Enrique Baquerizo Moreno)",
"PostCode": "091910",
"Location": {
"Latitude": -2.0437,
"Longitude": -79.8968
}
}
]
}
]
},
{
"Name": "Durán",
"Code": "0907",
"Communities": [
{
"Places": [
{
"Name": "Eloy Alfaro (Duran)",
"PostCode": "092401",
"Location": {
"Latitude": -2.1645,
"Longitude": -79.8265
}
},
{
"Name": "Eloy Alfaro (Duran)",
"PostCode": "092402",
"Location": {
"Latitude": -2.1505,
"Longitude": -79.8292
}
},
{
"Name": "Eloy Alfaro (Duran)",
"PostCode": "092403",
"Location": {
"Latitude": -2.1268,
"Longitude": -79.8233
}
},
{
"Name": "Eloy Alfaro (Duran)",
"PostCode": "092404",
"Location": {
"Latitude": -2.1586,
"Longitude": -79.7984
}
},
{
"Name": "Eloy Alfaro (Duran)",
"PostCode": "092405",
"Location": {
"Latitude": -2.1736,
"Longitude": -79.8116
}
},
{
"Name": "Eloy Alfaro (Duran)",
"PostCode": "092406",
"Location": {
"Latitude": -2.2096,
"Longitude": -79.7645
}
},
{
"Name": "Eloy Alfaro (Duran)",
"PostCode": "092407",
"Location": {
"Latitude": -2.2682,
"Longitude": -79.7716
}
},
{
"Name": "Eloy Alfaro (Duran)",
"PostCode": "092408",
"Location": {
"Latitude": -2.2175,
"Longitude": -79.8524
}
},
{
"Name": "Eloy Alfaro (Duran)",
"PostCode": "092409",
"Location": {
"Latitude": -2.1743,
"Longitude": -79.8435
}
},
{
"Name": "Eloy Alfaro (Duran)",
"PostCode": "092410",
"Location": {
"Latitude": -2.1607,
"Longitude": -79.8399
}
}
]
}
]
},
{
"Name": "Cantón El Empalme",
"Code": "0908",
"Communities": [
{
"Places": [
{
"Name": "El Rosario",
"PostCode": "091504",
"Location": {
"Latitude": -1.0524,
"Longitude": -79.7782
}
},
{
"Name": "Guayas (Pueblo Nuevo)",
"PostCode": "091505",
"Location": {
"Latitude": -0.9438,
"Longitude": -79.674
}
},
{
"Name": "Guayas (Pueblo Nuevo)",
"PostCode": "091506",
"Location": {
"Latitude": -0.9456,
"Longitude": -79.5651
}
},
{
"Name": "Velasco Ibarra (Cab. El Empalme)",
"PostCode": "091501",
"Location": {
"Latitude": -1.0667,
"Longitude": -79.6885
}
},
{
"Name": "Velasco Ibarra (Cab. El Empalme)",
"PostCode": "091502",
"Location": {
"Latitude": -1.0082,
"Longitude": -79.6652
}
},
{
"Name": "Velasco Ibarra (Cab. El Empalme)",
"PostCode": "091503",
"Location": {
"Latitude": -1.0787,
"Longitude": -79.6376
}
}
]
}
]
},
{
"Name": "El Triunfo",
"Code": "0909",
"Communities": [
{
"Places": [
{
"Name": "El Triunfo",
"PostCode": "091601",
"Location": {
"Latitude": -2.3205,
"Longitude": -79.5156
}
},
{
"Name": "El Triunfo",
"PostCode": "091602",
"Location": {
"Latitude": -2.3038,
"Longitude": -79.455
}
},
{
"Name": "El Triunfo",
"PostCode": "091603",
"Location": {
"Latitude": -2.2788,
"Longitude": -79.2661
}
}
]
}
]
},
{
"Name": "Cantón Milagro",
"Code": "0910",
"Communities": [
{
"Places": [
{
"Name": "Chobo",
"PostCode": "091713",
"Location": {
"Latitude": -2.1396,
"Longitude": -79.6334
}
},
{
"Name": "Mariscal Sucre (Huaques)",
"PostCode": "091715",
"Location": {
"Latitude": -2.0823,
"Longitude": -79.5079
}
},
{
"Name": "Milagro",
"PostCode": "091701",
"Location": {
"Latitude": -2.134,
"Longitude": -79.5941
}
},
{
"Name": "Milagro",
"PostCode": "091702",
"Location": {
"Latitude": -2.134,
"Longitude": -79.5941
}
},
{
"Name": "Milagro",
"PostCode": "091703",
"Location": {
"Latitude": -2.134,
"Longitude": -79.5941
}
},
{
"Name": "Milagro",
"PostCode": "091704",
"Location": {
"Latitude": -2.134,
"Longitude": -79.5941
}
},
{
"Name": "Milagro",
"PostCode": "091705",
"Location": {
"Latitude": -2.134,
"Longitude": -79.5941
}
},
{
"Name": "Milagro",
"PostCode": "091706",
"Location": {
"Latitude": -2.134,
"Longitude": -79.5941
}
},
{
"Name": "Milagro",
"PostCode": "091707",
"Location": {
"Latitude": -2.134,
"Longitude": -79.5941
}
},
{
"Name": "Milagro",
"PostCode": "091708",
"Location": {
"Latitude": -2.134,
"Longitude": -79.5941
}
},
{
"Name": "Milagro",
"PostCode": "091709",
"Location": {
"Latitude": -2.134,
"Longitude": -79.5941
}
},
{
"Name": "Milagro",
"PostCode": "091710",
"Location": {
"Latitude": -2.134,
"Longitude": -79.5941
}
},
{
"Name": "Milagro",
"PostCode": "091711",
"Location": {
"Latitude": -2.134,
"Longitude": -79.5941
}
},
{
"Name": "Milagro",
"PostCode": "091712",
"Location": {
"Latitude": -2.134,
"Longitude": -79.5941
}
},
{
"Name": "Milagro",
"PostCode": "091714",
"Location": {
"Latitude": -2.134,
"Longitude": -79.5941
}
},
{
"Name": "Roberto Astudillo (Cab En Cruce De Venci",
"PostCode": "091716",
"Location": {
"Latitude": -2.1694,
"Longitude": -79.5101
}
}
]
}
]
},
{
"Name": "Cantón Naranjal",
"Code": "0911",
"Communities": [
{
"Places": [
{
"Name": "Naranjal",
"PostCode": "091201",
"Location": {
"Latitude": -2.6736,
"Longitude": -79.6183
}
},
{
"Name": "Naranjal",
"PostCode": "091203",
"Location": {
"Latitude": -2.6736,
"Longitude": -79.6183
}
},
{
"Name": "Naranjal",
"PostCode": "091204",
"Location": {
"Latitude": -2.6736,
"Longitude": -79.6183
}
},
{
"Name": "San Carlos",
"PostCode": "091206",
"Location": {
"Latitude": -2.5214,
"Longitude": -79.4743
}
},
{
"Name": "Santa Rosa De Flandes-Jesus Maria",
"PostCode": "091202",
"Location": {
"Latitude": -2.6078,
"Longitude": -79.6142
}
},
{
"Name": "Taura",
"PostCode": "091205",
"Location": {
"Latitude": -2.352,
"Longitude": -79.6702
}
}
]
}
]
},
{
"Name": "Cantón Naranjito",
"Code": "0912",
"Communities": [
{
"Places": [
{
"Name": "Naranjito",
"PostCode": "091801",
"Location": {
"Latitude": -2.1667,
"Longitude": -79.4654
}
},
{
"Name": "Naranjito",
"PostCode": "091802",
"Location": {
"Latitude": -2.1667,
"Longitude": -79.4654
}
},
{
"Name": "Naranjito",
"PostCode": "091803",
"Location": {
"Latitude": -2.1667,
"Longitude": -79.4654
}
}
]
}
]
},
{
"Name": "Palestina",
"Code": "0913",
"Communities": [
{
"Places": [
{
"Name": "Palestina",
"PostCode": "091308",
"Location": {
"Latitude": -1.6286,
"Longitude": -79.9797
}
},
{
"Name": "Palestina",
"PostCode": "091309",
"Location": {
"Latitude": -1.6286,
"Longitude": -79.9797
}
}
]
}
]
},
{
"Name": "Pedro Carbo",
"Code": "0914",
"Communities": [
{
"Places": [
{
"Name": "Pedro Carbo",
"PostCode": "091401",
"Location": {
"Latitude": -1.8156,
"Longitude": -80.2331
}
},
{
"Name": "Pedro Carbo",
"PostCode": "091402",
"Location": {
"Latitude": -1.8156,
"Longitude": -80.2331
}
},
{
"Name": "Sabanilla",
"PostCode": "091406",
"Location": {
"Latitude": -1.8333,
"Longitude": -80.2
}
},
{
"Name": "Valle De La Virgen",
"PostCode": "091403",
"Location": {
"Latitude": -1.7833,
"Longitude": -80.1833
}
}
]
}
]
},
{
"Name": "Cantón Samborondón",
"Code": "0916",
"Communities": [
{
"Places": [
{
"Name": "Samborondon",
"PostCode": "092301",
"Location": {
"Latitude": -1.9628,
"Longitude": -79.724
}
},
{
"Name": "Samborondon",
"PostCode": "092302",
"Location": {
"Latitude": -1.9628,
"Longitude": -79.724
}
},
{
"Name": "Samborondon",
"PostCode": "092304",
"Location": {
"Latitude": -1.9628,
"Longitude": -79.724
}
},
{
"Name": "Tarifa",
"PostCode": "092303",
"Location": {
"Latitude": -2.0167,
"Longitude": -79.7667
}
}
]
}
]
},
{
"Name": "Santa Lucía",
"Code": "0918",
"Communities": [
{
"Places": [
{
"Name": "Santa Lucia",
"PostCode": "091906",
"Location": {
"Latitude": -1.716,
"Longitude": -79.9869
}
},
{
"Name": "Santa Lucia",
"PostCode": "091907",
"Location": {
"Latitude": -1.716,
"Longitude": -79.9869
}
},
{
"Name": "Santa Lucia",
"PostCode": "091908",
"Location": {
"Latitude": -1.716,
"Longitude": -79.9869
}
}
]
}
]
},
{
"Name": "Cantón Salitre",
"Code": "0919",
"Communities": [
{
"Places": [
{
"Name": "El Salitre (Las Ramas)",
"PostCode": "092001",
"Location": {
"Latitude": -1.8099,
"Longitude": -79.8454
}
},
{
"Name": "El Salitre (Las Ramas)",
"PostCode": "092004",
"Location": {
"Latitude": -1.7287,
"Longitude": -79.8594
}
},
{
"Name": "Gral. Vernaza (Dos Esteros)",
"PostCode": "092003",
"Location": {
"Latitude": -1.852,
"Longitude": -79.8037
}
},
{
"Name": "Junquillal",
"PostCode": "092002",
"Location": {
"Latitude": -1.7148,
"Longitude": -79.8648
}
},
{
"Name": "La Victoria (Ñauza)",
"PostCode": "092005",
"Location": {
"Latitude": -1.8869,
"Longitude": -79.7259
}
}
]
}
]
},
{
"Name": "Cantón Yaguachi",
"Code": "0920",
"Communities": [
{
"Places": [
{
"Name": "Gral. Pedro J. Montero (Boliche)",
"PostCode": "092104",
"Location": {
"Latitude": -2.2629,
"Longitude": -79.5915
}
},
{
"Name": "San Jacinto De Yaguachi",
"PostCode": "092101",
"Location": {
"Latitude": -2.0994,
"Longitude": -79.7487
}
},
{
"Name": "San Jacinto De Yaguachi",
"PostCode": "092102",
"Location": {
"Latitude": -2.0364,
"Longitude": -79.6641
}
},
{
"Name": "Virgen De Fatima",
"PostCode": "092105",
"Location": {
"Latitude": -2.2651,
"Longitude": -79.6711
}
},
{
"Name": "Yaguachi Viejo (Cone)",
"PostCode": "092103",
"Location": {
"Latitude": -2.1885,
"Longitude": -79.6709
}
}
]
}
]
},
{
"Name": "Playas",
"Code": "0921",
"Communities": [
{
"Places": [
{
"Name": "General Villamil (Playas)",
"PostCode": "092201",
"Location": {
"Latitude": -2.5479,
"Longitude": -80.4159
}
},
{
"Name": "General Villamil (Playas)",
"PostCode": "092202",
"Location": {
"Latitude": -2.6382,
"Longitude": -80.3673
}
},
{
"Name": "General Villamil (Playas)",
"PostCode": "092203",
"Location": {
"Latitude": -2.5427,
"Longitude": -80.4843
}
}
]
}
]
},
{
"Name": "Simón Bolívar",
"Code": "0922",
"Communities": [
{
"Places": [
{
"Name": "Crnel. Lorenzo De Garaicoa (Pedregal)",
"PostCode": "091102",
"Location": {
"Latitude": -2.065,
"Longitude": -79.3718
}
},
{
"Name": "Simon Bolivar",
"PostCode": "091101",
"Location": {
"Latitude": -2.0019,
"Longitude": -79.4857
}
}
]
}
]
},
{
"Name": "Coronel Marcelino Maridueña",
"Code": "0923",
"PostCode": "091804",
"Communities": [
{
"Places": [
{
"Name": "Crnel. Marcelino Maridueña (San Carlos)",
"PostCode": "091804",
"Location": {
"Latitude": -2.239,
"Longitude": -79.3813
}
}
],
"PostCode": "091804"
}
]
},
{
"Name": "Lomas De Sargentillo",
"Code": "0924",
"PostCode": "091405",
"Communities": [
{
"Places": [
{
"Name": "Lomas De Sargentillo",
"PostCode": "091405",
"Location": {
"Latitude": -1.8833,
"Longitude": -80.0833
}
}
],
"PostCode": "091405"
}
]
},
{
"Name": "Nobol",
"Code": "0925",
"PostCode": "091905",
"Communities": [
{
"Places": [
{
"Name": "Narcisa De Jesus",
"PostCode": "091905",
"Location": {
"Latitude": -1.9167,
"Longitude": -80.0167
}
}
],
"PostCode": "091905"
}
]
},
{
"Name": "General Antonio Elizalde",
"Code": "0927",
"PostCode": "091604",
"Communities": [
{
"Places": [
{
"Name": "Gral. Antonio Elizalde (Bucay)",
"PostCode": "091604",
"Location": {
"Latitude": -2.3509,
"Longitude": -79.3754
}
}
],
"PostCode": "091604"
}
]
},
{
"Name": "Isidro Ayora",
"Code": "0928",
"PostCode": "091404",
"Communities": [
{
"Places": [
{
"Name": "Isidro Ayora",
"PostCode": "091404",
"Location": {
"Latitude": -1.8808,
"Longitude": -80.1449
}
}
],
"PostCode": "091404"
}
]
}
]
},
{
"Name": "Imbabura",
"Code": "11",
"Provinces": [
{
"Name": "Ibarra",
"Code": "1001",
"Communities": [
{
"Places": [
{
"Name": "Ambuqui",
"PostCode": "100117",
"Location": {
"Latitude": 0.4303,
"Longitude": -78.0099
}
},
{
"Name": "Angochagua-La Esperanza",
"PostCode": "100119",
"Location": {
"Latitude": 0.4937,
"Longitude": -78.1387
}
},
{
"Name": "Carolina",
"PostCode": "100121",
"Location": {
"Latitude": 0.7833,
"Longitude": -78.3
}
},
{
"Name": "Lita",
"PostCode": "100122",
"Location": {
"Latitude": 0.7762,
"Longitude": -78.3785
}
},
{
"Name": "Salinas",
"PostCode": "100116",
"Location": {
"Latitude": 0.55,
"Longitude": -78.1333
}
},
{
"Name": "San Antonio",
"PostCode": "100113",
"Location": {
"Latitude": 0.3337,
"Longitude": -78.1695
}
},
{
"Name": "San Miguel De Ibarra",
"PostCode": "100101",
"Location": {
"Latitude": 0.3365,
"Longitude": -78.1401
}
},
{
"Name": "San Miguel De Ibarra",
"PostCode": "100102",
"Location": {
"Latitude": 0.3488,
"Longitude": -78.1415
}
},
{
"Name": "San Miguel De Ibarra",
"PostCode": "100103",
"Location": {
"Latitude": 0.3723,
"Longitude": -78.1377
}
},
{
"Name": "San Miguel De Ibarra",
"PostCode": "100104",
"Location": {
"Latitude": 0.3632,
"Longitude": -78.1238
}
},
{
"Name": "San Miguel De Ibarra",
"PostCode": "100105",
"Location": {
"Latitude": 0.3537,
"Longitude": -78.1172
}
},
{
"Name": "San Miguel De Ibarra",
"PostCode": "100106",
"Location": {
"Latitude": 0.3455,
"Longitude": -78.1219
}
},
{
"Name": "San Miguel De Ibarra",
"PostCode": "100107",
"Location": {
"Latitude": 0.3396,
"Longitude": -78.1218
}
},
{
"Name": "San Miguel De Ibarra",
"PostCode": "100108",
"Location": {
"Latitude": 0.298,
"Longitude": -78.1448
}
},
{
"Name": "San Miguel De Ibarra",
"PostCode": "100109",
"Location": {
"Latitude": 0.3216,
"Longitude": -78.1712
}
},
{
"Name": "San Miguel De Ibarra",
"PostCode": "100110",
"Location": {
"Latitude": 0.4218,
"Longitude": -78.0967
}
},
{
"Name": "San Miguel De Ibarra",
"PostCode": "100111",
"Location": {
"Latitude": 0.3614,
"Longitude": -78.0582
}
},
{
"Name": "San Miguel De Ibarra",
"PostCode": "100112",
"Location": {
"Latitude": 0.3394,
"Longitude": -78.0996
}
}
]
}
]
},
{
"Name": "Cantón Antonio Ante",
"Code": "1002",
"Communities": [
{
"Places": [
{
"Name": "Atuntaqui",
"PostCode": "100210",
"Location": {
"Latitude": 0.3325,
"Longitude": -78.2137
}
},
{
"Name": "Atuntaqui",
"PostCode": "100211",
"Location": {
"Latitude": 0.3325,
"Longitude": -78.2137
}
},
{
"Name": "Imbaya (San Luis De Cobuendo)-San Jose De Chaltura-San Fco. De Natabuela",
"PostCode": "100212",
"Location": {
"Latitude": 0.1884,
"Longitude": -78.3574
}
},
{
"Name": "San Roque",
"PostCode": "100209",
"Location": {
"Latitude": 0.3041,
"Longitude": -78.2338
}
}
]
}
]
},
{
"Name": "Cantón Cotacachi",
"Code": "1003",
"Communities": [
{
"Places": [
{
"Name": "6 De Julio De Cuellaje (Cab En Cuellaje)-Plaza Gutierrez (Calvario)-Apuela",
"PostCode": "100304",
"Location": {
"Latitude": 0.316,
"Longitude": -78.302
}
},
{
"Name": "Cotacachi",
"PostCode": "100301",
"Location": {
"Latitude": 0.3011,
"Longitude": -78.2643
}
},
{
"Name": "Garcia Moreno (Llurimagua)",
"PostCode": "100306",
"Location": {
"Latitude": 0.2973,
"Longitude": -78.7879
}
},
{
"Name": "Imantag",
"PostCode": "100302",
"Location": {
"Latitude": 0.3599,
"Longitude": -78.2451
}
},
{
"Name": "Quiroga",
"PostCode": "100303",
"Location": {
"Latitude": 0.2847,
"Longitude": -78.2839
}
},
{
"Name": "Vacas Galindo (Cab. En San Miguel Alto)-Peñaherrera",
"PostCode": "100305",
"Location": {
"Latitude": 0.3475,
"Longitude": -78.5759
}
}
]
}
]
},
{
"Name": "Cantón Otavalo",
"Code": "1004",
"Communities": [
{
"Places": [
{
"Name": "Eugenio Espejo (Calpaqui)",
"PostCode": "100206",
"Location": {
"Latitude": 0.1864,
"Longitude": -78.2539
}
},
{
"Name": "Gonzalez Suarez-San Rafael",
"PostCode": "100205",
"Location": {
"Latitude": 0.1836,
"Longitude": -78.2186
}
},
{
"Name": "Otavalo",
"PostCode": "100201",
"Location": {
"Latitude": 0.2346,
"Longitude": -78.2625
}
},
{
"Name": "Otavalo",
"PostCode": "100202",
"Location": {
"Latitude": 0.2346,
"Longitude": -78.2625
}
},
{
"Name": "Otavalo",
"PostCode": "100203",
"Location": {
"Latitude": 0.2346,
"Longitude": -78.2625
}
},
{
"Name": "Otavalo",
"PostCode": "100213",
"Location": {
"Latitude": 0.2346,
"Longitude": -78.2625
}
},
{
"Name": "Otavalo",
"PostCode": "100215",
"Location": {
"Latitude": 0.2346,
"Longitude": -78.2625
}
},
{
"Name": "Pataqui",
"PostCode": "100216",
"Location": {
"Latitude": 0.1769,
"Longitude": -78.3647
}
},
{
"Name": "San Jose De Quichinche",
"PostCode": "100214",
"Location": {
"Latitude": 0.2391,
"Longitude": -78.289
}
},
{
"Name": "San Juan De Iluman-Doctor Miguel Egas Cabezas (Peguche)",
"PostCode": "100207",
"Location": {
"Latitude": 0.1898,
"Longitude": -78.2888
}
},
{
"Name": "San Juan De Iluman-Doctor Miguel Egas Cabezas (Peguche)",
"PostCode": "100208",
"Location": {
"Latitude": 0.2484,
"Longitude": -78.3506
}
},
{
"Name": "San Pablo",
"PostCode": "100204",
"Location": {
"Latitude": 0.2526,
"Longitude": -78.2295
}
},
{
"Name": "Selva Alegre (Cab. En San Miguel De P.)",
"PostCode": "100217",
"Location": {
"Latitude": 0.3689,
"Longitude": -78.1766
}
}
]
}
]
},
{
"Name": "Cantón Pimampiro",
"Code": "1005",
"PostCode": "100118",
"Communities": [
{
"Places": [
{
"Name": "Chuga-Pimampiro-Mariano Acosta-San  Fco. De Sigsipamba",
"PostCode": "100118",
"Location": {
"Latitude": 0.5069,
"Longitude": -78.2464
}
}
],
"PostCode": "100118"
}
]
},
{
"Name": "San Miguel de Urcuqui Canton",
"Code": "1006",
"Communities": [
{
"Places": [
{
"Name": "La Merced De Buenos Aires",
"PostCode": "100120",
"Location": {
"Latitude": 0.6211,
"Longitude": -78.3147
}
},
{
"Name": "Pablo Arenas-Cahuasqui",
"PostCode": "100115",
"Location": {
"Latitude": 0.4299,
"Longitude": -78.2189
}
},
{
"Name": "Urcuqui-San Blas-Tumbabiro",
"PostCode": "100114",
"Location": {
"Latitude": 0.2311,
"Longitude": -78.092
}
}
]
}
]
}
]
},
{
"Name": "Loja",
"Code": "12",
"Provinces": [
{
"Name": "Cantón Loja",
"Code": "1101",
"Communities": [
{
"Places": [
{
"Name": "Chantaco-Taquil (Miguel Riofrio)-Chiquiribamaba",
"PostCode": "110117",
"Location": {
"Latitude": -4.1885,
"Longitude": -79.2364
}
},
{
"Name": "Gualel-El Cisne",
"PostCode": "110121",
"Location": {
"Latitude": -4.3886,
"Longitude": -79.2731
}
},
{
"Name": "Jimbilla",
"PostCode": "110119",
"Location": {
"Latitude": -3.8603,
"Longitude": -79.1721
}
},
{
"Name": "Loja",
"PostCode": "110101",
"Location": {
"Latitude": -3.9931,
"Longitude": -79.2042
}
},
{
"Name": "Loja",
"PostCode": "110102",
"Location": {
"Latitude": -3.9931,
"Longitude": -79.2042
}
},
{
"Name": "Loja",
"PostCode": "110103",
"Location": {
"Latitude": -3.9931,
"Longitude": -79.2042
}
},
{
"Name": "Loja",
"PostCode": "110104",
"Location": {
"Latitude": -3.9931,
"Longitude": -79.2042
}
},
{
"Name": "Loja",
"PostCode": "110105",
"Location": {
"Latitude": -3.9931,
"Longitude": -79.2042
}
},
{
"Name": "Loja",
"PostCode": "110106",
"Location": {
"Latitude": -3.9931,
"Longitude": -79.2042
}
},
{
"Name": "Loja",
"PostCode": "110107",
"Location": {
"Latitude": -3.9931,
"Longitude": -79.2042
}
},
{
"Name": "Loja",
"PostCode": "110108",
"Location": {
"Latitude": -3.9931,
"Longitude": -79.2042
}
},
{
"Name": "Loja",
"PostCode": "110109",
"Location": {
"Latitude": -3.9931,
"Longitude": -79.2042
}
},
{
"Name": "Loja",
"PostCode": "110110",
"Location": {
"Latitude": -3.9931,
"Longitude": -79.2042
}
},
{
"Name": "Loja",
"PostCode": "110111",
"Location": {
"Latitude": -3.9931,
"Longitude": -79.2042
}
},
{
"Name": "Loja",
"PostCode": "110112",
"Location": {
"Latitude": -3.9931,
"Longitude": -79.2042
}
},
{
"Name": "Loja",
"PostCode": "110113",
"Location": {
"Latitude": -3.9931,
"Longitude": -79.2042
}
},
{
"Name": "Loja",
"PostCode": "110114",
"Location": {
"Latitude": -3.9931,
"Longitude": -79.2042
}
},
{
"Name": "Loja",
"PostCode": "110115",
"Location": {
"Latitude": -3.9931,
"Longitude": -79.2042
}
},
{
"Name": "Malacatos (Valladolid)",
"PostCode": "110116",
"Location": {
"Latitude": -3.8663,
"Longitude": -79.1758
}
},
{
"Name": "Quinara-Yangana (Arsenio Castillo)",
"PostCode": "110122",
"Location": {
"Latitude": -4.2667,
"Longitude": -79.25
}
},
{
"Name": "San Lucas-Santiago",
"PostCode": "110118",
"Location": {
"Latitude": -3.7969,
"Longitude": -79.4138
}
},
{
"Name": "Vilcabamba (Victoria)-San Pedro De Vilcabamba",
"PostCode": "110120",
"Location": {
"Latitude": -4.2667,
"Longitude": -79.25
}
}
]
}
]
},
{
"Name": "Cantón Calvas",
"Code": "1102",
"Communities": [
{
"Places": [
{
"Name": "Cariamanga",
"PostCode": "110601",
"Location": {
"Latitude": -4.328,
"Longitude": -79.5555
}
},
{
"Name": "Cariamanga",
"PostCode": "110605",
"Location": {
"Latitude": -4.328,
"Longitude": -79.5555
}
},
{
"Name": "El Lucero",
"PostCode": "110602",
"Location": {
"Latitude": -4.4012,
"Longitude": -79.4685
}
},
{
"Name": "Sanguillin",
"PostCode": "110603",
"Location": {
"Latitude": -4.1936,
"Longitude": -79.5286
}
},
{
"Name": "Utuana-Colaisaca",
"PostCode": "110604",
"Location": {
"Latitude": -4.127,
"Longitude": -79.4159
}
}
]
}
]
},
{
"Name": "Cantón Catamayo",
"Code": "1103",
"Communities": [
{
"Places": [
{
"Name": "Catamayo (La Toma)",
"PostCode": "110201",
"Location": {
"Latitude": -4.006,
"Longitude": -79.3372
}
},
{
"Name": "Catamayo (La Toma)",
"PostCode": "110202",
"Location": {
"Latitude": -3.9345,
"Longitude": -79.3602
}
},
{
"Name": "El Tambo",
"PostCode": "110203",
"Location": {
"Latitude": -4.0725,
"Longitude": -79.3082
}
},
{
"Name": "San Pedro De La Bendita",
"PostCode": "110204",
"Location": {
"Latitude": -3.9416,
"Longitude": -79.4357
}
},
{
"Name": "Zambi-Guayquichuma",
"PostCode": "110205",
"Location": {
"Latitude": -3.9278,
"Longitude": -79.4447
}
}
]
}
]
},
{
"Name": "Cantón Celica",
"Code": "1104",
"Communities": [
{
"Places": [
{
"Name": "Celica",
"PostCode": "110401",
"Location": {
"Latitude": -4.1027,
"Longitude": -79.9566
}
},
{
"Name": "Pozul (San Juan De Pozul)-Sabanilla-Tnte. Maximiliano Rodriguez Loaiza-Cruzpamba (Cab En Carlos Bustamante)",
"PostCode": "110402",
"Location": {
"Latitude": -4.1834,
"Longitude": -80.0971
}
}
]
}
]
},
{
"Name": "Chaguarpamba",
"Code": "1105",
"Communities": [
{
"Places": [
{
"Name": "Amarillos-Santa Rufina-Buenavista",
"PostCode": "110209",
"Location": {
"Latitude": -3.8822,
"Longitude": -79.732
}
},
{
"Name": "Chaguarpamba-El Rosario",
"PostCode": "110208",
"Location": {
"Latitude": -3.7861,
"Longitude": -79.6106
}
}
]
}
]
},
{
"Name": "Cantón Espindola",
"Code": "1106",
"Communities": [
{
"Places": [
{
"Name": "El Airo-27 De Abril (Cab En La Naranja)-El Ingenio",
"PostCode": "110503",
"Location": {
"Latitude": -4.4526,
"Longitude": -79.3973
}
},
{
"Name": "Jimbura-Bellavista",
"PostCode": "110502",
"Location": {
"Latitude": -4.596,
"Longitude": -79.4518
}
},
{
"Name": "Santa Teresita-Amaluza",
"PostCode": "110501",
"Location": {
"Latitude": -4.5716,
"Longitude": -79.3859
}
}
]
}
]
},
{
"Name": "Cantón Gonzanamá",
"Code": "1107",
"Communities": [
{
"Places": [
{
"Name": "Gonzanama",
"PostCode": "110607",
"Location": {
"Latitude": -4.2308,
"Longitude": -79.4354
}
},
{
"Name": "Nambacola-Purunuma (Eguiguren)",
"PostCode": "110609",
"Location": {
"Latitude": -4.4682,
"Longitude": -79.5321
}
},
{
"Name": "Sacapalca-Changaimina (La Libertad)",
"PostCode": "110606",
"Location": {
"Latitude": -4.3714,
"Longitude": -79.5462
}
}
]
}
]
},
{
"Name": "Cantón Macará",
"Code": "1108",
"Communities": [
{
"Places": [
{
"Name": "La Victoria-Sabiango (La Capilla)",
"PostCode": "110705",
"Location": {
"Latitude": -4.4165,
"Longitude": -79.8084
}
},
{
"Name": "Larama",
"PostCode": "110702",
"Location": {
"Latitude": -4.2658,
"Longitude": -79.906
}
},
{
"Name": "Macara",
"PostCode": "110701",
"Location": {
"Latitude": -4.3818,
"Longitude": -79.9437
}
}
]
}
]
},
{
"Name": "Cantón Paltas",
"Code": "1109",
"Communities": [
{
"Places": [
{
"Name": "Cangonama-Yamana-Sanantonio",
"PostCode": "110302",
"Location": {
"Latitude": -3.9749,
"Longitude": -79.692
}
},
{
"Name": "Catacocha",
"PostCode": "110301",
"Location": {
"Latitude": -4.0497,
"Longitude": -79.6494
}
},
{
"Name": "Guachanama",
"PostCode": "110304",
"Location": {
"Latitude": -4.0465,
"Longitude": -79.8814
}
},
{
"Name": "Lauro Guerrero-Cosanga",
"PostCode": "110303",
"Location": {
"Latitude": -3.9683,
"Longitude": -79.7765
}
},
{
"Name": "Orianga",
"PostCode": "110305",
"Location": {
"Latitude": -3.8987,
"Longitude": -79.8693
}
}
]
}
]
},
{
"Name": "Cantón Puyango",
"Code": "1110",
"Communities": [
{
"Places": [
{
"Name": "Alamor",
"PostCode": "110406",
"Location": {
"Latitude": -4.0185,
"Longitude": -80.0214
}
},
{
"Name": "Ciano-El Arenal-Vicentino-Mercadillo",
"PostCode": "110407",
"Location": {
"Latitude": -3.9557,
"Longitude": -79.9611
}
},
{
"Name": "El Limo (Mariana De Jesus)",
"PostCode": "110405",
"Location": {
"Latitude": -3.9967,
"Longitude": -80.1914
}
}
]
}
]
},
{
"Name": "Cantón Saraguro",
"Code": "1111",
"Communities": [
{
"Places": [
{
"Name": "San Antonio De Qumbe (Cumbe)-El Tablon-Urdaneta (Paquishapa)",
"PostCode": "110802",
"Location": {
"Latitude": -3.6159,
"Longitude": -79.3164
}
},
{
"Name": "San Pablo De Tenta-El Paraiso De Celen",
"PostCode": "110803",
"Location": {
"Latitude": -3.5687,
"Longitude": -79.1885
}
},
{
"Name": "San Sebastian De Yuluc-Manu",
"PostCode": "110806",
"Location": {
"Latitude": -3.4705,
"Longitude": -79.4234
}
},
{
"Name": "Saraguro",
"PostCode": "110801",
"Location": {
"Latitude": -3.6255,
"Longitude": -79.239
}
},
{
"Name": "Selva Alegre-Lluzhapa",
"PostCode": "110804",
"Location": {
"Latitude": -3.517,
"Longitude": -79.3342
}
},
{
"Name": "Sumaypamba",
"PostCode": "110805",
"Location": {
"Latitude": -3.4098,
"Longitude": -79.3404
}
}
]
}
]
},
{
"Name": "Cantón Sozoranga",
"Code": "1112",
"Communities": [
{
"Places": [
{
"Name": "Sozoranga-Nueva Fatima",
"PostCode": "110703",
"Location": {
"Latitude": -4.2476,
"Longitude": -79.7939
}
},
{
"Name": "Tacamoros",
"PostCode": "110704",
"Location": {
"Latitude": -4.4225,
"Longitude": -79.7447
}
}
]
}
]
},
{
"Name": "Zapotillo",
"Code": "1113",
"Communities": [
{
"Places": [
{
"Name": "Bolaspamba",
"PostCode": "110905",
"Location": {
"Latitude": -4.185,
"Longitude": -80.3693
}
},
{
"Name": "Cazaderos (Cab En Mangaurco)",
"PostCode": "110906",
"Location": {
"Latitude": -4.0756,
"Longitude": -80.3982
}
},
{
"Name": "Garzareal",
"PostCode": "110903",
"Location": {
"Latitude": -4.2728,
"Longitude": -80.2735
}
},
{
"Name": "Limones",
"PostCode": "110902",
"Location": {
"Latitude": -4.3637,
"Longitude": -80.3768
}
},
{
"Name": "Paletillas",
"PostCode": "110904",
"Location": {
"Latitude": -4.3303,
"Longitude": -80.3178
}
},
{
"Name": "Zapotillo",
"PostCode": "110901",
"Location": {
"Latitude": -4.3875,
"Longitude": -80.2441
}
}
]
}
]
},
{
"Name": "Pindal",
"Code": "1114",
"Communities": [
{
"Places": [
{
"Name": "Chaquinal-12 De Diciembre (Cab En Achiotes)",
"PostCode": "110404",
"Location": {
"Latitude": -4.0599,
"Longitude": -80.0877
}
},
{
"Name": "Pindal",
"PostCode": "110403",
"Location": {
"Latitude": -4.1143,
"Longitude": -80.1068
}
}
]
}
]
},
{
"Name": "Quilanga",
"Code": "1115",
"PostCode": "110608",
"Communities": [
{
"Places": [
{
"Name": "San Antonio De Las Aradas (Cab)-Quilanga-Fundochamba",
"PostCode": "110608",
"Location": {
"Latitude": -4.3936,
"Longitude": -79.5014
}
}
],
"PostCode": "110608"
}
]
},
{
"Name": "Olmedo",
"Code": "1116",
"Communities": [
{
"Places": [
{
"Name": "La Tingue",
"PostCode": "110206",
"Location": {
"Latitude": -3.9085,
"Longitude": -79.5755
}
},
{
"Name": "Olmedo",
"PostCode": "110207",
"Location": {
"Latitude": -3.9349,
"Longitude": -79.6463
}
}
]
}
]
}
]
},
{
"Name": "Los Ríos",
"Code": "13",
"Provinces": [
{
"Name": "Cantón Babahoyo",
"Code": "1201",
"Communities": [
{
"Places": [
{
"Name": "Babahoyo",
"PostCode": "120101",
"Location": {
"Latitude": -1.8022,
"Longitude": -79.5344
}
},
{
"Name": "Babahoyo",
"PostCode": "120102",
"Location": {
"Latitude": -1.8022,
"Longitude": -79.5344
}
},
{
"Name": "Babahoyo",
"PostCode": "120103",
"Location": {
"Latitude": -1.8022,
"Longitude": -79.5344
}
},
{
"Name": "Babahoyo",
"PostCode": "120104",
"Location": {
"Latitude": -1.8022,
"Longitude": -79.5344
}
},
{
"Name": "Babahoyo",
"PostCode": "120105",
"Location": {
"Latitude": -1.8022,
"Longitude": -79.5344
}
},
{
"Name": "Babahoyo",
"PostCode": "120106",
"Location": {
"Latitude": -1.8022,
"Longitude": -79.5344
}
},
{
"Name": "Babahoyo",
"PostCode": "120107",
"Location": {
"Latitude": -1.8022,
"Longitude": -79.5344
}
},
{
"Name": "Babahoyo",
"PostCode": "120109",
"Location": {
"Latitude": -1.8022,
"Longitude": -79.5344
}
},
{
"Name": "Caracol",
"PostCode": "120112",
"Location": {
"Latitude": -1.6716,
"Longitude": -79.4638
}
},
{
"Name": "Febres Cordero (Las Juntas) (Cab.",
"PostCode": "120116",
"Location": {
"Latitude": -1.7622,
"Longitude": -79.6949
}
},
{
"Name": "La Union",
"PostCode": "120113",
"Location": {
"Latitude": -1.7833,
"Longitude": -79.4667
}
},
{
"Name": "Pimocha",
"PostCode": "120108",
"Location": {
"Latitude": -1.8333,
"Longitude": -79.6064
}
},
{
"Name": "Pimocha",
"PostCode": "120110",
"Location": {
"Latitude": -1.8333,
"Longitude": -79.6064
}
},
{
"Name": "Pimocha",
"PostCode": "120111",
"Location": {
"Latitude": -1.8333,
"Longitude": -79.6064
}
}
]
}
]
},
{
"Name": "Cantón Baba",
"Code": "1202",
"Communities": [
{
"Places": [
{
"Name": "Baba",
"PostCode": "120117",
"Location": {
"Latitude": -1.7841,
"Longitude": -79.6783
}
},
{
"Name": "Baba",
"PostCode": "120118",
"Location": {
"Latitude": -1.7841,
"Longitude": -79.6783
}
},
{
"Name": "Guare",
"PostCode": "120120",
"Location": {
"Latitude": -1.6721,
"Longitude": -79.7057
}
},
{
"Name": "Isla De Bejucal",
"PostCode": "120119",
"Location": {
"Latitude": -1.6772,
"Longitude": -79.6448
}
}
]
}
]
},
{
"Name": "Montalvo",
"Code": "1203",
"Communities": [
{
"Places": [
{
"Name": "Montalvo",
"PostCode": "120114",
"Location": {
"Latitude": -1.7901,
"Longitude": -79.2876
}
},
{
"Name": "Montalvo",
"PostCode": "120115",
"Location": {
"Latitude": -1.7901,
"Longitude": -79.2876
}
}
]
}
]
},
{
"Name": "Cantón Puebloviejo",
"Code": "1204",
"Communities": [
{
"Places": [
{
"Name": "Puebloviejo",
"PostCode": "120201",
"Location": {
"Latitude": -1.5507,
"Longitude": -79.534
}
},
{
"Name": "Puerto Pechiche",
"PostCode": "120205",
"Location": {
"Latitude": -1.4333,
"Longitude": -79.5667
}
},
{
"Name": "San Juan",
"PostCode": "120204",
"Location": {
"Latitude": -1.6244,
"Longitude": -79.5617
}
}
]
}
]
},
{
"Name": "Cantón Quevedo",
"Code": "1205",
"Communities": [
{
"Places": [
{
"Name": "La Esperanza",
"PostCode": "120310",
"Location": {
"Latitude": -1.0642,
"Longitude": -79.4613
}
},
{
"Name": "Quevedo",
"PostCode": "120301",
"Location": {
"Latitude": -1.0286,
"Longitude": -79.4635
}
},
{
"Name": "Quevedo",
"PostCode": "120302",
"Location": {
"Latitude": -1.0286,
"Longitude": -79.4635
}
},
{
"Name": "Quevedo",
"PostCode": "120303",
"Location": {
"Latitude": -1.0286,
"Longitude": -79.4635
}
},
{
"Name": "Quevedo",
"PostCode": "120304",
"Location": {
"Latitude": -1.0286,
"Longitude": -79.4635
}
},
{
"Name": "Quevedo",
"PostCode": "120305",
"Location": {
"Latitude": -1.0286,
"Longitude": -79.4635
}
},
{
"Name": "Quevedo",
"PostCode": "120306",
"Location": {
"Latitude": -1.0286,
"Longitude": -79.4635
}
},
{
"Name": "Quevedo",
"PostCode": "120307",
"Location": {
"Latitude": -1.0286,
"Longitude": -79.4635
}
},
{
"Name": "Quevedo",
"PostCode": "120308",
"Location": {
"Latitude": -1.0286,
"Longitude": -79.4635
}
},
{
"Name": "Quevedo",
"PostCode": "120309",
"Location": {
"Latitude": -1.0286,
"Longitude": -79.4635
}
},
{
"Name": "San Carlos",
"PostCode": "120311",
"Location": {
"Latitude": -1.1155,
"Longitude": -79.4351
}
}
]
}
]
},
{
"Name": "Cantón Urdaneta",
"Code": "1206",
"Communities": [
{
"Places": [
{
"Name": "Catarama",
"PostCode": "120202",
"Location": {
"Latitude": -1.575,
"Longitude": -79.46
}
},
{
"Name": "Ricaurte",
"PostCode": "120203",
"Location": {
"Latitude": -1.5784,
"Longitude": -79.4373
}
},
{
"Name": "Ricaurte",
"PostCode": "120206",
"Location": {
"Latitude": -1.5784,
"Longitude": -79.4373
}
}
]
}
]
},
{
"Name": "Cantón Ventanas",
"Code": "1207",
"Communities": [
{
"Places": [
{
"Name": "Ventanas",
"PostCode": "120401",
"Location": {
"Latitude": -1.4416,
"Longitude": -79.4594
}
},
{
"Name": "Ventanas",
"PostCode": "120404",
"Location": {
"Latitude": -1.4416,
"Longitude": -79.4594
}
},
{
"Name": "Ventanas",
"PostCode": "120405",
"Location": {
"Latitude": -1.4416,
"Longitude": -79.4594
}
},
{
"Name": "Zapotal",
"PostCode": "120402",
"Location": {
"Latitude": -1.3551,
"Longitude": -79.4018
}
},
{
"Name": "Zapotal",
"PostCode": "120403",
"Location": {
"Latitude": -1.3551,
"Longitude": -79.4018
}
},
{
"Name": "Zapotal",
"PostCode": "120406",
"Location": {
"Latitude": -1.3551,
"Longitude": -79.4018
}
}
]
}
]
},
{
"Name": "Cantón Vinces",
"Code": "1208",
"Communities": [
{
"Places": [
{
"Name": "Antonio Sotomayor (Cab. Playas De Vince",
"PostCode": "120506",
"Location": {
"Latitude": -1.5194,
"Longitude": -79.7424
}
},
{
"Name": "Antonio Sotomayor (Cab. Playas De Vince",
"PostCode": "120510",
"Location": {
"Latitude": -1.6957,
"Longitude": -79.7805
}
},
{
"Name": "Vinces",
"PostCode": "120501",
"Location": {
"Latitude": -1.5561,
"Longitude": -79.7519
}
},
{
"Name": "Vinces",
"PostCode": "120502",
"Location": {
"Latitude": -1.5561,
"Longitude": -79.7519
}
},
{
"Name": "Vinces",
"PostCode": "120503",
"Location": {
"Latitude": -1.5561,
"Longitude": -79.7519
}
},
{
"Name": "Vinces",
"PostCode": "120504",
"Location": {
"Latitude": -1.5561,
"Longitude": -79.7519
}
},
{
"Name": "Vinces",
"PostCode": "120505",
"Location": {
"Latitude": -1.5561,
"Longitude": -79.7519
}
},
{
"Name": "Vinces",
"PostCode": "120507",
"Location": {
"Latitude": -1.5561,
"Longitude": -79.7519
}
},
{
"Name": "Vinces",
"PostCode": "120509",
"Location": {
"Latitude": -1.5561,
"Longitude": -79.7519
}
}
]
}
]
},
{
"Name": "Palenque",
"Code": "1209",
"Communities": [
{
"Places": [
{
"Name": "Palenque",
"PostCode": "120508",
"Location": {
"Latitude": -1.438,
"Longitude": -79.7565
}
},
{
"Name": "Palenque",
"PostCode": "120511",
"Location": {
"Latitude": -1.438,
"Longitude": -79.7565
}
}
]
}
]
},
{
"Name": "Cantón Buena Fe",
"Code": "1210",
"Communities": [
{
"Places": [
{
"Name": "Patricia Pilar",
"PostCode": "120609",
"Location": {
"Latitude": -0.5731,
"Longitude": -79.3717
}
},
{
"Name": "San Jacinto De Buena Fe",
"PostCode": "120601",
"Location": {
"Latitude": -0.8932,
"Longitude": -79.4891
}
},
{
"Name": "San Jacinto De Buena Fe",
"PostCode": "120603",
"Location": {
"Latitude": -0.8932,
"Longitude": -79.4891
}
},
{
"Name": "San Jacinto De Buena Fe",
"PostCode": "120604",
"Location": {
"Latitude": -0.8932,
"Longitude": -79.4891
}
},
{
"Name": "San Jacinto De Buena Fe",
"PostCode": "120608",
"Location": {
"Latitude": -0.8932,
"Longitude": -79.4891
}
}
]
}
]
},
{
"Name": "Cantón Valencia",
"Code": "1211",
"Communities": [
{
"Places": [
{
"Name": "Valencia",
"PostCode": "120602",
"Location": {
"Latitude": -0.9523,
"Longitude": -79.3559
}
},
{
"Name": "Valencia",
"PostCode": "120605",
"Location": {
"Latitude": -0.9523,
"Longitude": -79.3559
}
},
{
"Name": "Valencia",
"PostCode": "120606",
"Location": {
"Latitude": -0.9523,
"Longitude": -79.3559
}
},
{
"Name": "Valencia",
"PostCode": "120607",
"Location": {
"Latitude": -0.9523,
"Longitude": -79.3559
}
},
{
"Name": "Valencia",
"PostCode": "120610",
"Location": {
"Latitude": -0.9523,
"Longitude": -79.3559
}
}
]
}
]
},
{
"Name": "Mocache",
"Code": "1212",
"Communities": [
{
"Places": [
{
"Name": "Mocache",
"PostCode": "120312",
"Location": {
"Latitude": -1.1827,
"Longitude": -79.4991
}
},
{
"Name": "Mocache",
"PostCode": "120313",
"Location": {
"Latitude": -1.1827,
"Longitude": -79.4991
}
},
{
"Name": "Mocache",
"PostCode": "120314",
"Location": {
"Latitude": -1.1827,
"Longitude": -79.4991
}
}
]
}
]
},
{
"Name": "Quinsaloma",
"Code": "1213",
"PostCode": "120407",
"Communities": [
{
"Places": [
{
"Name": "Quinsaloma",
"PostCode": "120407",
"Location": {
"Latitude": -1.2218,
"Longitude": -79.3349
}
}
],
"PostCode": "120407"
}
]
}
]
},
{
"Name": "Manabí",
"Code": "14",
"Provinces": [
{
"Name": "Cantón Portoviejo",
"Code": "1301",
"Communities": [
{
"Places": [
{
"Name": "Abdon Calderon (San Francisco)",
"PostCode": "130117",
"Location": {
"Latitude": -1.0471,
"Longitude": -80.3241
}
},
{
"Name": "Chirijos-Alhajuela (Bajo Grande)",
"PostCode": "130120",
"Location": {
"Latitude": -1.0249,
"Longitude": -80.2067
}
},
{
"Name": "Crucita",
"PostCode": "130119",
"Location": {
"Latitude": -0.8706,
"Longitude": -80.5375
}
},
{
"Name": "Portoviejo",
"PostCode": "130101",
"Location": {
"Latitude": -1.0546,
"Longitude": -80.4544
}
},
{
"Name": "Portoviejo",
"PostCode": "130102",
"Location": {
"Latitude": -1.0546,
"Longitude": -80.4544
}
},
{
"Name": "Portoviejo",
"PostCode": "130103",
"Location": {
"Latitude": -1.0546,
"Longitude": -80.4544
}
},
{
"Name": "Portoviejo",
"PostCode": "130104",
"Location": {
"Latitude": -1.0546,
"Longitude": -80.4544
}
},
{
"Name": "Portoviejo",
"PostCode": "130105",
"Location": {
"Latitude": -1.0546,
"Longitude": -80.4544
}
},
{
"Name": "Portoviejo",
"PostCode": "130106",
"Location": {
"Latitude": -1.0546,
"Longitude": -80.4544
}
},
{
"Name": "Portoviejo",
"PostCode": "130107",
"Location": {
"Latitude": -1.0546,
"Longitude": -80.4544
}
},
{
"Name": "Portoviejo",
"PostCode": "130108",
"Location": {
"Latitude": -1.0546,
"Longitude": -80.4544
}
},
{
"Name": "Portoviejo",
"PostCode": "130109",
"Location": {
"Latitude": -1.0546,
"Longitude": -80.4544
}
},
{
"Name": "Portoviejo",
"PostCode": "130110",
"Location": {
"Latitude": -1.0546,
"Longitude": -80.4544
}
},
{
"Name": "Portoviejo",
"PostCode": "130111",
"Location": {
"Latitude": -1.0546,
"Longitude": -80.4544
}
},
{
"Name": "Portoviejo",
"PostCode": "130112",
"Location": {
"Latitude": -1.0546,
"Longitude": -80.4544
}
},
{
"Name": "Portoviejo",
"PostCode": "130113",
"Location": {
"Latitude": -1.0546,
"Longitude": -80.4544
}
},
{
"Name": "Portoviejo",
"PostCode": "130114",
"Location": {
"Latitude": -1.0546,
"Longitude": -80.4544
}
},
{
"Name": "Portoviejo",
"PostCode": "130115",
"Location": {
"Latitude": -1.0546,
"Longitude": -80.4544
}
},
{
"Name": "Portoviejo",
"PostCode": "130118",
"Location": {
"Latitude": -1.0546,
"Longitude": -80.4544
}
},
{
"Name": "Riochico (Rio Chico)-Pueblo Nuevo",
"PostCode": "130116",
"Location": {
"Latitude": -0.984,
"Longitude": -80.362
}
},
{
"Name": "San Placido",
"PostCode": "130121",
"Location": {
"Latitude": -1.0616,
"Longitude": -80.245
}
}
]
}
]
},
{
"Name": "Cantón Bolívar",
"Code": "1302",
"Communities": [
{
"Places": [
{
"Name": "Calceta",
"PostCode": "130601",
"Location": {
"Latitude": -0.8458,
"Longitude": -80.1639
}
},
{
"Name": "Calceta",
"PostCode": "130602",
"Location": {
"Latitude": -0.8458,
"Longitude": -80.1639
}
},
{
"Name": "Calceta",
"PostCode": "130607",
"Location": {
"Latitude": -0.8458,
"Longitude": -80.1639
}
},
{
"Name": "Membrillo",
"PostCode": "130606",
"Location": {
"Latitude": -0.8702,
"Longitude": -79.9454
}
},
{
"Name": "Quiroga",
"PostCode": "130603",
"Location": {
"Latitude": -0.8844,
"Longitude": -80.0971
}
}
]
}
]
},
{
"Name": "Cantón Chone",
"Code": "1303",
"Communities": [
{
"Places": [
{
"Name": "Boyaca",
"PostCode": "130707",
"Location": {
"Latitude": -0.5701,
"Longitude": -80.1773
}
},
{
"Name": "Canuto",
"PostCode": "130710",
"Location": {
"Latitude": -0.7996,
"Longitude": -80.1282
}
},
{
"Name": "Canuto",
"PostCode": "130714",
"Location": {
"Latitude": -0.7996,
"Longitude": -80.1282
}
},
{
"Name": "Chibunga",
"PostCode": "130719",
"Location": {
"Latitude": -0.2454,
"Longitude": -79.7199
}
},
{
"Name": "Chone",
"PostCode": "130701",
"Location": {
"Latitude": -0.6982,
"Longitude": -80.0936
}
},
{
"Name": "Chone",
"PostCode": "130702",
"Location": {
"Latitude": -0.6982,
"Longitude": -80.0936
}
},
{
"Name": "Chone",
"PostCode": "130703",
"Location": {
"Latitude": -0.6982,
"Longitude": -80.0936
}
},
{
"Name": "Chone",
"PostCode": "130704",
"Location": {
"Latitude": -0.6982,
"Longitude": -80.0936
}
},
{
"Name": "Chone",
"PostCode": "130706",
"Location": {
"Latitude": -0.6982,
"Longitude": -80.0936
}
},
{
"Name": "Chone",
"PostCode": "130709",
"Location": {
"Latitude": -0.6982,
"Longitude": -80.0936
}
},
{
"Name": "Convento",
"PostCode": "130715",
"Location": {
"Latitude": -0.2774,
"Longitude": -80.0361
}
},
{
"Name": "Eloy Alfaro",
"PostCode": "130711",
"Location": {
"Latitude": -0.401,
"Longitude": -80.0806
}
},
{
"Name": "Ricaurte",
"PostCode": "130708",
"Location": {
"Latitude": -0.5828,
"Longitude": -80.0414
}
},
{
"Name": "San Antonio",
"PostCode": "130705",
"Location": {
"Latitude": -0.7042,
"Longitude": -80.1662
}
}
]
}
]
},
{
"Name": "Cantón El Carmen",
"Code": "1304",
"Communities": [
{
"Places": [
{
"Name": "El Carmen",
"PostCode": "130501",
"Location": {
"Latitude": -0.2711,
"Longitude": -79.4629
}
},