[
{
"Name": "Guadeloupe",
"Code": "GP",
"Provinces": [
{
"Name": "Guadeloupe",
"Code": "971",
"Communities": [
{
"Name": "Arrondissement de la Basse-Terre",
"Code": "9711",
"Places": [
{
"Name": "Baie-Mahault",
"PostCode": "97122",
"Location": {
"Latitude": 16.2674,
"Longitude": -61.5854
}
},
{
"Name": "Baillif",
"PostCode": "97123",
"Location": {
"Latitude": 16.0202,
"Longitude": -61.7463
}
},
{
"Name": "Basse-Terre",
"PostCode": "97023 CEDEX",
"Location": {
"Latitude": 15.9985,
"Longitude": -61.7255
}
},
{
"Name": "Basse-Terre",
"PostCode": "97029 CEDEX",
"Location": {
"Latitude": 15.9985,
"Longitude": -61.7255
}
},
{
"Name": "Basse-Terre",
"PostCode": "97100",
"Location": {
"Latitude": 15.9985,
"Longitude": -61.7255
}
},
{
"Name": "Basse-Terre",
"PostCode": "97101 CEDEX",
"Location": {
"Latitude": 15.9985,
"Longitude": -61.7255
}
},
{
"Name": "Basse-Terre",
"PostCode": "97102 CEDEX",
"Location": {
"Latitude": 15.9985,
"Longitude": -61.7255
}
},
{
"Name": "Basse-Terre",
"PostCode": "97103 CEDEX",
"Location": {
"Latitude": 15.9985,
"Longitude": -61.7255
}
},
{
"Name": "Basse-Terre",
"PostCode": "97104 CEDEX",
"Location": {
"Latitude": 15.9985,
"Longitude": -61.7255
}
},
{
"Name": "Basse-Terre",
"PostCode": "97105 CEDEX",
"Location": {
"Latitude": 15.9985,
"Longitude": -61.7255
}
},
{
"Name": "Basse-Terre",
"PostCode": "97106 CEDEX",
"Location": {
"Latitude": 15.9985,
"Longitude": -61.7255
}
},
{
"Name": "Basse-Terre",
"PostCode": "97107 CEDEX",
"Location": {
"Latitude": 15.9985,
"Longitude": -61.7255
}
},
{
"Name": "Basse-Terre",
"PostCode": "97108 CEDEX",
"Location": {
"Latitude": 15.9985,
"Longitude": -61.7255
}
},
{
"Name": "Basse-Terre",
"PostCode": "97109 CEDEX",
"Location": {
"Latitude": 15.9985,
"Longitude": -61.7255
}
},
{
"Name": "Bouillante",
"PostCode": "97125",
"Location": {
"Latitude": 16.1304,
"Longitude": -61.7692
}
},
{
"Name": "Capesterre-Belle-Eau",
"PostCode": "97130",
"Location": {
"Latitude": 16.0432,
"Longitude": -61.566
}
},
{
"Name": "Deshaies",
"PostCode": "97126",
"Location": {
"Latitude": 16.3065,
"Longitude": -61.7942
}
},
{
"Name": "Gourbeyre",
"PostCode": "97113",
"Location": {
"Latitude": 15.9938,
"Longitude": -61.6914
}
},
{
"Name": "Goyave",
"PostCode": "97128",
"Location": {
"Latitude": 16.1352,
"Longitude": -61.574
}
},
{
"Name": "Lamentin",
"PostCode": "97129",
"Location": {
"Latitude": 16.271,
"Longitude": -61.6312
}
},
{
"Name": "Petit-Bourg",
"PostCode": "97082 CEDEX",
"Location": {
"Latitude": 16.1914,
"Longitude": -61.5916
}
},
{
"Name": "Petit-Bourg",
"PostCode": "97170",
"Location": {
"Latitude": 16.1914,
"Longitude": -61.5916
}
},
{
"Name": "Pointe-Noire",
"PostCode": "97116",
"Location": {
"Latitude": 16.2309,
"Longitude": -61.7878
}
},
{
"Name": "Saint-Claude",
"PostCode": "97120",
"Location": {
"Latitude": 16.0241,
"Longitude": -61.7022
}
},
{
"Name": "Sainte-Rose",
"PostCode": "97115",
"Location": {
"Latitude": 16.3324,
"Longitude": -61.6979
}
},
{
"Name": "Terre-de-Bas",
"PostCode": "97136",
"Location": {
"Latitude": 15.8501,
"Longitude": -61.6442
}
},
{
"Name": "Terre-de-Haut",
"PostCode": "97137",
"Location": {
"Latitude": 15.8663,
"Longitude": -61.5827
}
},
{
"Name": "Trois-Rivières",
"PostCode": "97114",
"Location": {
"Latitude": 15.9757,
"Longitude": -61.6451
}
},
{
"Name": "Vieux-Fort",
"PostCode": "97141",
"Location": {
"Latitude": 15.9513,
"Longitude": -61.6991
}
},
{
"Name": "Vieux-Habitants",
"PostCode": "97119",
"Location": {
"Latitude": 16.0589,
"Longitude": -61.766
}
}
]
},
{
"Name": "Arrondissement de Pointe-à-Pitre",
"Code": "9712",
"Places": [
{
"Name": "Anse-Bertrand",
"PostCode": "97121",
"Location": {
"Latitude": 16.4721,
"Longitude": -61.5078
}
},
{
"Name": "Capesterre-de-Marie-Galante",
"PostCode": "97140",
"Location": {
"Latitude": 15.8833,
"Longitude": -61.2167
}
},
{
"Name": "Grand-Bourg",
"PostCode": "97112",
"Location": {
"Latitude": 15.8835,
"Longitude": -61.3148
}
},
{
"Name": "Jarry",
"PostCode": "97084 CEDEX",
"Location": {
"Latitude": 16.2359,
"Longitude": -61.558
}
},
{
"Name": "Jarry",
"PostCode": "97085 CEDEX",
"Location": {
"Latitude": 16.2359,
"Longitude": -61.558
}
},
{
"Name": "Jarry",
"PostCode": "97086 CEDEX",
"Location": {
"Latitude": 16.2359,
"Longitude": -61.558
}
},
{
"Name": "Jarry",
"PostCode": "97187 CEDEX",
"Location": {
"Latitude": 16.2359,
"Longitude": -61.558
}
},
{
"Name": "Jarry",
"PostCode": "97188 CEDEX",
"Location": {
"Latitude": 16.2359,
"Longitude": -61.558
}
},
{
"Name": "Jarry",
"PostCode": "97189 CEDEX",
"Location": {
"Latitude": 16.2359,
"Longitude": -61.558
}
},
{
"Name": "Jarry",
"PostCode": "97191 CEDEX",
"Location": {
"Latitude": 16.2359,
"Longitude": -61.558
}
},
{
"Name": "Jarry",
"PostCode": "97192 CEDEX",
"Location": {
"Latitude": 16.2359,
"Longitude": -61.558
}
},
{
"Name": "Jarry",
"PostCode": "97193 CEDEX",
"Location": {
"Latitude": 16.2359,
"Longitude": -61.558
}
},
{
"Name": "Jarry",
"PostCode": "97194 CEDEX",
"Location": {
"Latitude": 16.2359,
"Longitude": -61.558
}
},
{
"Name": "Jarry",
"PostCode": "97195 CEDEX",
"Location": {
"Latitude": 16.2359,
"Longitude": -61.558
}
},
{
"Name": "Jarry",
"PostCode": "97196 CEDEX",
"Location": {
"Latitude": 16.2359,
"Longitude": -61.558
}
},
{
"Name": "Jarry",
"PostCode": "97197 CEDEX",
"Location": {
"Latitude": 16.2359,
"Longitude": -61.558
}
},
{
"Name": "Jarry",
"PostCode": "97198 CEDEX",
"Location": {
"Latitude": 16.2359,
"Longitude": -61.558
}
},
{
"Name": "Jarry",
"PostCode": "97199 CEDEX",
"Location": {
"Latitude": 16.2359,
"Longitude": -61.558
}
},
{
"Name": "La Désirade",
"PostCode": "97127",
"Location": {
"Latitude": 16.3167,
"Longitude": -61.0333
}
},
{
"Name": "Le Gosier",
"PostCode": "97190",
"Location": {
"Latitude": 16.2069,
"Longitude": -61.4933
}
},
{
"Name": "Le Moule",
"PostCode": "97160",
"Location": {
"Latitude": 16.3332,
"Longitude": -61.3473
}
},
{
"Name": "Les Abymes",
"PostCode": "97001 CEDEX",
"Location": {
"Latitude": 16.271,
"Longitude": -61.5045
}
},
{
"Name": "Les Abymes",
"PostCode": "97009 CEDEX",
"Location": {
"Latitude": 16.271,
"Longitude": -61.5045
}
},
{
"Name": "Les Abymes",
"PostCode": "97139",
"Location": {
"Latitude": 16.271,
"Longitude": -61.5045
}
},
{
"Name": "Les Abymes",
"PostCode": "97142",
"Location": {
"Latitude": 16.271,
"Longitude": -61.5045
}
},
{
"Name": "Les Abymes",
"PostCode": "97175 CEDEX",
"Location": {
"Latitude": 16.271,
"Longitude": -61.5045
}
},
{
"Name": "Les Abymes",
"PostCode": "97176 CEDEX",
"Location": {
"Latitude": 16.271,
"Longitude": -61.5045
}
},
{
"Name": "Les Abymes",
"PostCode": "97177 CEDEX",
"Location": {
"Latitude": 16.271,
"Longitude": -61.5045
}
},
{
"Name": "Les Abymes",
"PostCode": "97178 CEDEX",
"Location": {
"Latitude": 16.271,
"Longitude": -61.5045
}
},
{
"Name": "Les Abymes",
"PostCode": "97181 CEDEX",
"Location": {
"Latitude": 16.271,
"Longitude": -61.5045
}
},
{
"Name": "Les Abymes",
"PostCode": "97182 CEDEX",
"Location": {
"Latitude": 16.271,
"Longitude": -61.5045
}
},
{
"Name": "Les Abymes",
"PostCode": "97183 CEDEX",
"Location": {
"Latitude": 16.271,
"Longitude": -61.5045
}
},
{
"Name": "Les Abymes",
"PostCode": "97184 CEDEX",
"Location": {
"Latitude": 16.271,
"Longitude": -61.5045
}
},
{
"Name": "Les Abymes",
"PostCode": "97185 CEDEX",
"Location": {
"Latitude": 16.271,
"Longitude": -61.5045
}
},
{
"Name": "Les Abymes",
"PostCode": "97186 CEDEX",
"Location": {
"Latitude": 16.271,
"Longitude": -61.5045
}
},
{
"Name": "Morne-à-l'Eau",
"PostCode": "97111",
"Location": {
"Latitude": 16.3334,
"Longitude": -61.4588
}
},
{
"Name": "Petit-Canal",
"PostCode": "97131",
"Location": {
"Latitude": 16.3784,
"Longitude": -61.4879
}
},
{
"Name": "Pointe-à-Pitre",
"PostCode": "97002 CEDEX",
"Location": {
"Latitude": 16.2422,
"Longitude": -61.5343
}
},
{
"Name": "Pointe-à-Pitre",
"PostCode": "97003 CEDEX",
"Location": {
"Latitude": 16.2422,
"Longitude": -61.5343
}
},
{
"Name": "Pointe-à-Pitre",
"PostCode": "97004 CEDEX",
"Location": {
"Latitude": 16.2422,
"Longitude": -61.5343
}
},
{
"Name": "Pointe-à-Pitre",
"PostCode": "97005 CEDEX",
"Location": {
"Latitude": 16.2422,
"Longitude": -61.5343
}
},
{
"Name": "Pointe-à-Pitre",
"PostCode": "97006 CEDEX",
"Location": {
"Latitude": 16.2422,
"Longitude": -61.5343
}
},
{
"Name": "Pointe-à-Pitre",
"PostCode": "97007 CEDEX",
"Location": {
"Latitude": 16.2422,
"Longitude": -61.5343
}
},
{
"Name": "Pointe-à-Pitre",
"PostCode": "97008 CEDEX",
"Location": {
"Latitude": 16.2422,
"Longitude": -61.5343
}
},
{
"Name": "Pointe-à-Pitre",
"PostCode": "97010 CEDEX",
"Location": {
"Latitude": 16.2422,
"Longitude": -61.5343
}
},
{
"Name": "Pointe-à-Pitre",
"PostCode": "97011 CEDEX",
"Location": {
"Latitude": 16.2422,
"Longitude": -61.5343
}
},
{
"Name": "Pointe-à-Pitre",
"PostCode": "97019 CEDEX",
"Location": {
"Latitude": 16.2422,
"Longitude": -61.5343
}
},
{
"Name": "Pointe-à-Pitre",
"PostCode": "97110",
"Location": {
"Latitude": 16.2422,
"Longitude": -61.5343
}
},
{
"Name": "Pointe-à-Pitre",
"PostCode": "97151 CEDEX",
"Location": {
"Latitude": 16.2422,
"Longitude": -61.5343
}
},
{
"Name": "Pointe-à-Pitre",
"PostCode": "97152 CEDEX",
"Location": {
"Latitude": 16.2422,
"Longitude": -61.5343
}
},
{
"Name": "Pointe-à-Pitre",
"PostCode": "97153 CEDEX",
"Location": {
"Latitude": 16.2422,
"Longitude": -61.5343
}
},
{
"Name": "Pointe-à-Pitre",
"PostCode": "97154 CEDEX",
"Location": {
"Latitude": 16.2422,
"Longitude": -61.5343
}
},
{
"Name": "Pointe-à-Pitre",
"PostCode": "97155 CEDEX",
"Location": {
"Latitude": 16.2422,
"Longitude": -61.5343
}
},
{
"Name": "Pointe-à-Pitre",
"PostCode": "97156 CEDEX",
"Location": {
"Latitude": 16.2422,
"Longitude": -61.5343
}
},
{
"Name": "Pointe-à-Pitre",
"PostCode": "97157 CEDEX",
"Location": {
"Latitude": 16.2422,
"Longitude": -61.5343
}
},
{
"Name": "Pointe-à-Pitre",
"PostCode": "97158 CEDEX",
"Location": {
"Latitude": 16.2422,
"Longitude": -61.5343
}
},
{
"Name": "Pointe-à-Pitre",
"PostCode": "97159 CEDEX",
"Location": {
"Latitude": 16.2422,
"Longitude": -61.5343
}
},
{
"Name": "Pointe-à-Pitre",
"PostCode": "97161 CEDEX",
"Location": {
"Latitude": 16.2422,
"Longitude": -61.5343
}
},
{
"Name": "Pointe-à-Pitre",
"PostCode": "97162 CEDEX",
"Location": {
"Latitude": 16.2422,
"Longitude": -61.5343
}
},
{
"Name": "Pointe-à-Pitre",
"PostCode": "97163 CEDEX",
"Location": {
"Latitude": 16.2422,
"Longitude": -61.5343
}
},
{
"Name": "Pointe-à-Pitre",
"PostCode": "97164 CEDEX",
"Location": {
"Latitude": 16.2422,
"Longitude": -61.5343
}
},
{
"Name": "Pointe-à-Pitre",
"PostCode": "97165 CEDEX",
"Location": {
"Latitude": 16.2422,
"Longitude": -61.5343
}
},
{
"Name": "Pointe-à-Pitre",
"PostCode": "97166 CEDEX",
"Location": {
"Latitude": 16.2422,
"Longitude": -61.5343
}
},
{
"Name": "Pointe-à-Pitre",
"PostCode": "97167 CEDEX",
"Location": {
"Latitude": 16.2422,
"Longitude": -61.5343
}
},
{
"Name": "Pointe-à-Pitre",
"PostCode": "97168 CEDEX",
"Location": {
"Latitude": 16.2422,
"Longitude": -61.5343
}
},
{
"Name": "Pointe-à-Pitre",
"PostCode": "97169 CEDEX",
"Location": {
"Latitude": 16.2422,
"Longitude": -61.5343
}
},
{
"Name": "Pointe-à-Pitre",
"PostCode": "97171 CEDEX",
"Location": {
"Latitude": 16.2422,
"Longitude": -61.5343
}
},
{
"Name": "Pointe-à-Pitre",
"PostCode": "97172 CEDEX",
"Location": {
"Latitude": 16.2422,
"Longitude": -61.5343
}
},
{
"Name": "Pointe-à-Pitre",
"PostCode": "97173 CEDEX",
"Location": {
"Latitude": 16.2422,
"Longitude": -61.5343
}
},
{
"Name": "Pointe-à-Pitre",
"PostCode": "97174 CEDEX",
"Location": {
"Latitude": 16.2422,
"Longitude": -61.5343
}
},
{
"Name": "Pointe-à-Pitre",
"PostCode": "97179 CEDEX",
"Location": {
"Latitude": 16.2422,
"Longitude": -61.5343
}
},
{
"Name": "Port-Louis",
"PostCode": "97117",
"Location": {
"Latitude": 16.419,
"Longitude": -61.5313
}
},
{
"Name": "Saint-François",
"PostCode": "97118",
"Location": {
"Latitude": 16.2526,
"Longitude": -61.2741
}
},
{
"Name": "Saint-Louis",
"PostCode": "97134",
"Location": {
"Latitude": 15.9549,
"Longitude": -61.3178
}
},
{
"Name": "Sainte-Anne",
"PostCode": "97180",
"Location": {
"Latitude": 16.2264,
"Longitude": -61.3792
}
}
]
}
]
}
]
}
]