[
{
"Name": "Zagrebačka",
"Provinces": [
{
"Communities": [
{
"Name": "Zagreb",
"Places": [
{
"Name": "Sljeme",
"PostCode": "10000",
"Location": {
"Latitude": 45.7333,
"Longitude": 15.9667
}
},
{
"Name": "Zagreb-dio",
"PostCode": "10000",
"Location": {
"Latitude": 45.7333,
"Longitude": 15.9667
}
},
{
"Name": "Zagreb-Trešnjevka",
"PostCode": "10110",
"Location": {
"Latitude": 45.7769,
"Longitude": 16.068
}
}
]
},
{
"Name": "Zagreb-Sloboština",
"Places": [
{
"Name": "Buzin",
"PostCode": "10010",
"Location": {
"Latitude": 45.75,
"Longitude": 16.0
}
},
{
"Name": "Veliko Polje",
"PostCode": "10010",
"Location": {
"Latitude": 45.75,
"Longitude": 16.0
}
},
{
"Name": "Zagreb-dio",
"PostCode": "10010",
"Location": {
"Latitude": 45.75,
"Longitude": 16.0
}
}
],
"PostCode": "10010"
},
{
"Name": "Zagreb-Novi Zagreb",
"Places": [
{
"Name": "Botinec",
"PostCode": "10020",
"Location": {
"Latitude": 45.75,
"Longitude": 15.95
}
},
{
"Name": "Donji Čehi",
"PostCode": "10020",
"Location": {
"Latitude": 45.7333,
"Longitude": 15.9667
}
},
{
"Name": "Gornji Čehi",
"PostCode": "10020",
"Location": {
"Latitude": 45.75,
"Longitude": 15.9667
}
},
{
"Name": "Hrašće Turopoljsko",
"PostCode": "10020",
"Location": {
"Latitude": 45.7333,
"Longitude": 16.0
}
},
{
"Name": "Mala Mlaka",
"PostCode": "10020",
"Location": {
"Latitude": 45.7333,
"Longitude": 15.9667
}
},
{
"Name": "Odra",
"PostCode": "10020",
"Location": {
"Latitude": 45.7333,
"Longitude": 16.0
}
},
{
"Name": "Odranski Obrež",
"PostCode": "10020",
"Location": {
"Latitude": 45.7167,
"Longitude": 15.9333
}
},
{
"Name": "Strmec",
"PostCode": "10020",
"Location": {
"Latitude": 45.7,
"Longitude": 15.9167
}
},
{
"Name": "Zagreb-dio",
"PostCode": "10020",
"Location": {
"Latitude": 45.7312,
"Longitude": 15.9625
}
}
],
"PostCode": "10020"
},
{
"Name": "Zagreb-Dubrava",
"Places": [
{
"Name": "Zagreb-dio",
"PostCode": "10040",
"Location": {
"Latitude": 45.7333,
"Longitude": 15.9667
}
}
],
"PostCode": "10040"
},
{
"Name": "Zagreb-Susedgrad",
"Places": [
{
"Name": "Zagreb-dio",
"PostCode": "10090",
"Location": {
"Latitude": 45.7333,
"Longitude": 15.9667
}
}
],
"PostCode": "10090"
},
{
"Name": "Lučko",
"Places": [
{
"Name": "Ježdovec",
"PostCode": "10250",
"Location": {
"Latitude": 45.7833,
"Longitude": 15.85
}
},
{
"Name": "Lučko",
"PostCode": "10250",
"Location": {
"Latitude": 45.7611,
"Longitude": 15.8703
}
}
],
"PostCode": "10250"
},
{
"Name": "Hrvatski Leskovac",
"Places": [
{
"Name": "Demerje",
"PostCode": "10251",
"Location": {
"Latitude": 45.7419,
"Longitude": 15.9075
}
},
{
"Name": "Hrvatski Leskovac",
"PostCode": "10251",
"Location": {
"Latitude": 45.7419,
"Longitude": 15.9075
}
}
],
"PostCode": "10251"
},
{
"Name": "Donji Dragonožec",
"Places": [
{
"Name": "Bukovčak",
"PostCode": "10253",
"Location": {
"Latitude": 45.6538,
"Longitude": 15.9504
}
},
{
"Name": "Donji Dragonožec",
"PostCode": "10253",
"Location": {
"Latitude": 45.6619,
"Longitude": 15.9469
}
},
{
"Name": "Donji Trupci",
"PostCode": "10253",
"Location": {
"Latitude": 45.6538,
"Longitude": 15.9504
}
},
{
"Name": "Gornji Dragonožec",
"PostCode": "10253",
"Location": {
"Latitude": 45.65,
"Longitude": 15.95
}
},
{
"Name": "Gornji Trupci",
"PostCode": "10253",
"Location": {
"Latitude": 45.6538,
"Longitude": 15.9504
}
},
{
"Name": "Gudci",
"PostCode": "10253",
"Location": {
"Latitude": 45.6569,
"Longitude": 15.9886
}
},
{
"Name": "Havidić Selo",
"PostCode": "10253",
"Location": {
"Latitude": 45.6538,
"Longitude": 15.9504
}
},
{
"Name": "Lipnica",
"PostCode": "10253",
"Location": {
"Latitude": 45.6333,
"Longitude": 15.9167
}
},
{
"Name": "Markuševec Turopoljski",
"PostCode": "10253",
"Location": {
"Latitude": 45.6667,
"Longitude": 15.95
}
}
],
"PostCode": "10253"
},
{
"Name": "Gornji Stupnik",
"Places": [
{
"Name": "Donji Stupnik",
"PostCode": "10255",
"Location": {
"Latitude": 45.7417,
"Longitude": 15.8917
}
},
{
"Name": "Gornji Stupnik",
"PostCode": "10255",
"Location": {
"Latitude": 45.7667,
"Longitude": 15.85
}
},
{
"Name": "Obrež Stupnički",
"PostCode": "10255",
"Location": {
"Latitude": 45.7167,
"Longitude": 15.9333
}
}
],
"PostCode": "10255"
},
{
"Name": "Brezovica",
"Places": [
{
"Name": "Brebernica",
"PostCode": "10257",
"Location": {
"Latitude": 45.6667,
"Longitude": 15.8833
}
},
{
"Name": "Brezovica",
"PostCode": "10257",
"Location": {
"Latitude": 45.7333,
"Longitude": 15.8833
}
},
{
"Name": "Desprim",
"PostCode": "10257",
"Location": {
"Latitude": 45.7111,
"Longitude": 15.8861
}
},
{
"Name": "Drežnik Brezovički",
"PostCode": "10257",
"Location": {
"Latitude": 45.7111,
"Longitude": 15.8861
}
},
{
"Name": "Goli Breg",
"PostCode": "10257",
"Location": {
"Latitude": 45.7333,
"Longitude": 15.9
}
},
{
"Name": "Graničari",
"PostCode": "10257",
"Location": {
"Latitude": 45.7111,
"Longitude": 15.8861
}
},
{
"Name": "Hudi Bitek",
"PostCode": "10257",
"Location": {
"Latitude": 45.7167,
"Longitude": 15.8833
}
},
{
"Name": "Kupinečki Kraljevec",
"PostCode": "10257",
"Location": {
"Latitude": 45.6833,
"Longitude": 15.85
}
},
{
"Name": "Stavjak",
"PostCode": "10257",
"Location": {
"Latitude": 45.7111,
"Longitude": 15.8861
}
},
{
"Name": "Zadvorsko",
"PostCode": "10257",
"Location": {
"Latitude": 45.7333,
"Longitude": 15.9167
}
}
],
"PostCode": "10257"
},
{
"Name": "Zaprešić",
"Places": [
{
"Name": "Ivanec Bistranski",
"PostCode": "10290",
"Location": {
"Latitude": 45.8469,
"Longitude": 15.8314
}
},
{
"Name": "Lužnica",
"PostCode": "10290",
"Location": {
"Latitude": 45.8517,
"Longitude": 15.8196
}
},
{
"Name": "Šibice",
"PostCode": "10290",
"Location": {
"Latitude": 45.8517,
"Longitude": 15.8196
}
},
{
"Name": "Zaprešić",
"PostCode": "10290",
"Location": {
"Latitude": 45.8564,
"Longitude": 15.8078
}
}
],
"PostCode": "10290"
},
{
"Name": "Prigorje Brdovečko",
"Places": [
{
"Name": "Brdovec",
"PostCode": "10291",
"Location": {
"Latitude": 45.8678,
"Longitude": 15.7833
}
},
{
"Name": "Drenje Brdovečko",
"PostCode": "10291",
"Location": {
"Latitude": 45.8741,
"Longitude": 15.7517
}
},
{
"Name": "Javorje",
"PostCode": "10291",
"Location": {
"Latitude": 45.8667,
"Longitude": 15.7667
}
},
{
"Name": "Prigorje Brdovečko",
"PostCode": "10291",
"Location": {
"Latitude": 45.8794,
"Longitude": 15.7381
}
},
{
"Name": "Prudnice",
"PostCode": "10291",
"Location": {
"Latitude": 45.8741,
"Longitude": 15.7517
}
},
{
"Name": "Savski Marof",
"PostCode": "10291",
"Location": {
"Latitude": 45.8642,
"Longitude": 15.7219
}
},
{
"Name": "Trstenik Pušćanski",
"PostCode": "10291",
"Location": {
"Latitude": 45.9,
"Longitude": 15.75
}
},
{
"Name": "Zdenci Brdovečki",
"PostCode": "10291",
"Location": {
"Latitude": 45.8667,
"Longitude": 15.75
}
}
],
"PostCode": "10291"
},
{
"Name": "Šenkovec",
"Places": [
{
"Name": "Donji Laduč",
"PostCode": "10292",
"Location": {
"Latitude": 45.8833,
"Longitude": 15.7333
}
},
{
"Name": "Gornji Laduč",
"PostCode": "10292",
"Location": {
"Latitude": 45.8833,
"Longitude": 15.7333
}
},
{
"Name": "Harmica",
"PostCode": "10292",
"Location": {
"Latitude": 45.8833,
"Longitude": 15.7
}
},
{
"Name": "Ključ Brdovečki",
"PostCode": "10292",
"Location": {
"Latitude": 45.8667,
"Longitude": 15.7
}
},
{
"Name": "Šenkovec",
"PostCode": "10292",
"Location": {
"Latitude": 45.8889,
"Longitude": 15.7003
}
},
{
"Name": "Vukovo Selo",
"PostCode": "10292",
"Location": {
"Latitude": 45.8811,
"Longitude": 15.7134
}
}
],
"PostCode": "10292"
},
{
"Name": "Dubravica",
"Places": [
{
"Name": "Bela Gorica",
"PostCode": "10293",
"Location": {
"Latitude": 45.9333,
"Longitude": 15.7167
}
},
{
"Name": "Bobovec Rozganski",
"PostCode": "10293",
"Location": {
"Latitude": 45.95,
"Longitude": 15.7278
}
},
{
"Name": "Donji Čemehovec",
"PostCode": "10293",
"Location": {
"Latitude": 45.95,
"Longitude": 15.7278
}
},
{
"Name": "Dubravica",
"PostCode": "10293",
"Location": {
"Latitude": 45.95,
"Longitude": 15.7333
}
},
{
"Name": "Kraj Gornji -južni dio",
"PostCode": "10293",
"Location": {
"Latitude": 45.95,
"Longitude": 15.7278
}
},
{
"Name": "Kraj Gornji -sjeverni dio",
"PostCode": "10293",
"Location": {
"Latitude": 45.95,
"Longitude": 15.7278
}
},
{
"Name": "Lugarski Breg",
"PostCode": "10293",
"Location": {
"Latitude": 45.95,
"Longitude": 15.7278
}
},
{
"Name": "Lukavec Sutlanski",
"PostCode": "10293",
"Location": {
"Latitude": 45.9667,
"Longitude": 15.7333
}
},
{
"Name": "Pologi",
"PostCode": "10293",
"Location": {
"Latitude": 45.95,
"Longitude": 15.7278
}
},
{
"Name": "Prosinec",
"PostCode": "10293",
"Location": {
"Latitude": 45.95,
"Longitude": 15.7278
}
},
{
"Name": "Rozga",
"PostCode": "10293",
"Location": {
"Latitude": 45.95,
"Longitude": 15.7278
}
},
{
"Name": "Vučilčevo",
"PostCode": "10293",
"Location": {
"Latitude": 45.95,
"Longitude": 15.7278
}
}
],
"PostCode": "10293"
},
{
"Name": "Donja Pušća",
"Places": [
{
"Name": "Bregovljana",
"PostCode": "10294",
"Location": {
"Latitude": 45.9183,
"Longitude": 15.7872
}
},
{
"Name": "Celine Pušćanske",
"PostCode": "10294",
"Location": {
"Latitude": 45.9183,
"Longitude": 15.7872
}
},
{
"Name": "Donja Pušća",
"PostCode": "10294",
"Location": {
"Latitude": 45.9167,
"Longitude": 15.7778
}
},
{
"Name": "Dubrava Pušćanska",
"PostCode": "10294",
"Location": {
"Latitude": 45.9183,
"Longitude": 15.7872
}
},
{
"Name": "Gornja Pušća",
"PostCode": "10294",
"Location": {
"Latitude": 45.9333,
"Longitude": 15.7833
}
},
{
"Name": "Hrebine",
"PostCode": "10294",
"Location": {
"Latitude": 45.9183,
"Longitude": 15.7872
}
},
{
"Name": "Hruševec Pušćanski",
"PostCode": "10294",
"Location": {
"Latitude": 45.9183,
"Longitude": 15.7872
}
},
{
"Name": "Marija Magdalena",
"PostCode": "10294",
"Location": {
"Latitude": 45.9183,
"Longitude": 15.7872
}
},
{
"Name": "Pojatno",
"PostCode": "10294",
"Location": {
"Latitude": 45.905,
"Longitude": 15.8006
}
},
{
"Name": "Žlebec Gorički",
"PostCode": "10294",
"Location": {
"Latitude": 45.9183,
"Longitude": 15.7872
}
},
{
"Name": "Žlebec Pušćanski",
"PostCode": "10294",
"Location": {
"Latitude": 45.9183,
"Longitude": 15.7872
}
}
],
"PostCode": "10294"
},
{
"Name": "Kupljenovo",
"Places": [
{
"Name": "Hruševec Kupljenski",
"PostCode": "10295",
"Location": {
"Latitude": 45.9333,
"Longitude": 15.8167
}
},
{
"Name": "Kupljenovo",
"PostCode": "10295",
"Location": {
"Latitude": 45.9333,
"Longitude": 15.8167
}
},
{
"Name": "Merenje",
"PostCode": "10295",
"Location": {
"Latitude": 45.9333,
"Longitude": 15.8167
}
}
],
"PostCode": "10295"
},
{
"Name": "Luka",
"Places": [
{
"Name": "Krajska Vas",
"PostCode": "10296",
"Location": {
"Latitude": 45.9667,
"Longitude": 15.8167
}
},
{
"Name": "Luka",
"PostCode": "10296",
"Location": {
"Latitude": 45.9667,
"Longitude": 15.8167
}
},
{
"Name": "Pluska",
"PostCode": "10296",
"Location": {
"Latitude": 45.9667,
"Longitude": 15.8167
}
},
{
"Name": "Vadina",
"PostCode": "10296",
"Location": {
"Latitude": 45.9667,
"Longitude": 15.8167
}
},
{
"Name": "Žejinci",
"PostCode": "10296",
"Location": {
"Latitude": 45.9667,
"Longitude": 15.8167
}
}
],
"PostCode": "10296"
},
{
"Name": "Jakovlje",
"Places": [
{
"Name": "Igrišće",
"PostCode": "10297",
"Location": {
"Latitude": 45.9667,
"Longitude": 15.8667
}
},
{
"Name": "Jakovlje",
"PostCode": "10297",
"Location": {
"Latitude": 45.9514,
"Longitude": 15.8561
}
},
{
"Name": "Kraljev Vrh",
"PostCode": "10297",
"Location": {
"Latitude": 45.95,
"Longitude": 15.9167
}
}
],
"PostCode": "10297"
},
{
"Name": "Donja Bistra",
"Places": [
{
"Name": "Bukovje Bistransko",
"PostCode": "10298",
"Location": {
"Latitude": 45.8833,
"Longitude": 15.85
}
},
{
"Name": "Donja Bistra",
"PostCode": "10298",
"Location": {
"Latitude": 45.9078,
"Longitude": 15.8544
}
},
{
"Name": "Gornja Bistra",
"PostCode": "10298",
"Location": {
"Latitude": 45.9167,
"Longitude": 15.9
}
},
{
"Name": "Jablanovec",
"PostCode": "10298",
"Location": {
"Latitude": 45.8758,
"Longitude": 15.8536
}
},
{
"Name": "Novaki Bistranski",
"PostCode": "10298",
"Location": {
"Latitude": 45.8833,
"Longitude": 15.8667
}
},
{
"Name": "Oborovo Bistransko",
"PostCode": "10298",
"Location": {
"Latitude": 45.8945,
"Longitude": 15.868
}
},
{
"Name": "Poljanica Bistranska",
"PostCode": "10298",
"Location": {
"Latitude": 45.9,
"Longitude": 15.8833
}
}
],
"PostCode": "10298"
},
{
"Name": "Marija Gorica",
"Places": [
{
"Name": "Hrastina Brdovečka",
"PostCode": "10299",
"Location": {
"Latitude": 45.9167,
"Longitude": 15.7333
}
},
{
"Name": "Kraj Donji",
"PostCode": "10299",
"Location": {
"Latitude": 45.9167,
"Longitude": 15.7333
}
},
{
"Name": "Križ Brdovečki",
"PostCode": "10299",
"Location": {
"Latitude": 45.9167,
"Longitude": 15.7333
}
},
{
"Name": "Marija Gorica",
"PostCode": "10299",
"Location": {
"Latitude": 45.9167,
"Longitude": 15.7333
}
},
{
"Name": "Oplaznik",
"PostCode": "10299",
"Location": {
"Latitude": 45.9167,
"Longitude": 15.7333
}
}
],
"PostCode": "10299"
},
{
"Name": "Ivanić-Grad",
"Places": [
{
"Name": "Donji Šarampov",
"PostCode": "10310",
"Location": {
"Latitude": 45.7,
"Longitude": 16.4167
}
},
{
"Name": "Ivanić Grad",
"PostCode": "10310",
"Location": {
"Latitude": 45.7083,
"Longitude": 16.3969
}
},
{
"Name": "Jalševec Breški",
"PostCode": "10310",
"Location": {
"Latitude": 45.7146,
"Longitude": 16.3909
}
},
{
"Name": "Lepšić",
"PostCode": "10310",
"Location": {
"Latitude": 45.7146,
"Longitude": 16.3909
}
},
{
"Name": "Opatinec",
"PostCode": "10310",
"Location": {
"Latitude": 45.7167,
"Longitude": 16.3833
}
},
{
"Name": "Tarno",
"PostCode": "10310",
"Location": {
"Latitude": 45.7333,
"Longitude": 16.3667
}
}
],
"PostCode": "10310"
},
{
"Name": "Posavski Bregi",
"Places": [
{
"Name": "Greda Breška",
"PostCode": "10311",
"Location": {
"Latitude": 45.6868,
"Longitude": 16.3426
}
},
{
"Name": "Posavski Bregi",
"PostCode": "10311",
"Location": {
"Latitude": 45.6797,
"Longitude": 16.3536
}
},
{
"Name": "Šemovec Breški",
"PostCode": "10311",
"Location": {
"Latitude": 45.6868,
"Longitude": 16.3426
}
},
{
"Name": "Topolje",
"PostCode": "10311",
"Location": {
"Latitude": 45.6508,
"Longitude": 16.3503
}
},
{
"Name": "Trebovec",
"PostCode": "10311",
"Location": {
"Latitude": 45.7167,
"Longitude": 16.3167
}
},
{
"Name": "Zaklepica",
"PostCode": "10311",
"Location": {
"Latitude": 45.7,
"Longitude": 16.35
}
},
{
"Name": "Zelina Breška",
"PostCode": "10311",
"Location": {
"Latitude": 45.6868,
"Longitude": 16.3426
}
}
],
"PostCode": "10311"
},
{
"Name": "Kloštar Ivanić",
"Places": [
{
"Name": "Bešlinec",
"PostCode": "10312",
"Location": {
"Latitude": 45.7631,
"Longitude": 16.4506
}
},
{
"Name": "Čemernica Lonjska",
"PostCode": "10312",
"Location": {
"Latitude": 45.7667,
"Longitude": 16.4167
}
},
{
"Name": "Donja Obreška",
"PostCode": "10312",
"Location": {
"Latitude": 45.7833,
"Longitude": 16.45
}
},
{
"Name": "Gornja Obreška",
"PostCode": "10312",
"Location": {
"Latitude": 45.7833,
"Longitude": 16.45
}
},
{
"Name": "Kloštar Ivanić",
"PostCode": "10312",
"Location": {
"Latitude": 45.7406,
"Longitude": 16.4242
}
},
{
"Name": "Križci",
"PostCode": "10312",
"Location": {
"Latitude": 45.7667,
"Longitude": 16.4333
}
},
{
"Name": "Lipovec Lonjski",
"PostCode": "10312",
"Location": {
"Latitude": 45.7619,
"Longitude": 16.4429
}
},
{
"Name": "Predavec",
"PostCode": "10312",
"Location": {
"Latitude": 45.75,
"Longitude": 16.4333
}
},
{
"Name": "Šćapovec",
"PostCode": "10312",
"Location": {
"Latitude": 45.75,
"Longitude": 16.4167
}
},
{
"Name": "Sobočani",
"PostCode": "10312",
"Location": {
"Latitude": 45.7322,
"Longitude": 16.4547
}
},
{
"Name": "Stara Marča",
"PostCode": "10312",
"Location": {
"Latitude": 45.7833,
"Longitude": 16.5
}
}
],
"PostCode": "10312"
},
{
"Name": "Graberje Ivaničko",
"Places": [
{
"Name": "Caginec",
"PostCode": "10313",
"Location": {
"Latitude": 45.7069,
"Longitude": 16.4746
}
},
{
"Name": "Deanovec",
"PostCode": "10313",
"Location": {
"Latitude": 45.6953,
"Longitude": 16.4819
}
},
{
"Name": "Derežani",
"PostCode": "10313",
"Location": {
"Latitude": 45.7,
"Longitude": 16.4667
}
},
{
"Name": "Graberje Ivanićko",
"PostCode": "10313",
"Location": {
"Latitude": 45.7167,
"Longitude": 16.4833
}
},
{
"Name": "Prkos Ivanićki",
"PostCode": "10313",
"Location": {
"Latitude": 45.7136,
"Longitude": 16.4525
}
},
{
"Name": "Šumećani",
"PostCode": "10313",
"Location": {
"Latitude": 45.7089,
"Longitude": 16.4883
}
}
],
"PostCode": "10313"
},
{
"Name": "Križ",
"Places": [
{
"Name": "Bunjani",
"PostCode": "10314",
"Location": {
"Latitude": 45.7,
"Longitude": 16.5
}
},
{
"Name": "Donji Prnjarovec",
"PostCode": "10314",
"Location": {
"Latitude": 45.6833,
"Longitude": 16.55
}
},
{
"Name": "Gornji Prnjarovec",
"PostCode": "10314",
"Location": {
"Latitude": 45.6833,
"Longitude": 16.5333
}
},
{
"Name": "Johovec",
"PostCode": "10314",
"Location": {
"Latitude": 45.6667,
"Longitude": 16.4833
}
},
{
"Name": "Križ",
"PostCode": "10314",
"Location": {
"Latitude": 45.665,
"Longitude": 16.5233
}
},
{
"Name": "Mala Hrastilnica",
"PostCode": "10314",
"Location": {
"Latitude": 45.65,
"Longitude": 16.5
}
},
{
"Name": "Širinec",
"PostCode": "10314",
"Location": {
"Latitude": 45.6783,
"Longitude": 16.4994
}
},
{
"Name": "Šušnjari",
"PostCode": "10314",
"Location": {
"Latitude": 45.693,
"Longitude": 16.5327
}
},
{
"Name": "Velika Hrastilnica",
"PostCode": "10314",
"Location": {
"Latitude": 45.65,
"Longitude": 16.4833
}
}
],
"PostCode": "10314"
},
{
"Name": "Novoselec",
"Places": [
{
"Name": "Konšćani",
"PostCode": "10315",
"Location": {
"Latitude": 45.6667,
"Longitude": 16.55
}
},
{
"Name": "Novoselec",
"PostCode": "10315",
"Location": {
"Latitude": 45.6525,
"Longitude": 16.5364
}
},
{
"Name": "Obedišće",
"PostCode": "10315",
"Location": {
"Latitude": 45.6331,
"Longitude": 16.5553
}
},
{
"Name": "Okešinec",
"PostCode": "10315",
"Location": {
"Latitude": 45.6347,
"Longitude": 16.5339
}
},
{
"Name": "Razljev",
"PostCode": "10315",
"Location": {
"Latitude": 45.6442,
"Longitude": 16.5483
}
},
{
"Name": "Rečica Kriška",
"PostCode": "10315",
"Location": {
"Latitude": 45.6617,
"Longitude": 16.5808
}
},
{
"Name": "Vezišće",
"PostCode": "10315",
"Location": {
"Latitude": 45.6167,
"Longitude": 16.5333
}
}
],
"PostCode": "10315"
},
{
"Name": "Lijevi Dubrovčak",
"Places": [
{
"Name": "Lijevi Dubrovčak",
"PostCode": "10316",
"Location": {
"Latitude": 45.6517,
"Longitude": 16.3456
}
},
{
"Name": "Prerovec",
"PostCode": "10316",
"Location": {
"Latitude": 45.6447,
"Longitude": 16.3033
}
}
],
"PostCode": "10316"
},
{
"Name": "Vrbovec",
"Places": [
{
"Name": "Banovo",
"PostCode": "10340",
"Location": {
"Latitude": 45.9161,
"Longitude": 16.4046
}
},
{
"Name": "Brčevec",
"PostCode": "10340",
"Location": {
"Latitude": 45.8667,
"Longitude": 16.4167
}
},
{
"Name": "Celine",
"PostCode": "10340",
"Location": {
"Latitude": 45.8931,
"Longitude": 16.4047
}
},
{
"Name": "Cerik",
"PostCode": "10340",
"Location": {
"Latitude": 45.9161,
"Longitude": 16.4046
}
},
{
"Name": "Cerje",
"PostCode": "10340",
"Location": {
"Latitude": 45.9,
"Longitude": 16.4167
}
},
{
"Name": "Dijaneš",
"PostCode": "10340",
"Location": {
"Latitude": 45.9,
"Longitude": 16.35
}
},
{
"Name": "Đivan",
"PostCode": "10340",
"Location": {
"Latitude": 45.9161,
"Longitude": 16.4046
}
},
{
"Name": "Gaj",
"PostCode": "10340",
"Location": {
"Latitude": 45.8989,
"Longitude": 16.3725
}
},
{
"Name": "Gostović",
"PostCode": "10340",
"Location": {
"Latitude": 45.9161,
"Longitude": 16.4046
}
},
{
"Name": "Graberanec",
"PostCode": "10340",
"Location": {
"Latitude": 45.9161,
"Longitude": 16.4046
}
},
{
"Name": "Hruškovica",
"PostCode": "10340",
"Location": {
"Latitude": 45.9333,
"Longitude": 16.4167
}
},
{
"Name": "Konak",
"PostCode": "10340",
"Location": {
"Latitude": 45.9161,
"Longitude": 16.4046
}
},
{
"Name": "Krkač",
"PostCode": "10340",
"Location": {
"Latitude": 45.9167,
"Longitude": 16.3333
}
},
{
"Name": "Kućari",
"PostCode": "10340",
"Location": {
"Latitude": 45.9161,
"Longitude": 16.4046
}
},
{
"Name": "Lazarevac",
"PostCode": "10340",
"Location": {
"Latitude": 45.9161,
"Longitude": 16.4046
}
},
{
"Name": "Lovrečka Varoš",
"PostCode": "10340",
"Location": {
"Latitude": 45.9167,
"Longitude": 16.4167
}
},
{
"Name": "Lovrečka Velika",
"PostCode": "10340",
"Location": {
"Latitude": 45.9161,
"Longitude": 16.4046
}
},
{
"Name": "Luka",
"PostCode": "10340",
"Location": {
"Latitude": 45.8783,
"Longitude": 16.3817
}
},
{
"Name": "Lukovo",
"PostCode": "10340",
"Location": {
"Latitude": 45.9167,
"Longitude": 16.4
}
},
{
"Name": "Marenić",
"PostCode": "10340",
"Location": {
"Latitude": 45.9161,
"Longitude": 16.4046
}
},
{
"Name": "Martinska Ves",
"PostCode": "10340",
"Location": {
"Latitude": 45.9161,
"Longitude": 16.4046
}
},
{
"Name": "Naselje Stjepana Radića",
"PostCode": "10340",
"Location": {
"Latitude": 45.9161,
"Longitude": 16.4046
}
},
{
"Name": "Novo Selo",
"PostCode": "10340",
"Location": {
"Latitude": 46.3308,
"Longitude": 16.4325
}
},
{
"Name": "Podolec",
"PostCode": "10340",
"Location": {
"Latitude": 45.9161,
"Longitude": 16.4046
}
},
{
"Name": "Poljana",
"PostCode": "10340",
"Location": {
"Latitude": 45.85,
"Longitude": 16.45
}
},
{
"Name": "Poljanski Lug",
"PostCode": "10340",
"Location": {
"Latitude": 45.8333,
"Longitude": 16.4167
}
},
{
"Name": "Prilesje",
"PostCode": "10340",
"Location": {
"Latitude": 45.85,
"Longitude": 16.4167
}
},
{
"Name": "Savska Cesta",
"PostCode": "10340",
"Location": {
"Latitude": 45.9161,
"Longitude": 16.4046
}
},
{
"Name": "Topolovec",
"PostCode": "10340",
"Location": {
"Latitude": 45.9,
"Longitude": 16.4
}
},
{
"Name": "Vrbovec",
"PostCode": "10340",
"Location": {
"Latitude": 45.8833,
"Longitude": 16.4217
}
},
{
"Name": "Vrbovečki Pavlovec",
"PostCode": "10340",
"Location": {
"Latitude": 45.9061,
"Longitude": 16.4314
}
}
],
"PostCode": "10340"
},
{
"Name": "Lonjica",
"Places": [
{
"Name": "Dulepska",
"PostCode": "10341",
"Location": {
"Latitude": 45.8723,
"Longitude": 16.3374
}
},
{
"Name": "Greda",
"PostCode": "10341",
"Location": {
"Latitude": 45.8667,
"Longitude": 16.35
}
},
{
"Name": "Lonjica",
"PostCode": "10341",
"Location": {
"Latitude": 45.855,
"Longitude": 16.33
}
},
{
"Name": "Negovec",
"PostCode": "10341",
"Location": {
"Latitude": 45.8833,
"Longitude": 16.3167
}
},
{
"Name": "Peskovec",
"PostCode": "10341",
"Location": {
"Latitude": 45.8731,
"Longitude": 16.3236
}
},
{
"Name": "Pirakovec",
"PostCode": "10341",
"Location": {
"Latitude": 45.8833,
"Longitude": 16.3667
}
}
],
"PostCode": "10341"
},
{
"Name": "Dubrava",
"Places": [
{
"Name": "Bađinec",
"PostCode": "10342",
"Location": {
"Latitude": 45.8144,
"Longitude": 16.5614
}
},
{
"Name": "Brezje",
"PostCode": "10342",
"Location": {
"Latitude": 45.8333,
"Longitude": 16.5333
}
},
{
"Name": "Donji Marinkovac",
"PostCode": "10342",
"Location": {
"Latitude": 45.7833,
"Longitude": 16.5
}
},
{
"Name": "Donji Vukašinac",
"PostCode": "10342",
"Location": {
"Latitude": 45.8219,
"Longitude": 16.5336
}
},
{
"Name": "Dubrava",
"PostCode": "10342",
"Location": {
"Latitude": 45.8381,
"Longitude": 16.5439
}
},
{
"Name": "Dubravski Markovac",
"PostCode": "10342",
"Location": {
"Latitude": 45.85,
"Longitude": 16.5167
}
},
{
"Name": "Gornji Marinkovac",
"PostCode": "10342",
"Location": {
"Latitude": 45.8,
"Longitude": 16.5
}
},
{
"Name": "Gornji Vukašinac",
"PostCode": "10342",
"Location": {
"Latitude": 45.8219,
"Longitude": 16.5336
}
},
{
"Name": "Graberec",
"PostCode": "10342",
"Location": {
"Latitude": 45.8,
"Longitude": 16.55
}
},
{
"Name": "Koritna",
"PostCode": "10342",
"Location": {
"Latitude": 45.8642,
"Longitude": 16.5019
}
},
{
"Name": "Kostanj",
"PostCode": "10342",
"Location": {
"Latitude": 45.8333,
"Longitude": 16.5833
}
},
{
"Name": "Ladina",
"PostCode": "10342",
"Location": {
"Latitude": 45.85,
"Longitude": 16.5167
}
},
{
"Name": "Mostari",
"PostCode": "10342",
"Location": {
"Latitude": 45.7831,
"Longitude": 16.5036
}
},
{
"Name": "Novaki",
"PostCode": "10342",
"Location": {
"Latitude": 45.8333,
"Longitude": 16.5667
}
},
{
"Name": "Paruževac",
"PostCode": "10342",
"Location": {
"Latitude": 45.8333,
"Longitude": 16.5
}
},
{
"Name": "Pehardovac",
"PostCode": "10342",
"Location": {
"Latitude": 45.8219,
"Longitude": 16.5336
}
},
{
"Name": "Podlužan",
"PostCode": "10342",
"Location": {
"Latitude": 45.8167,
"Longitude": 16.5667
}
},
{
"Name": "Radulec",
"PostCode": "10342",
"Location": {
"Latitude": 45.8219,
"Longitude": 16.5336
}
},
{
"Name": "Svinjarec",
"PostCode": "10342",
"Location": {
"Latitude": 45.8,
"Longitude": 16.5667
}
},
{
"Name": "Zetkan",
"PostCode": "10342",
"Location": {
"Latitude": 45.8167,
"Longitude": 16.55
}
},
{
"Name": "Zgališće",
"PostCode": "10342",
"Location": {
"Latitude": 45.8219,
"Longitude": 16.5336
}
},
{
"Name": "Žukovec",
"PostCode": "10342",
"Location": {
"Latitude": 45.8219,
"Longitude": 16.5336
}
},
{
"Name": "Zvekovac",
"PostCode": "10342",
"Location": {
"Latitude": 45.8228,
"Longitude": 16.5103
}
}
],
"PostCode": "10342"
},
{
"Name": "Nova Kapela",
"Places": [
{
"Name": "Fuka",
"PostCode": "10343",
"Location": {
"Latitude": 45.8833,
"Longitude": 16.5333
}
},
{
"Name": "Habjanovac",
"PostCode": "10343",
"Location": {
"Latitude": 45.8667,
"Longitude": 16.55
}
},
{
"Name": "Haganj",
"PostCode": "10343",
"Location": {
"Latitude": 45.91,
"Longitude": 16.5819
}
},
{
"Name": "Nova Kapela",
"PostCode": "10343",
"Location": {
"Latitude": 45.1989,
"Longitude": 17.6392
}
},
{
"Name": "Stara Kapela",
"PostCode": "10343",
"Location": {
"Latitude": 45.2364,
"Longitude": 17.6878
}
},
{
"Name": "Stari Glog",
"PostCode": "10343",
"Location": {
"Latitude": 45.9,
"Longitude": 16.55
}
},
{
"Name": "Žabnica",
"PostCode": "10343",
"Location": {
"Latitude": 45.6659,
"Longitude": 16.9237
}
}
],
"PostCode": "10343"
},
{
"Name": "Farkaševac",
"Places": [
{
"Name": "Bolč",
"PostCode": "10344",
"Location": {
"Latitude": 45.8872,
"Longitude": 16.6789
}
},
{
"Name": "Brezine",
"PostCode": "10344",
"Location": {
"Latitude": 45.4567,
"Longitude": 17.0364
}
},
{
"Name": "Donji Markovac",
"PostCode": "10344",
"Location": {
"Latitude": 45.85,
"Longitude": 16.6667
}
},
{
"Name": "Farkaševac",
"PostCode": "10344",
"Location": {
"Latitude": 45.8794,
"Longitude": 16.6408
}
},
{
"Name": "Ivančani",
"PostCode": "10344",
"Location": {
"Latitude": 45.8667,
"Longitude": 16.6167
}
},
{
"Name": "Kabal",
"PostCode": "10344",
"Location": {
"Latitude": 45.8594,
"Longitude": 16.6406
}
},
{
"Name": "Mački",
"PostCode": "10344",
"Location": {
"Latitude": 45.65,
"Longitude": 15.9167
}
},
{
"Name": "Majur",
"PostCode": "10344",
"Location": {
"Latitude": 45.9167,
"Longitude": 16.7
}
},
{
"Name": "Prašćevac",
"PostCode": "10344",
"Location": {
"Latitude": 45.9167,
"Longitude": 16.65
}
},
{
"Name": "Zvonik",
"PostCode": "10344",
"Location": {
"Latitude": 45.9,
"Longitude": 16.65
}
}
],
"PostCode": "10344"
},
{
"Name": "Gradec",
"Places": [
{
"Name": "Buzadovac",
"PostCode": "10345",
"Location": {
"Latitude": 45.95,
"Longitude": 16.5667
}
},
{
"Name": "Cugovec",
"PostCode": "10345",
"Location": {
"Latitude": 45.9117,
"Longitude": 16.5189
}
},
{
"Name": "Festinec",
"PostCode": "10345",
"Location": {
"Latitude": 45.95,
"Longitude": 16.5167
}
},
{
"Name": "Grabrić",
"PostCode": "10345",
"Location": {
"Latitude": 45.9475,
"Longitude": 16.4879
}
},
{
"Name": "Gradec",
"PostCode": "10345",
"Location": {
"Latitude": 45.9111,
"Longitude": 16.4828
}
},
{
"Name": "Gradečki Pavlovec",
"PostCode": "10345",
"Location": {
"Latitude": 45.9,
"Longitude": 16.4833
}
},
{
"Name": "Lubena",
"PostCode": "10345",
"Location": {
"Latitude": 45.9475,
"Longitude": 16.4879
}
},
{
"Name": "Mali Brezovec",
"PostCode": "10345",
"Location": {
"Latitude": 45.9475,
"Longitude": 16.4879
}
},
{
"Name": "Podjales",
"PostCode": "10345",
"Location": {
"Latitude": 45.9333,
"Longitude": 16.5
}
},
{
"Name": "Pokasin",
"PostCode": "10345",
"Location": {
"Latitude": 45.9667,
"Longitude": 16.5167
}
},
{
"Name": "Potočec",
"PostCode": "10345",
"Location": {
"Latitude": 45.8833,
"Longitude": 16.4667
}
},
{
"Name": "Remetinec",
"PostCode": "10345",
"Location": {
"Latitude": 46.1853,
"Longitude": 16.3278
}
},
{
"Name": "Repinec",
"PostCode": "10345",
"Location": {
"Latitude": 45.9475,
"Longitude": 16.4879
}
},
{
"Name": "Salajci",
"PostCode": "10345",
"Location": {
"Latitude": 45.9475,
"Longitude": 16.4879
}
},
{
"Name": "Tučenik",
"PostCode": "10345",
"Location": {
"Latitude": 45.9475,
"Longitude": 16.4879
}
},
{
"Name": "Veliki Brezovec",
"PostCode": "10345",
"Location": {
"Latitude": 45.9475,
"Longitude": 16.4879
}
},
{
"Name": "Zabrđe",
"PostCode": "10345",
"Location": {
"Latitude": 45.8833,
"Longitude": 16.5
}
}
],
"PostCode": "10345"
},
{
"Name": "Preseka",
"Places": [
{
"Name": "Gornjaki",
"PostCode": "10346",
"Location": {
"Latitude": 45.947,
"Longitude": 16.2259
}
},
{
"Name": "Kamenica",
"PostCode": "10346",
"Location": {
"Latitude": 46.2453,
"Longitude": 16.0331
}
},
{
"Name": "Kraljev Vrh",
"PostCode": "10346",
"Location": {
"Latitude": 45.95,
"Longitude": 15.9167
}
},
{
"Name": "Krušljevac",
"PostCode": "10346",
"Location": {
"Latitude": 45.9833,
"Longitude": 16.3833
}
},
{
"Name": "Ledina",
"PostCode": "10346",
"Location": {
"Latitude": 46.0,
"Longitude": 16.3833
}
},
{
"Name": "Pogančec",
"PostCode": "10346",
"Location": {
"Latitude": 45.95,
"Longitude": 16.3833
}
},
{
"Name": "Preseka",
"PostCode": "10346",
"Location": {
"Latitude": 45.9667,
"Longitude": 16.3833
}
},
{
"Name": "Slatina",
"PostCode": "10346",
"Location": {
"Latitude": 45.4747,
"Longitude": 16.0256
}
},
{
"Name": "Strmec",
"PostCode": "10346",
"Location": {
"Latitude": 45.9667,
"Longitude": 15.9167
}
},
{
"Name": "Vinkovec /dio/",
"PostCode": "10346",
"Location": {
"Latitude": 45.947,
"Longitude": 16.2259
}
},
{
"Name": "Žabnjak",
"PostCode": "10346",
"Location": {
"Latitude": 45.9833,
"Longitude": 16.4
}
},
{
"Name": "Žunci",
"PostCode": "10346",
"Location": {
"Latitude": 45.95,
"Longitude": 16.4333
}
}
],
"PostCode": "10346"
},
{
"Name": "Rakovec",
"Places": [
{
"Name": "Baničevec",
"PostCode": "10347",
"Location": {
"Latitude": 45.9167,
"Longitude": 16.2833
}
},
{
"Name": "Brezani",
"PostCode": "10347",
"Location": {
"Latitude": 45.9167,
"Longitude": 16.3333
}
},
{
"Name": "Dropčevec",
"PostCode": "10347",
"Location": {
"Latitude": 45.8893,
"Longitude": 16.2376
}
},
{
"Name": "Dvorišće",
"PostCode": "10347",
"Location": {
"Latitude": 45.9503,
"Longitude": 16.3367
}
},
{
"Name": "Goli Vrh",
"PostCode": "10347",
"Location": {
"Latitude": 45.6886,
"Longitude": 15.7164
}
},
{
"Name": "Hruškovec",
"PostCode": "10347",
"Location": {
"Latitude": 45.9333,
"Longitude": 16.3333
}
},
{
"Name": "Hudovo",
"PostCode": "10347",
"Location": {
"Latitude": 45.9333,
"Longitude": 16.35
}
},
{
"Name": "Kolenica",
"PostCode": "10347",
"Location": {
"Latitude": 45.8893,
"Longitude": 16.2376
}
},
{
"Name": "Lipnica",
"PostCode": "10347",
"Location": {
"Latitude": 45.6333,
"Longitude": 15.9167
}
},
{
"Name": "Mlaka",
"PostCode": "10347",
"Location": {
"Latitude": 45.9167,
"Longitude": 16.2833
}
},
{
"Name": "Rakovec",
"PostCode": "10347",
"Location": {
"Latitude": 45.9303,
"Longitude": 16.3225
}
},
{
"Name": "Samoborec",
"PostCode": "10347",
"Location": {
"Latitude": 45.8942,
"Longitude": 16.3167
}
},
{
"Name": "Šelovec",
"PostCode": "10347",
"Location": {
"Latitude": 45.9803,
"Longitude": 16.2639
}
},
{
"Name": "Valetić",
"PostCode": "10347",
"Location": {
"Latitude": 45.9667,
"Longitude": 16.3333
}
},
{
"Name": "Vrhovec",
"PostCode": "10347",
"Location": {
"Latitude": 45.9,
"Longitude": 16.3
}
}
],
"PostCode": "10347"
},
{
"Name": "Sesvete",
"Places": [
{
"Name": "Budenec",
"PostCode": "10360",
"Location": {
"Latitude": 45.8586,
"Longitude": 16.1289
}
},
{
"Name": "Dobrodol",
"PostCode": "10360",
"Location": {
"Latitude": 45.85,
"Longitude": 16.1
}
},
{
"Name": "Goranec",
"PostCode": "10360",
"Location": {
"Latitude": 45.8281,
"Longitude": 16.1162
}
},
{
"Name": "Kućanec",
"PostCode": "10360",
"Location": {
"Latitude": 45.8586,
"Longitude": 16.1289
}
},
{
"Name": "Markovo Polje",
"PostCode": "10360",
"Location": {
"Latitude": 45.8586,
"Longitude": 16.1289
}
},
{
"Name": "Popovec",
"PostCode": "10360",
"Location": {
"Latitude": 45.8536,
"Longitude": 16.1406
}
},
{
"Name": "Šašinovec",
"PostCode": "10360",
"Location": {
"Latitude": 45.85,
"Longitude": 16.1667
}
},
{
"Name": "Sesvete",
"PostCode": "10360",
"Location": {
"Latitude": 45.8311,
"Longitude": 16.1164
}
},
{
"Name": "Šimunčevec",
"PostCode": "10360",
"Location": {
"Latitude": 45.8586,
"Longitude": 16.1289
}
},
{
"Name": "Soblinec",
"PostCode": "10360",
"Location": {
"Latitude": 45.8586,
"Longitude": 16.1289
}
},
{
"Name": "Vuger Selo",
"PostCode": "10360",
"Location": {
"Latitude": 45.8586,
"Longitude": 16.1289
}
},
{
"Name": "Vugrovec Donji",
"PostCode": "10360",
"Location": {
"Latitude": 45.8586,
"Longitude": 16.1289
}
},
{
"Name": "Vugrovec Gornji",
"PostCode": "10360",
"Location": {
"Latitude": 45.8586,
"Longitude": 16.1289
}
},
{
"Name": "Žerjavinec",
"PostCode": "10360",
"Location": {
"Latitude": 45.8667,
"Longitude": 16.1667
}
}
],
"PostCode": "10360"
},
{
"Name": "Sesvete-Kraljevec",
"Places": [
{
"Name": "Cerje",
"PostCode": "10361",
"Location": {
"Latitude": 45.8333,
"Longitude": 16.2
}
},
{
"Name": "Čista Mlaka",
"PostCode": "10361",
"Location": {
"Latitude": 45.7644,
"Longitude": 16.1961
}
},
{
"Name": "Drenčec",
"PostCode": "10361",
"Location": {
"Latitude": 45.7942,
"Longitude": 16.1962
}
},
{
"Name": "Dumovec",
"PostCode": "10361",
"Location": {
"Latitude": 45.8167,
"Longitude": 16.1667
}
},
{
"Name": "Glavničica",
"PostCode": "10361",
"Location": {
"Latitude": 45.8508,
"Longitude": 16.2142
}
},
{
"Name": "Novaki Nartski",
"PostCode": "10361",
"Location": {
"Latitude": 45.7942,
"Longitude": 16.1962
}
},
{
"Name": "Otok Nartski",
"PostCode": "10361",
"Location": {
"Latitude": 45.7942,
"Longitude": 16.1962
}
},
{
"Name": "Otok Svibovski",
"PostCode": "10361",
"Location": {
"Latitude": 45.7942,
"Longitude": 16.1962
}
},
{
"Name": "Sop",
"PostCode": "10361",
"Location": {
"Latitude": 45.7333,
"Longitude": 16.2167
}
},
{
"Name": "Struga Nartska",
"PostCode": "10361",
"Location": {
"Latitude": 45.7942,
"Longitude": 16.1962
}
},
{
"Name": "Svibje",
"PostCode": "10361",
"Location": {
"Latitude": 45.7942,
"Longitude": 16.1962
}
},
{
"Name": "Trstenik Nartski",
"PostCode": "10361",
"Location": {
"Latitude": 45.7667,
"Longitude": 16.1833
}
}
],
"PostCode": "10361"
},
{
"Name": "Kašina",
"Places": [
{
"Name": "Blaguša",
"PostCode": "10362",
"Location": {
"Latitude": 45.9286,
"Longitude": 16.1281
}
},
{
"Name": "Đurđekovec",
"PostCode": "10362",
"Location": {
"Latitude": 45.8833,
"Longitude": 16.1303
}
},
{
"Name": "Gajec",
"PostCode": "10362",
"Location": {
"Latitude": 45.9091,
"Longitude": 16.095
}
},
{
"Name": "Kašina",
"PostCode": "10362",
"Location": {
"Latitude": 45.9167,
"Longitude": 16.0
}
},
{
"Name": "Kašinska Sopnica",
"PostCode": "10362",
"Location": {
"Latitude": 45.9091,
"Longitude": 16.095
}
},
{
"Name": "Kučilovina",
"PostCode": "10362",
"Location": {
"Latitude": 45.9167,
"Longitude": 16.0833
}
},
{
"Name": "Paruževina",
"PostCode": "10362",
"Location": {
"Latitude": 45.9091,
"Longitude": 16.095
}
},
{
"Name": "Planina Donja",
"PostCode": "10362",
"Location": {
"Latitude": 45.9091,
"Longitude": 16.095
}
},
{
"Name": "Planina Gornja",
"PostCode": "10362",
"Location": {
"Latitude": 45.9091,
"Longitude": 16.095
}
},
{
"Name": "Prekvršje",
"PostCode": "10362",
"Location": {
"Latitude": 45.9091,
"Longitude": 16.095
}
},
{
"Name": "Prepuštovec",
"PostCode": "10362",
"Location": {
"Latitude": 45.9,
"Longitude": 16.1333
}
},
{
"Name": "Vurnovec",
"PostCode": "10362",
"Location": {
"Latitude": 45.9091,
"Longitude": 16.095
}
}
],
"PostCode": "10362"
},
{
"Name": "Belovar",
"Places": [
{
"Name": "Adamovec",
"PostCode": "10363",
"Location": {
"Latitude": 45.9039,
"Longitude": 16.1719
}
},
{
"Name": "Belovar",
"PostCode": "10363",
"Location": {
"Latitude": 45.8828,
"Longitude": 16.1836
}
},
{
"Name": "Glavnica Donja",
"PostCode": "10363",
"Location": {
"Latitude": 45.9403,
"Longitude": 16.1497
}
},
{
"Name": "Glavnica Gornja",
"PostCode": "10363",
"Location": {
"Latitude": 45.9381,
"Longitude": 16.1403
}
},
{
"Name": "Jasenovec",
"PostCode": "10363",
"Location": {
"Latitude": 45.9136,
"Longitude": 16.1687
}
},
{
"Name": "Lužan",
"PostCode": "10363",
"Location": {
"Latitude": 45.8833,
"Longitude": 16.2
}
},
{
"Name": "Moravče",
"PostCode": "10363",
"Location": {
"Latitude": 45.9333,
"Longitude": 16.1667
}
}
],
"PostCode": "10363"
},
{
"Name": "Dugo Selo",
"Places": [
{
"Name": "Andrilovec",
"PostCode": "10370",
"Location": {
"Latitude": 45.8,
"Longitude": 16.3
}
},
{
"Name": "Božjakovina",
"PostCode": "10370",
"Location": {
"Latitude": 45.8167,
"Longitude": 16.3167
}
},
{
"Name": "Brckovljani",
"PostCode": "10370",
"Location": {
"Latitude": 45.8333,
"Longitude": 16.3
}
},
{
"Name": "Črnec Dugoselski",
"PostCode": "10370",
"Location": {
"Latitude": 45.7893,
"Longitude": 16.2907
}
},
{
"Name": "Črnec Rugvički",
"PostCode": "10370",
"Location": {
"Latitude": 45.7667,
"Longitude": 16.2667
}
},
{
"Name": "Donja Greda",
"PostCode": "10370",
"Location": {
"Latitude": 45.75,
"Longitude": 16.2833
}
},
{
"Name": "Donje Dvorišće",
"PostCode": "10370",
"Location": {
"Latitude": 45.7893,
"Longitude": 16.2907
}
},
{
"Name": "Dragošička",
"PostCode": "10370",
"Location": {
"Latitude": 45.75,
"Longitude": 16.2333
}
},
{
"Name": "Dugo Selo",
"PostCode": "10370",
"Location": {
"Latitude": 45.8061,
"Longitude": 16.2444
}
},
{
"Name": "Gornja Greda",
"PostCode": "10370",
"Location": {
"Latitude": 45.8167,
"Longitude": 16.3333
}
},
{
"Name": "Gornje Dvorišće",
"PostCode": "10370",
"Location": {
"Latitude": 45.7893,
"Longitude": 16.2907
}
},
{
"Name": "Gračec",
"PostCode": "10370",
"Location": {
"Latitude": 45.8333,
"Longitude": 16.3167
}
},
{
"Name": "Hrebinec",
"PostCode": "10370",
"Location": {
"Latitude": 45.7893,
"Longitude": 16.2907
}
},
{
"Name": "Jalševec Nartski",
"PostCode": "10370",
"Location": {
"Latitude": 45.7893,
"Longitude": 16.2907
}
},
{
"Name": "Ježevo",
"PostCode": "10370",
"Location": {
"Latitude": 45.7333,
"Longitude": 16.3
}
},
{
"Name": "Kopčevec",
"PostCode": "10370",
"Location": {
"Latitude": 45.7893,
"Longitude": 16.2907
}
},
{
"Name": "Kozinščak",
"PostCode": "10370",
"Location": {
"Latitude": 45.8167,
"Longitude": 16.25
}
},
{
"Name": "Kusanovec",
"PostCode": "10370",
"Location": {
"Latitude": 45.8167,
"Longitude": 16.35
}
},
{
"Name": "Leprovica",
"PostCode": "10370",
"Location": {
"Latitude": 45.7667,
"Longitude": 16.2833
}
},
{
"Name": "Lukarišće",
"PostCode": "10370",
"Location": {
"Latitude": 45.7893,
"Longitude": 16.2907
}
},
{
"Name": "Lupoglav",
"PostCode": "10370",
"Location": {
"Latitude": 45.7964,
"Longitude": 16.3464
}
},
{
"Name": "Mala Ostrna",
"PostCode": "10370",
"Location": {
"Latitude": 45.7833,
"Longitude": 16.3
}
},
{
"Name": "Nart Savski",
"PostCode": "10370",
"Location": {
"Latitude": 45.7667,
"Longitude": 16.2
}
},
{
"Name": "Obedišće Ježevsko",
"PostCode": "10370",
"Location": {
"Latitude": 45.75,
"Longitude": 16.3
}
},
{
"Name": "Okunšćak",
"PostCode": "10370",
"Location": {
"Latitude": 45.75,
"Longitude": 16.2167
}
},
{
"Name": "Prečec",
"PostCode": "10370",
"Location": {
"Latitude": 45.7667,
"Longitude": 16.3667
}
},
{
"Name": "Prikraj",
"PostCode": "10370",
"Location": {
"Latitude": 45.8333,
"Longitude": 16.3333
}
},
{
"Name": "Prozorje",
"PostCode": "10370",
"Location": {
"Latitude": 45.7893,
"Longitude": 16.2907
}
},
{
"Name": "Puhovo",
"PostCode": "10370",
"Location": {
"Latitude": 45.7833,
"Longitude": 16.25
}
},
{
"Name": "Rugvica",
"PostCode": "10370",
"Location": {
"Latitude": 45.7361,
"Longitude": 16.2331
}
},
{
"Name": "Štakorovec",
"PostCode": "10370",
"Location": {
"Latitude": 45.8667,
"Longitude": 16.2833
}
},
{
"Name": "Stančić",
"PostCode": "10370",
"Location": {
"Latitude": 45.85,
"Longitude": 16.2833
}
},
{
"Name": "Tedrovec",
"PostCode": "10370",
"Location": {
"Latitude": 45.75,
"Longitude": 16.3667
}
},
{
"Name": "Velika Ostrna",
"PostCode": "10370",
"Location": {
"Latitude": 45.7833,
"Longitude": 16.3
}
}
],
"PostCode": "10370"
},
{
"Name": "Oborovo",
"Places": [
{
"Name": "Novaki Oborovski",
"PostCode": "10372",
"Location": {
"Latitude": 45.7167,
"Longitude": 16.2167
}
},
{
"Name": "Oborovo",
"PostCode": "10372",
"Location": {
"Latitude": 45.6828,
"Longitude": 16.2569
}
},
{
"Name": "Prečno",
"PostCode": "10372",
"Location": {
"Latitude": 45.665,
"Longitude": 16.2961
}
},
{
"Name": "Preseka Oborovska",
"PostCode": "10372",
"Location": {
"Latitude": 45.7,
"Longitude": 16.2333
}
},
{
"Name": "Prevlaka",
"PostCode": "10372",
"Location": {
"Latitude": 45.675,
"Longitude": 16.2769
}
}
],
"PostCode": "10372"
},
{
"Name": "Ivanja Reka",
"Places": [
{
"Name": "Hruščica",
"PostCode": "10373",
"Location": {
"Latitude": 45.7833,
"Longitude": 16.15
}
},
{
"Name": "Ivanja Reka",
"PostCode": "10373",
"Location": {
"Latitude": 45.8022,
"Longitude": 16.1189
}
}
],
"PostCode": "10373"
},
{
"Name": "Sveti Ivan Zelina",
"Places": [
{
"Name": "Berislavec",
"PostCode": "10380",
"Location": {
"Latitude": 45.9781,
"Longitude": 16.2475
}
},
{
"Name": "Biškupec Zelinski",
"PostCode": "10380",
"Location": {
"Latitude": 45.9619,
"Longitude": 16.2425
}
},
{
"Name": "Blaževdol",
"PostCode": "10380",
"Location": {
"Latitude": 45.9333,
"Longitude": 16.2333
}
},
{
"Name": "Breg Mokrički",
"PostCode": "10380",
"Location": {
"Latitude": 45.9781,
"Longitude": 16.2475
}
},
{
"Name": "Bukevje",
"PostCode": "10380",
"Location": {
"Latitude": 45.7167,
"Longitude": 16.2167
}
},
{
"Name": "Bukovec Zelinski",
"PostCode": "10380",
"Location": {
"Latitude": 45.9,
"Longitude": 16.2167
}
},
{
"Name": "Črečan",
"PostCode": "10380",
"Location": {
"Latitude": 46.3986,
"Longitude": 16.3492
}
},
{
"Name": "Donja Topličica",
"PostCode": "10380",
"Location": {
"Latitude": 45.9667,
"Longitude": 16.25
}
},
{
"Name": "Donje Orešje",
"PostCode": "10380",
"Location": {
"Latitude": 46.0,
"Longitude": 16.25
}
},
{
"Name": "Donje Psarjevo",
"PostCode": "10380",
"Location": {
"Latitude": 45.95,
"Longitude": 16.2333
}
},
{
"Name": "Gornja Topličica",
"PostCode": "10380",
"Location": {
"Latitude": 45.9833,
"Longitude": 16.2333
}
},
{
"Name": "Gornje Orešje",
"PostCode": "10380",
"Location": {
"Latitude": 46.0158,
"Longitude": 16.2236
}
},
{
"Name": "Gornje Psarjevo",
"PostCode": "10380",
"Location": {
"Latitude": 45.95,
"Longitude": 16.2333
}
},
{
"Name": "Hrastje",
"PostCode": "10380",
"Location": {
"Latitude": 45.9772,
"Longitude": 16.2744
}
},
{
"Name": "Kalinje",
"PostCode": "10380",
"Location": {
"Latitude": 45.9781,
"Longitude": 16.2475
}
},
{
"Name": "Kladešćica",
"PostCode": "10380",
"Location": {
"Latitude": 45.9781,
"Longitude": 16.2475
}
},
{
"Name": "Kreča Ves",
"PostCode": "10380",
"Location": {
"Latitude": 45.9781,
"Longitude": 16.2475
}
},
{
"Name": "Marinovec Zelinski",
"PostCode": "10380",
"Location": {
"Latitude": 45.9781,
"Longitude": 16.2475
}
},
{
"Name": "Novakovec Bisački",
"PostCode": "10380",
"Location": {
"Latitude": 45.9781,
"Longitude": 16.2475
}
},
{
"Name": "Novo Mjesto",
"PostCode": "10380",
"Location": {
"Latitude": 45.95,
"Longitude": 16.2833
}
},
{
"Name": "Obrež Zelinski",
"PostCode": "10380",
"Location": {
"Latitude": 45.9781,
"Longitude": 16.2475
}
},
{
"Name": "Prepolno",
"PostCode": "10380",
"Location": {
"Latitude": 45.9781,
"Longitude": 16.2475
}
},
{
"Name": "Pretoki",
"PostCode": "10380",
"Location": {
"Latitude": 45.9781,
"Longitude": 16.2475
}
},
{
"Name": "Šalovec",
"PostCode": "10380",
"Location": {
"Latitude": 45.9803,
"Longitude": 16.2639
}
},
{
"Name": "Selnica Psarjevačka",
"PostCode": "10380",
"Location": {
"Latitude": 45.9781,
"Longitude": 16.2475
}
},
{
"Name": "Šulinec",
"PostCode": "10380",
"Location": {
"Latitude": 45.9667,
"Longitude": 16.25
}
},
{
"Name": "Sveti Ivan Zelina",
"PostCode": "10380",
"Location": {
"Latitude": 45.9561,
"Longitude": 16.2461
}
},
{
"Name": "Velika Gora",
"PostCode": "10380",
"Location": {
"Latitude": 45.9781,
"Longitude": 16.2475
}
},
{
"Name": "Žitomir",
"PostCode": "10380",
"Location": {
"Latitude": 46.0214,
"Longitude": 16.2078
}
}
],
"PostCode": "10380"
},
{
"Name": "Bedenica",
"Places": [
{
"Name": "Bedenica",
"PostCode": "10381",
"Location": {
"Latitude": 46.0333,
"Longitude": 16.2428
}
},
{
"Name": "Beloslavec",
"PostCode": "10381",
"Location": {
"Latitude": 46.0292,
"Longitude": 16.2448
}
},
{
"Name": "Bosna",
"PostCode": "10381",
"Location": {
"Latitude": 46.04,
"Longitude": 16.2392
}
},
{
"Name": "Omamno",
"PostCode": "10381",
"Location": {
"Latitude": 46.0292,
"Longitude": 16.2448
}
},
{
"Name": "Otrčkovec",
"PostCode": "10381",
"Location": {
"Latitude": 46.0292,
"Longitude": 16.2448
}
},
{
"Name": "Šurdovec",
"PostCode": "10381",
"Location": {
"Latitude": 46.0292,
"Longitude": 16.2448
}
},
{
"Name": "Turkovčina",
"PostCode": "10381",
"Location": {
"Latitude": 46.0436,
"Longitude": 16.2472
}
},
{
"Name": "Zadrkovec",
"PostCode": "10381",
"Location": {
"Latitude": 46.0,
"Longitude": 16.25
}
}
],
"PostCode": "10381"
},
{
"Name": "Donja Zelina",
"Places": [
{
"Name": "Banje Selo",
"PostCode": "10382",
"Location": {
"Latitude": 45.8458,
"Longitude": 16.2647
}
},
{
"Name": "Blaškovec",
"PostCode": "10382",
"Location": {
"Latitude": 45.9,
"Longitude": 16.1833
}
},
{
"Name": "Brezovec Zelinski",
"PostCode": "10382",
"Location": {
"Latitude": 45.8807,
"Longitude": 16.2313
}
},
{
"Name": "Bukevje",
"PostCode": "10382",
"Location": {
"Latitude": 45.7167,
"Longitude": 16.2167
}
},
{
"Name": "Bukovec Zelinski",
"PostCode": "10382",
"Location": {
"Latitude": 45.9,
"Longitude": 16.2167
}
},
{
"Name": "Bunjak",
"PostCode": "10382",
"Location": {
"Latitude": 45.8807,
"Longitude": 16.2313
}
},
{
"Name": "Curkovec",
"PostCode": "10382",
"Location": {
"Latitude": 45.8807,
"Longitude": 16.2313
}
},
{
"Name": "Donja Drenova",
"PostCode": "10382",
"Location": {
"Latitude": 45.8807,
"Longitude": 16.2313
}
},
{
"Name": "Donja Zelina",
"PostCode": "10382",
"Location": {
"Latitude": 45.9208,
"Longitude": 16.245
}
},
{
"Name": "Goričanec",
"PostCode": "10382",
"Location": {
"Latitude": 45.8807,
"Longitude": 16.2313
}
},
{
"Name": "Goričica",
"PostCode": "10382",
"Location": {
"Latitude": 45.8807,
"Longitude": 16.2313
}
},
{
"Name": "Gornja Drenova",
"PostCode": "10382",
"Location": {
"Latitude": 45.8807,
"Longitude": 16.2313
}
},
{
"Name": "Hrnjanec",
"PostCode": "10382",
"Location": {
"Latitude": 45.9167,
"Longitude": 16.2
}
},
{
"Name": "Križevčec",
"PostCode": "10382",
"Location": {
"Latitude": 45.8833,
"Longitude": 16.25
}
},
{
"Name": "Laktec",
"PostCode": "10382",
"Location": {
"Latitude": 45.86,
"Longitude": 16.2319
}
},
{
"Name": "Majkovec",
"PostCode": "10382",
"Location": {
"Latitude": 45.8833,
"Longitude": 16.2833
}
},
{
"Name": "Nespeš",
"PostCode": "10382",
"Location": {
"Latitude": 45.95,
"Longitude": 16.2
}
},
{
"Name": "Paukovec",
"PostCode": "10382",
"Location": {
"Latitude": 45.8897,
"Longitude": 16.2178
}
},
{
"Name": "Suhodol Zelinski",
"PostCode": "10382",
"Location": {
"Latitude": 45.8807,
"Longitude": 16.2313
}
},
{
"Name": "Sveta Helena",
"PostCode": "10382",
"Location": {
"Latitude": 45.9025,
"Longitude": 16.2664
}
},
{
"Name": "Vukovje Zelinsko",
"PostCode": "10382",
"Location": {
"Latitude": 45.8807,
"Longitude": 16.2313
}
}
],
"PostCode": "10382"
},
{
"Name": "Komin",
"Places": [
{
"Name": "Dubovec Bisaški",
"PostCode": "10383",
"Location": {
"Latitude": 45.9913,
"Longitude": 16.3087
}
},
{
"Name": "Filipovići",
"PostCode": "10383",
"Location": {
"Latitude": 45.9913,
"Longitude": 16.3087
}
},
{
"Name": "Gornji Vinkovec",
"PostCode": "10383",
"Location": {
"Latitude": 45.9913,
"Longitude": 16.3087
}
},
{
"Name": "Keleminovec",
"PostCode": "10383",
"Location": {
"Latitude": 45.9833,
"Longitude": 16.2833
}
},
{
"Name": "Komin",
"PostCode": "10383",
"Location": {
"Latitude": 46.0036,
"Longitude": 16.2797
}
},
{
"Name": "Mokrica Tomaševečka",
"PostCode": "10383",
"Location": {
"Latitude": 45.9913,
"Longitude": 16.3087
}
},
{
"Name": "Polonje",
"PostCode": "10383",
"Location": {
"Latitude": 45.9667,
"Longitude": 16.3
}
},
{
"Name": "Polonje Tomaševečko",
"PostCode": "10383",
"Location": {
"Latitude": 45.9667,
"Longitude": 16.3
}
},
{
"Name": "Radoišće",
"PostCode": "10383",
"Location": {
"Latitude": 46.0186,
"Longitude": 16.3306
}
},
{
"Name": "Salnik",
"PostCode": "10383",
"Location": {
"Latitude": 45.9833,
"Longitude": 16.3333
}
},
{
"Name": "Tomaševec",
"PostCode": "10383",
"Location": {
"Latitude": 46.0,
"Longitude": 16.3
}
},
{
"Name": "Vinkovec /dio/",
"PostCode": "10383",
"Location": {
"Latitude": 45.9913,
"Longitude": 16.3087
}
},
{
"Name": "Zrinšćina",
"PostCode": "10383",
"Location": {
"Latitude": 46.0083,
"Longitude": 16.3425
}
}
],
"PostCode": "10383"
},
{
"Name": "Velika Mlaka",
"Places": [
{
"Name": "Velika Mlaka",
"PostCode": "10408",
"Location": {
"Latitude": 45.7364,
"Longitude": 16.0311
}
}
],
"PostCode": "10408"
},
{
"Name": "Velika Gorica",
"Places": [
{
"Name": "Bapče",
"PostCode": "10410",
"Location": {
"Latitude": 45.7336,
"Longitude": 16.0952
}
},
{
"Name": "Črnkovec",
"PostCode": "10410",
"Location": {
"Latitude": 45.75,
"Longitude": 16.1167
}
},
{
"Name": "Drenje Šćitarjevsko",
"PostCode": "10410",
"Location": {
"Latitude": 45.7336,
"Longitude": 16.0952
}
},
{
"Name": "Gradići",
"PostCode": "10410",
"Location": {
"Latitude": 45.7,
"Longitude": 16.05
}
},
{
"Name": "Kobilić",
"PostCode": "10410",
"Location": {
"Latitude": 45.7333,
"Longitude": 16.1
}
},
{
"Name": "Lazi Turopoljski",
"PostCode": "10410",
"Location": {
"Latitude": 45.7336,
"Longitude": 16.0952
}
},
{
"Name": "Lekneno",
"PostCode": "10410",
"Location": {
"Latitude": 45.75,
"Longitude": 16.15
}
},
{
"Name": "Mala Kosnica",
"PostCode": "10410",
"Location": {
"Latitude": 45.7336,
"Longitude": 16.0952
}
},
{
"Name": "Mičevec",
"PostCode": "10410",
"Location": {
"Latitude": 45.75,
"Longitude": 16.0667
}
},
{
"Name": "Mraclin",
"PostCode": "10410",
"Location": {
"Latitude": 45.6667,
"Longitude": 16.0956
}
},
{
"Name": "Novaki Šćitarjevski",
"PostCode": "10410",
"Location": {
"Latitude": 45.7833,
"Longitude": 16.1
}
},
{
"Name": "Obrezina",
"PostCode": "10410",
"Location": {
"Latitude": 45.7667,
"Longitude": 16.1
}
},
{
"Name": "Okuje",
"PostCode": "10410",
"Location": {
"Latitude": 45.6769,
"Longitude": 16.0717
}
},
{
"Name": "Petina",
"PostCode": "10410",
"Location": {
"Latitude": 45.75,
"Longitude": 16.0833
}
},
{
"Name": "Petrovina Turopoljska",
"PostCode": "10410",
"Location": {
"Latitude": 45.7,
"Longitude": 16.0333
}
},
{
"Name": "Sasi",
"PostCode": "10410",
"Location": {
"Latitude": 45.7336,
"Longitude": 16.0952
}
},
{
"Name": "Šćitarjevo",
"PostCode": "10410",
"Location": {
"Latitude": 45.7644,
"Longitude": 16.1183
}
},
{
"Name": "Selnica",
"PostCode": "10410",
"Location": {
"Latitude": 45.75,
"Longitude": 16.1
}
},
{
"Name": "Strmec Bukevski",
"PostCode": "10410",
"Location": {
"Latitude": 45.75,
"Longitude": 16.1667
}
},
{
"Name": "Trnje",
"PostCode": "10410",
"Location": {
"Latitude": 45.7336,
"Longitude": 16.0952
}
},
{
"Name": "Velika Gorica",
"PostCode": "10410",
"Location": {
"Latitude": 45.7125,
"Longitude": 16.0756
}
},
{
"Name": "Velika Kosnica",
"PostCode": "10410",
"Location": {
"Latitude": 45.7336,
"Longitude": 16.0952
}
},
{
"Name": "Zablatje Posavsko",
"PostCode": "10410",
"Location": {
"Latitude": 45.7336,
"Longitude": 16.0952
}
}
],
"PostCode": "10410"
},
{
"Name": "Orle",
"Places": [
{
"Name": "Bukevje",
"PostCode": "10411",
"Location": {
"Latitude": 45.7167,
"Longitude": 16.2167
}
},
{
"Name": "Čret Posavski",
"PostCode": "10411",
"Location": {
"Latitude": 45.6759,
"Longitude": 16.2468
}
},
{
"Name": "Drnek",
"PostCode": "10411",
"Location": {
"Latitude": 45.6759,
"Longitude": 16.2468
}
},
{
"Name": "Obed",
"PostCode": "10411",
"Location": {
"Latitude": 45.7308,
"Longitude": 16.1975
}
},
{
"Name": "Orle",
"PostCode": "10411",
"Location": {
"Latitude": 45.6833,
"Longitude": 16.2333
}
},
{
"Name": "Ruča",
"PostCode": "10411",
"Location": {
"Latitude": 45.6411,
"Longitude": 16.2833
}
},
{
"Name": "Sop Bukevski",
"PostCode": "10411",
"Location": {
"Latitude": 45.6759,
"Longitude": 16.2468
}
},
{
"Name": "Stružec Posavski",
"PostCode": "10411",
"Location": {
"Latitude": 45.6759,
"Longitude": 16.2468
}
},
{
"Name": "Suša",
"PostCode": "10411",
"Location": {
"Latitude": 45.6333,
"Longitude": 16.2833
}
},
{
"Name": "Veleševec",
"PostCode": "10411",
"Location": {
"Latitude": 45.65,
"Longitude": 16.2667
}
},
{
"Name": "Vrbovo Posavsko",
"PostCode": "10411",
"Location": {
"Latitude": 45.6759,
"Longitude": 16.2468
}
}
],
"PostCode": "10411"
},
{
"Name": "Donja Lomnica",
"Places": [
{
"Name": "Donja Lomnica",
"PostCode": "10412",
"Location": {
"Latitude": 45.7119,
"Longitude": 16.0269
}
},
{
"Name": "Gornja Lomnica",
"PostCode": "10412",
"Location": {
"Latitude": 45.7167,
"Longitude": 16.0
}
},
{
"Name": "Lukavec",
"PostCode": "10412",
"Location": {
"Latitude": 45.7044,
"Longitude": 15.99
}
}
],
"PostCode": "10412"
},
{
"Name": "Kravarsko",
"Places": [
{
"Name": "Barbarići Kravarski",
"PostCode": "10413",
"Location": {
"Latitude": 45.6,
"Longitude": 16.0667
}
},
{
"Name": "Čakanec",
"PostCode": "10413",
"Location": {
"Latitude": 45.5948,
"Longitude": 16.0406
}
},
{
"Name": "Donji Hruševec",
"PostCode": "10413",
"Location": {
"Latitude": 45.5333,
"Longitude": 16.0667
}
},
{
"Name": "Gladovec Kravarski",
"PostCode": "10413",
"Location": {
"Latitude": 45.5667,
"Longitude": 16.05
}
},
{
"Name": "Gornji Hruševec",
"PostCode": "10413",
"Location": {
"Latitude": 45.5667,
"Longitude": 16.0167
}
},
{
"Name": "Ključić Brdo",
"PostCode": "10413",
"Location": {
"Latitude": 45.6167,
"Longitude": 16.05
}
},
{
"Name": "Kozjača",
"PostCode": "10413",
"Location": {
"Latitude": 45.6,
"Longitude": 16.0167
}
},
{
"Name": "Kravarsko",
"PostCode": "10413",
"Location": {
"Latitude": 45.5833,
"Longitude": 16.05
}
},
{
"Name": "Mala Buna",
"PostCode": "10413",
"Location": {
"Latitude": 45.6333,
"Longitude": 16.0667
}
},
{
"Name": "Novo Brdo",
"PostCode": "10413",
"Location": {
"Latitude": 45.5822,
"Longitude": 15.995
}
},
{
"Name": "Opatija",
"PostCode": "10413",
"Location": {
"Latitude": 45.5667,
"Longitude": 16.0
}
},
{
"Name": "Podvornica",
"PostCode": "10413",
"Location": {
"Latitude": 45.6167,
"Longitude": 16.0667
}
},
{
"Name": "Pustike",
"PostCode": "10413",
"Location": {
"Latitude": 45.5948,
"Longitude": 16.0406
}
},
{
"Name": "Šiljakovina",
"PostCode": "10413",
"Location": {
"Latitude": 45.6333,
"Longitude": 16.0167
}
},
{
"Name": "Velika Buna",
"PostCode": "10413",
"Location": {
"Latitude": 45.6333,
"Longitude": 16.0667
}
},
{
"Name": "Žitkovčica",
"PostCode": "10413",
"Location": {
"Latitude": 45.5948,
"Longitude": 16.0406
}
}
],
"PostCode": "10413"
},
{
"Name": "Pokupsko",
"Places": [
{
"Name": "Auguštanovec",
"PostCode": "10414",
"Location": {
"Latitude": 45.5155,
"Longitude": 15.9961
}
},
{
"Name": "Brkiševina",
"PostCode": "10414",
"Location": {
"Latitude": 45.4422,
"Longitude": 16.0928
}
},
{
"Name": "Cerje Pokupsko",
"PostCode": "10414",
"Location": {
"Latitude": 45.5155,
"Longitude": 15.9961
}
},
{
"Name": "Cvetnić Brdo",
"PostCode": "10414",
"Location": {
"Latitude": 45.5155,
"Longitude": 15.9961
}
},
{
"Name": "Gladovec Pokupski",
"PostCode": "10414",
"Location": {
"Latitude": 45.5,
"Longitude": 16.0
}
},
{
"Name": "Hotnja",
"PostCode": "10414",
"Location": {
"Latitude": 45.5061,
"Longitude": 16.05
}
},
{
"Name": "Lijevi Degoj",
"PostCode": "10414",
"Location": {
"Latitude": 45.4833,
"Longitude": 15.95
}
},
{
"Name": "Lijevi Štefanki",
"PostCode": "10414",
"Location": {
"Latitude": 45.5167,
"Longitude": 15.9333
}
},
{
"Name": "Lukinić Brdo",
"PostCode": "10414",
"Location": {
"Latitude": 45.5667,
"Longitude": 15.9333
}
},
{
"Name": "Opatija",
"PostCode": "10414",
"Location": {
"Latitude": 45.5667,
"Longitude": 16.0
}
},
{
"Name": "Pokupsko",
"PostCode": "10414",
"Location": {
"Latitude": 45.4872,
"Longitude": 15.9933
}
},
{
"Name": "Roženica",
"PostCode": "10414",
"Location": {
"Latitude": 45.5333,
"Longitude": 16.0
}
},
{
"Name": "Šestak Brdo",
"PostCode": "10414",
"Location": {
"Latitude": 45.5333,
"Longitude": 15.9833
}
},
{
"Name": "Strezojevo",
"PostCode": "10414",
"Location": {
"Latitude": 45.5333,
"Longitude": 16.0333
}
},
{
"Name": "Zgurić Brdo",
"PostCode": "10414",
"Location": {
"Latitude": 45.5167,
"Longitude": 15.9833
}
}
],
"PostCode": "10414"
},
{
"Name": "Novo Čiče",
"Places": [
{
"Name": "Donje Podotočje",
"PostCode": "10415",
"Location": {
"Latitude": 45.7,
"Longitude": 16.1333
}
},
{
"Name": "Jagodno",
"PostCode": "10415",
"Location": {
"Latitude": 45.7,
"Longitude": 16.15
}
},
{
"Name": "Lazina Čička",
"PostCode": "10415",
"Location": {
"Latitude": 45.7042,
"Longitude": 16.1333
}
},
{
"Name": "Novo Čiče",
"PostCode": "10415",
"Location": {
"Latitude": 45.7,
"Longitude": 16.1167
}
},
{
"Name": "Poljana Čička",
"PostCode": "10415",
"Location": {
"Latitude": 45.7042,
"Longitude": 16.1333
}
},
{
"Name": "Ribnica",
"PostCode": "10415",
"Location": {
"Latitude": 45.7167,
"Longitude": 16.1333
}
}
],
"PostCode": "10415"
},
{
"Name": "Buševec",
"Places": [
{
"Name": "Buševec",
"PostCode": "10417",
"Location": {
"Latitude": 45.6344,
"Longitude": 16.1197
}
},
{
"Name": "Novo Selo Lekeničko",
"PostCode": "10417",
"Location": {
"Latitude": 45.636,
"Longitude": 16.1306
}
},
{
"Name": "Ogulinac",
"PostCode": "10417",
"Location": {
"Latitude": 45.6242,
"Longitude": 16.1286
}
},
{
"Name": "Turopolje",
"PostCode": "10417",
"Location": {
"Latitude": 45.6494,
"Longitude": 16.1436
}
}
],
"PostCode": "10417"
},
{
"Name": "Dubranec",
"Places": [
{
"Name": "Cerovski Vrh",
"PostCode": "10418",
"Location": {
"Latitude": 45.5833,
"Longitude": 15.95
}
},
{
"Name": "Cvetković Brdo",
"PostCode": "10418",
"Location": {
"Latitude": 45.5839,
"Longitude": 16.0214
}
},
{
"Name": "Dubranec",
"PostCode": "10418",
"Location": {
"Latitude": 45.6167,
"Longitude": 15.9667
}
},
{
"Name": "Gustelnica",
"PostCode": "10418",
"Location": {
"Latitude": 45.6031,
"Longitude": 15.9736
}
},
{
"Name": "Jerebić",
"PostCode": "10418",
"Location": {
"Latitude": 45.5839,
"Longitude": 16.0214
}
},
{
"Name": "Petrovec",
"PostCode": "10418",
"Location": {
"Latitude": 45.5,
"Longitude": 16.2667
}
},
{
"Name": "Prvonožina",
"PostCode": "10418",
"Location": {
"Latitude": 45.5839,
"Longitude": 16.0214
}
},
{
"Name": "Vukomerić",
"PostCode": "10418",
"Location": {
"Latitude": 45.6167,
"Longitude": 15.95
}
}
],
"PostCode": "10418"
},
{
"Name": "Vukovina",
"Places": [
{
"Name": "Gornje Podotočje",
"PostCode": "10419",
"Location": {
"Latitude": 45.6833,
"Longitude": 16.1333
}
},
{
"Name": "Kuče",
"PostCode": "10419",
"Location": {
"Latitude": 45.6769,
"Longitude": 16.145
}
},
{
"Name": "Rakitovec",
"PostCode": "10419",
"Location": {
"Latitude": 45.6667,
"Longitude": 16.15
}
},
{
"Name": "Staro Čiče",
"PostCode": "10419",
"Location": {
"Latitude": 45.7,
"Longitude": 16.1167
}
},
{
"Name": "Vukovina",
"PostCode": "10419",
"Location": {
"Latitude": 45.6833,
"Longitude": 16.1167
}
}
],
"PostCode": "10419"
},
{
"Name": "Samobor",
"Places": [
{
"Name": "Bobovica",
"PostCode": "10430",
"Location": {
"Latitude": 45.8333,
"Longitude": 15.7333
}
},
{
"Name": "Braslovje",
"PostCode": "10430",
"Location": {
"Latitude": 45.75,
"Longitude": 15.6667
}
},
{
"Name": "Bukovje Podvrško",
"PostCode": "10430",
"Location": {
"Latitude": 45.7863,
"Longitude": 15.6936
}
},
{
"Name": "Celine Samoborske",
"PostCode": "10430",
"Location": {
"Latitude": 45.7863,
"Longitude": 15.6936
}
},
{
"Name": "Cerje Samoborsko",
"PostCode": "10430",
"Location": {
"Latitude": 45.7863,
"Longitude": 15.6936
}
},
{
"Name": "Domaslovec",
"PostCode": "10430",
"Location": {
"Latitude": 45.8,
"Longitude": 15.75
}
},
{
"Name": "Draganje Selo",
"PostCode": "10430",
"Location": {
"Latitude": 45.8,
"Longitude": 15.65
}
},
{
"Name": "Dragonoš",
"PostCode": "10430",
"Location": {
"Latitude": 45.7863,
"Longitude": 15.6936
}
},
{
"Name": "Dubrava Samoborska",
"PostCode": "10430",
"Location": {
"Latitude": 45.7863,
"Longitude": 15.6936
}
},
{
"Name": "Farkaševec Samoborski",
"PostCode": "10430",
"Location": {
"Latitude": 45.7863,
"Longitude": 15.6936
}
},
{
"Name": "Gradna",
"PostCode": "10430",
"Location": {
"Latitude": 45.7863,
"Longitude": 15.6936
}
},
{
"Name": "Gregurić Breg",
"PostCode": "10430",
"Location": {
"Latitude": 45.7833,
"Longitude": 15.65
}
},
{
"Name": "Hrastina Samoborska",
"PostCode": "10430",
"Location": {
"Latitude": 45.7863,
"Longitude": 15.6936
}
},
{
"Name": "Kladje",
"PostCode": "10430",
"Location": {
"Latitude": 45.7833,
"Longitude": 15.7333
}
},
{
"Name": "Kotari",
"PostCode": "10430",
"Location": {
"Latitude": 45.7863,
"Longitude": 15.6936
}
},
{
"Name": "Mala Rakovica",
"PostCode": "10430",
"Location": {
"Latitude": 45.7833,
"Longitude": 15.7167
}
},
{
"Name": "Mali Lipovec",
"PostCode": "10430",
"Location": {
"Latitude": 45.75,
"Longitude": 15.6167
}
},
{
"Name": "Manja Vas",
"PostCode": "10430",
"Location": {
"Latitude": 45.7863,
"Longitude": 15.6936
}
},
{
"Name": "Medsave",
"PostCode": "10430",
"Location": {
"Latitude": 45.8333,
"Longitude": 15.7667
}
},
{
"Name": "Molvice",
"PostCode": "10430",
"Location": {
"Latitude": 45.7667,
"Longitude": 15.75
}
},
{
"Name": "Prekrižje Plešivičko",
"PostCode": "10430",
"Location": {
"Latitude": 45.7863,
"Longitude": 15.6936
}
},
{
"Name": "Rude",
"PostCode": "10430",
"Location": {
"Latitude": 45.7667,
"Longitude": 15.6667
}
},
{
"Name": "Samobor",
"PostCode": "10430",
"Location": {
"Latitude": 45.8031,
"Longitude": 15.7181
}
},
{
"Name": "Samoborski Otok",
"PostCode": "10430",
"Location": {
"Latitude": 45.7863,
"Longitude": 15.6936
}
},
{
"Name": "Savršćak",
"PostCode": "10430",
"Location": {
"Latitude": 45.7863,
"Longitude": 15.6936
}
},
{
"Name": "Šipački Breg",
"PostCode": "10430",
"Location": {
"Latitude": 45.7863,
"Longitude": 15.6936
}
},
{
"Name": "Slani Dol",
"PostCode": "10430",
"Location": {
"Latitude": 45.7833,
"Longitude": 15.6333
}
},
{
"Name": "Slapnica",
"PostCode": "10430",
"Location": {
"Latitude": 45.7667,
"Longitude": 15.6167
}
},
{
"Name": "Slavagora",
"PostCode": "10430",
"Location": {
"Latitude": 45.7863,
"Longitude": 15.6936
}
},
{
"Name": "Smerovišće",
"PostCode": "10430",
"Location": {
"Latitude": 45.7863,
"Longitude": 15.6936
}
},
{
"Name": "Velika Rakovica",
"PostCode": "10430",
"Location": {
"Latitude": 45.7667,
"Longitude": 15.7167
}
},
{
"Name": "Veliki Lipovec",
"PostCode": "10430",
"Location": {
"Latitude": 45.7667,
"Longitude": 15.6333
}
},
{
"Name": "Vratnik Samoborski",
"PostCode": "10430",
"Location": {
"Latitude": 45.7863,
"Longitude": 15.6936
}
},
{
"Name": "Vrbovec Samoborski",
"PostCode": "10430",
"Location": {
"Latitude": 45.8167,
"Longitude": 15.7667
}
},
{
"Name": "Vrhovčak",
"PostCode": "10430",
"Location": {
"Latitude": 45.8,
"Longitude": 15.7
}
}
],
"PostCode": "10430"
},
{
"Name": "Sveta Nedjelja",
"Places": [
{
"Name": "Brezje Samoborsko",
"PostCode": "10431",
"Location": {
"Latitude": 45.7829,
"Longitude": 15.791
}
},
{
"Name": "Jagnjić Dol",
"PostCode": "10431",
"Location": {
"Latitude": 45.7829,
"Longitude": 15.791
}
},
{
"Name": "Kerestinec",
"PostCode": "10431",
"Location": {
"Latitude": 45.7667,
"Longitude": 15.8
}
},
{
"Name": "Mala Gorica",
"PostCode": "10431",
"Location": {
"Latitude": 45.7667,
"Longitude": 15.7833
}
},
{
"Name": "Novaki Samoborski",
"PostCode": "10431",
"Location": {
"Latitude": 45.8,
"Longitude": 15.8
}
},
{
"Name": "Srebrenjak",
"PostCode": "10431",
"Location": {
"Latitude": 45.7829,
"Longitude": 15.791
}
},
{
"Name": "Sveta Nedjelja",
"PostCode": "10431",
"Location": {
"Latitude": 45.7983,
"Longitude": 15.7806
}
},
{
"Name": "Svetonedjeljski Breg",
"PostCode": "10431",
"Location": {
"Latitude": 45.7829,
"Longitude": 15.791
}
}
],
"PostCode": "10431"
},
{
"Name": "Bregana",
"Places": [
{
"Name": "Beder",
"PostCode": "10432",
"Location": {
"Latitude": 45.8167,
"Longitude": 15.6167
}
},
{
"Name": "Bregana",
"PostCode": "10432",
"Location": {
"Latitude": 45.8456,
"Longitude": 15.6853
}
},
{
"Name": "Breganica",
"PostCode": "10432",
"Location": {
"Latitude": 45.818,
"Longitude": 15.6095
}
},
{
"Name": "Grdanjci",
"PostCode": "10432",
"Location": {
"Latitude": 45.818,
"Longitude": 15.6095
}
},
{
"Name": "Jarušje",
"PostCode": "10432",
"Location": {
"Latitude": 45.7667,
"Longitude": 15.5833
}
},
{
"Name": "Javorek",
"PostCode": "10432",
"Location": {
"Latitude": 45.8333,
"Longitude": 15.6167
}
},
{
"Name": "Klokočevac Samoborski",
"PostCode": "10432",
"Location": {
"Latitude": 45.818,
"Longitude": 15.6095
}
},
{
"Name": "Kostanjevec Podvrški",
"PostCode": "10432",
"Location": {
"Latitude": 45.8333,
"Longitude": 15.6
}
},
{
"Name": "Kravljak",
"PostCode": "10432",
"Location": {
"Latitude": 45.8167,
"Longitude": 15.55
}
},
{
"Name": "Lug Samoborski",
"PostCode": "10432",
"Location": {
"Latitude": 45.818,
"Longitude": 15.6095
}
},
{
"Name": "Mala Jazbina",
"PostCode": "10432",
"Location": {
"Latitude": 45.818,
"Longitude": 15.6095
}
},
{
"Name": "Noršić Selo",
"PostCode": "10432",
"Location": {
"Latitude": 45.7833,
"Longitude": 15.5667
}
},
{
"Name": "Otruševec",
"PostCode": "10432",
"Location": {
"Latitude": 45.8167,
"Longitude": 15.6833
}
},
{
"Name": "Podvrh",
"PostCode": "10432",
"Location": {
"Latitude": 45.818,
"Longitude": 15.6095
}
},
{
"Name": "Poklek",
"PostCode": "10432",
"Location": {
"Latitude": 45.818,
"Longitude": 15.6095
}
},
{
"Name": "Selce Žumberačko",
"PostCode": "10432",
"Location": {
"Latitude": 45.818,
"Longitude": 15.6095
}
},
{
"Name": "Stojdraga",
"PostCode": "10432",
"Location": {
"Latitude": 45.85,
"Longitude": 15.5833
}
},
{
"Name": "Velika Jazbina",
"PostCode": "10432",
"Location": {
"Latitude": 45.818,
"Longitude": 15.6095
}
},
{
"Name": "Višnjevac Podvrški",
"PostCode": "10432",
"Location": {
"Latitude": 45.818,
"Longitude": 15.6095
}
}
],
"PostCode": "10432"
},
{
"Name": "Strmec Samoborski",
"Places": [
{
"Name": "Orešje",
"PostCode": "10434",
"Location": {
"Latitude": 45.8167,
"Longitude": 15.8
}
},
{
"Name": "Strmec Samoborski",
"PostCode": "10434",
"Location": {
"Latitude": 45.8167,
"Longitude": 15.8
}
}
],
"PostCode": "10434"
},
{
"Name": "Sveti Martin pod Okićem",
"Places": [
{
"Name": "Dolec Podokićki",
"PostCode": "10435",
"Location": {
"Latitude": 45.75,
"Longitude": 15.7417
}
},
{
"Name": "Drežnik Podokićki",
"PostCode": "10435",
"Location": {
"Latitude": 45.75,
"Longitude": 15.7417
}
},
{
"Name": "Falašćak",
"PostCode": "10435",
"Location": {
"Latitude": 45.75,
"Longitude": 15.7417
}
},
{
"Name": "Galgovo",
"PostCode": "10435",
"Location": {
"Latitude": 45.7333,
"Longitude": 15.75
}
},
{
"Name": "Klake",
"PostCode": "10435",
"Location": {
"Latitude": 45.75,
"Longitude": 15.7333
}
},
{
"Name": "Konšćica",
"PostCode": "10435",
"Location": {
"Latitude": 45.7667,
"Longitude": 15.7333
}
},
{
"Name": "Podgrađe Podokićko",
"PostCode": "10435",
"Location": {
"Latitude": 45.75,
"Longitude": 15.7417
}
},
{
"Name": "Sveti Martin pod Okićem",
"PostCode": "10435",
"Location": {
"Latitude": 45.75,
"Longitude": 15.75
}
}
],
"PostCode": "10435"
},
{
"Name": "Rakov Potok",
"Places": [
{
"Name": "Horvati",
"PostCode": "10436",
"Location": {
"Latitude": 45.7175,
"Longitude": 15.8197
}
},
{
"Name": "Kalinovica",
"PostCode": "10436",
"Location": {
"Latitude": 45.7667,
"Longitude": 15.7833
}
},
{
"Name": "Rakov Potok",
"PostCode": "10436",
"Location": {
"Latitude": 45.7381,
"Longitude": 15.7972
}
},
{
"Name": "Žitarka",
"PostCode": "10436",
"Location": {
"Latitude": 45.7407,
"Longitude": 15.8001
}
}
],
"PostCode": "10436"
},
{
"Name": "Bestovje",
"Places": [
{
"Name": "Bestovje",
"PostCode": "10437",
"Location": {
"Latitude": 45.8083,
"Longitude": 15.8167
}
},
{
"Name": "Rakitje",
"PostCode": "10437",
"Location": {
"Latitude": 45.7939,
"Longitude": 15.8222
}
}
],
"PostCode": "10437"
},
{
"Name": "Jastrebarsko",
"Places": [
{
"Name": "Beter",
"PostCode": "10450",
"Location": {
"Latitude": 45.7333,
"Longitude": 15.7167
}
},
{
"Name": "Brebrovac",
"PostCode": "10450",
"Location": {
"Latitude": 45.6833,
"Longitude": 15.55
}
},
{
"Name": "Brezari",
"PostCode": "10450",
"Location": {
"Latitude": 45.6835,
"Longitude": 15.6653
}
},
{
"Name": "Breznik Plešivički",
"PostCode": "10450",
"Location": {
"Latitude": 45.6835,
"Longitude": 15.6653
}
},
{
"Name": "Čabdin",
"PostCode": "10450",
"Location": {
"Latitude": 45.65,
"Longitude": 15.6667
}
},
{
"Name": "Čeglje",
"PostCode": "10450",
"Location": {
"Latitude": 45.6167,
"Longitude": 15.6
}
},
{
"Name": "Crna Mlaka",
"PostCode": "10450",
"Location": {
"Latitude": 45.6835,
"Longitude": 15.6653
}
},
{
"Name": "Črnilovec",
"PostCode": "10450",
"Location": {
"Latitude": 45.6835,
"Longitude": 15.6653
}
},
{
"Name": "Cvetković",
"PostCode": "10450",
"Location": {
"Latitude": 45.6514,
"Longitude": 15.6522
}
},
{
"Name": "Domagović",
"PostCode": "10450",
"Location": {
"Latitude": 45.6317,
"Longitude": 15.6403
}
},
{
"Name": "Donja Purgarija",
"PostCode": "10450",
"Location": {
"Latitude": 45.6835,
"Longitude": 15.6653
}
},
{
"Name": "Donja Reka",
"PostCode": "10450",
"Location": {
"Latitude": 45.6835,
"Longitude": 15.6653
}
},
{
"Name": "Donja Zdenčina",
"PostCode": "10450",
"Location": {
"Latitude": 45.6667,
"Longitude": 15.7667
}
},
{
"Name": "Donji Desinec",
"PostCode": "10450",
"Location": {
"Latitude": 45.6822,
"Longitude": 15.7089
}
},
{
"Name": "Dragovanščak",
"PostCode": "10450",
"Location": {
"Latitude": 45.6835,
"Longitude": 15.6653
}
},
{
"Name": "Goli Vrh",
"PostCode": "10450",
"Location": {
"Latitude": 45.6886,
"Longitude": 15.7164
}
},
{
"Name": "Goljak",
"PostCode": "10450",
"Location": {
"Latitude": 45.7036,
"Longitude": 15.5433
}
},
{
"Name": "Gonjeva",
"PostCode": "10450",
"Location": {
"Latitude": 45.6835,
"Longitude": 15.6653
}
},
{
"Name": "Gornja Purgarija",
"PostCode": "10450",
"Location": {
"Latitude": 45.6835,
"Longitude": 15.6653
}
},
{
"Name": "Gornja Reka",
"PostCode": "10450",
"Location": {
"Latitude": 45.6835,
"Longitude": 15.6653
}
},
{
"Name": "Gornja Zdenčina",
"PostCode": "10450",
"Location": {
"Latitude": 45.6833,
"Longitude": 15.7833
}
},
{
"Name": "Gornji Desinec",
"PostCode": "10450",
"Location": {
"Latitude": 45.7,
"Longitude": 15.7
}
},
{
"Name": "Guci Draganički",
"PostCode": "10450",
"Location": {
"Latitude": 45.6835,
"Longitude": 15.6653
}
},
{
"Name": "Hrašća",
"PostCode": "10450",
"Location": {
"Latitude": 45.6835,
"Longitude": 15.6653
}
},
{
"Name": "Hrastje Plešivičko",
"PostCode": "10450",
"Location": {
"Latitude": 45.6835,
"Longitude": 15.6653
}
},
{
"Name": "Izimje",
"PostCode": "10450",
"Location": {
"Latitude": 45.6333,
"Longitude": 15.6167
}
},
{
"Name": "Jastrebarsko",
"PostCode": "10450",
"Location": {
"Latitude": 45.6683,
"Longitude": 15.6486
}
},
{
"Name": "Jurjevčani",
"PostCode": "10450",
"Location": {
"Latitude": 45.6835,
"Longitude": 15.6653
}
},
{
"Name": "Klinča Sela",
"PostCode": "10450",
"Location": {
"Latitude": 45.6903,
"Longitude": 15.7411
}
},
{
"Name": "Kozlikovo",
"PostCode": "10450",
"Location": {
"Latitude": 45.6835,
"Longitude": 15.6653
}
},
{
"Name": "Kupinec",
"PostCode": "10450",
"Location": {
"Latitude": 45.6586,
"Longitude": 15.7869
}
},
{
"Name": "Lokošin Dol",
"PostCode": "10450",
"Location": {
"Latitude": 45.7,
"Longitude": 15.65
}
},
{
"Name": "Malunje",
"PostCode": "10450",
"Location": {
"Latitude": 45.7,
"Longitude": 15.6167
}
},
{
"Name": "Novaki Petrovinski",
"PostCode": "10450",
"Location": {
"Latitude": 45.6835,
"Longitude": 15.6653
}
},
{
"Name": "Novo Selo Okićko",
"PostCode": "10450",
"Location": {
"Latitude": 45.6835,
"Longitude": 15.6653
}
},
{
"Name": "Orešje Okićko",
"PostCode": "10450",
"Location": {
"Latitude": 45.6835,
"Longitude": 15.6653
}
},
{
"Name": "Pavlovčani",
"PostCode": "10450",
"Location": {
"Latitude": 45.6835,
"Longitude": 15.6653
}
},
{
"Name": "Pavučnjak",
"PostCode": "10450",
"Location": {
"Latitude": 45.7167,
"Longitude": 15.7667
}
},
{
"Name": "Petkov Breg",
"PostCode": "10450",
"Location": {
"Latitude": 45.6835,
"Longitude": 15.6653
}
},
{
"Name": "Petrovina",
"PostCode": "10450",
"Location": {
"Latitude": 45.6833,
"Longitude": 15.5833
}
},
{
"Name": "Plešivica",
"PostCode": "10450",
"Location": {
"Latitude": 45.7333,
"Longitude": 15.6667
}
},
{
"Name": "Poljanica Okićka",
"PostCode": "10450",
"Location": {
"Latitude": 45.6835,
"Longitude": 15.6653
}
},
{
"Name": "Prhoć",
"PostCode": "10450",
"Location": {
"Latitude": 45.7,
"Longitude": 15.7
}
},
{
"Name": "Prilipje",
"PostCode": "10450",
"Location": {
"Latitude": 45.6835,
"Longitude": 15.6653
}
},
{
"Name": "Rastoki",
"PostCode": "10450",
"Location": {
"Latitude": 45.6835,
"Longitude": 15.6653
}
},
{
"Name": "Repišće",
"PostCode": "10450",
"Location": {
"Latitude": 45.6835,
"Longitude": 15.6653
}
},
{
"Name": "Slavetić",
"PostCode": "10450",
"Location": {
"Latitude": 45.7,
"Longitude": 15.55
}
},
{
"Name": "Stankovo",
"PostCode": "10450",
"Location": {
"Latitude": 45.7167,
"Longitude": 15.7
}
},
{
"Name": "Tržić",
"PostCode": "10450",
"Location": {
"Latitude": 45.6835,
"Longitude": 15.6653
}
},
{
"Name": "Vlaškovec",
"PostCode": "10450",
"Location": {
"Latitude": 45.6835,
"Longitude": 15.6653
}
},
{
"Name": "Volavje",
"PostCode": "10450",
"Location": {
"Latitude": 45.6556,
"Longitude": 15.6108
}
},
{
"Name": "Vranov Dol",
"PostCode": "10450",
"Location": {
"Latitude": 45.7247,
"Longitude": 15.6319
}
},
{
"Name": "Zdihovo",
"PostCode": "10450",
"Location": {
"Latitude": 45.6833,
"Longitude": 15.65
}
}
],
"PostCode": "10450"
},
{
"Name": "Pisarovina",
"Places": [
{
"Name": "Bratina",
"PostCode": "10451",
"Location": {
"Latitude": 45.6214,
"Longitude": 15.8272
}
},
{
"Name": "Bregana Pisarovinska",
"PostCode": "10451",
"Location": {
"Latitude": 45.5842,
"Longitude": 15.8687
}
},
{
"Name": "Donja Kupčina",
"PostCode": "10451",
"Location": {
"Latitude": 45.5506,
"Longitude": 15.8122
}
},
{
"Name": "Dvoranci",
"PostCode": "10451",
"Location": {
"Latitude": 45.5667,
"Longitude": 15.8833
}
},
{
"Name": "Gorica Jamnička",
"PostCode": "10451",
"Location": {
"Latitude": 45.6333,
"Longitude": 15.8833
}
},
{
"Name": "Gradec Pokupski",
"PostCode": "10451",
"Location": {
"Latitude": 45.5842,
"Longitude": 15.8687
}
},
{
"Name": "Jamnica Pisarovinska",
"PostCode": "10451",
"Location": {
"Latitude": 45.5975,
"Longitude": 15.8794
}
},
{
"Name": "Lijevo Sredičko",
"PostCode": "10451",
"Location": {
"Latitude": 45.5333,
"Longitude": 15.8833
}
},
{
"Name": "Lučelnica",
"PostCode": "10451",
"Location": {
"Latitude": 45.5833,
"Longitude": 15.9167
}
},
{
"Name": "Pisarovina",
"PostCode": "10451",
"Location": {
"Latitude": 45.5864,
"Longitude": 15.8592
}
},
{
"Name": "Podgorje Jamničko",
"PostCode": "10451",
"Location": {
"Latitude": 45.6,
"Longitude": 15.8667
}
},
{
"Name": "Selsko Brdo",
"PostCode": "10451",
"Location": {
"Latitude": 45.55,
"Longitude": 15.9
}
},
{
"Name": "Topolovec Pisarovinski",
"PostCode": "10451",
"Location": {
"Latitude": 45.5833,
"Longitude": 15.8667
}
},
{
"Name": "Velika Jamnička",
"PostCode": "10451",
"Location": {
"Latitude": 45.605,
"Longitude": 15.8467
}
}
],
"PostCode": "10451"
},
{
"Name": "Gorica Svetojanska",
"Places": [
{
"Name": "Belčići",
"PostCode": "10453",
"Location": {
"Latitude": 45.7492,
"Longitude": 15.7196
}
},
{
"Name": "Brezovac Žumberački",
"PostCode": "10453",
"Location": {
"Latitude": 45.7492,
"Longitude": 15.7196
}
},
{
"Name": "Bukovac Svetojanski",
"PostCode": "10453",
"Location": {
"Latitude": 45.7492,
"Longitude": 15.7196
}
},
{
"Name": "Celine",
"PostCode": "10453",
"Location": {
"Latitude": 45.8931,
"Longitude": 16.4047
}
},
{
"Name": "Dolanjski Jarak",
"PostCode": "10453",
"Location": {
"Latitude": 45.7492,
"Longitude": 15.7196
}
},
{
"Name": "Draga Svetojanska",
"PostCode": "10453",
"Location": {
"Latitude": 45.7492,
"Longitude": 15.7196
}
},
{
"Name": "Gorica Svetojanska",
"PostCode": "10453",
"Location": {
"Latitude": 45.7189,
"Longitude": 15.5961
}
},
{
"Name": "Grabarak",
"PostCode": "10453",
"Location": {
"Latitude": 45.7492,
"Longitude": 15.7196
}
},
{
"Name": "Ivančići",
"PostCode": "10453",
"Location": {
"Latitude": 45.7167,
"Longitude": 15.6
}
},
{
"Name": "Kupeć Dol",
"PostCode": "10453",
"Location": {
"Latitude": 45.7492,
"Longitude": 15.7196
}
},
{
"Name": "Lanišće",
"PostCode": "10453",
"Location": {
"Latitude": 45.7492,
"Longitude": 15.7196
}
},
{
"Name": "Miladini",
"PostCode": "10453",
"Location": {
"Latitude": 45.7,
"Longitude": 15.6
}
},
{
"Name": "Paljugi",
"PostCode": "10453",
"Location": {
"Latitude": 45.7167,
"Longitude": 15.5667
}
},
{
"Name": "Prodin Dol",
"PostCode": "10453",
"Location": {
"Latitude": 45.7492,
"Longitude": 15.7196
}
},
{
"Name": "Redovje",
"PostCode": "10453",
"Location": {
"Latitude": 45.7492,
"Longitude": 15.7196
}
},
{
"Name": "Špigelski Breg",
"PostCode": "10453",
"Location": {
"Latitude": 45.7492,
"Longitude": 15.7196
}
},
{
"Name": "Srednjak",
"PostCode": "10453",
"Location": {
"Latitude": 45.7492,
"Longitude": 15.7196
}
},
{
"Name": "Tihočaj",
"PostCode": "10453",
"Location": {
"Latitude": 45.75,
"Longitude": 15.55
}
},
{
"Name": "Toplice",
"PostCode": "10453",
"Location": {
"Latitude": 45.7492,
"Longitude": 15.7196
}
}
],
"PostCode": "10453"
},
{
"Name": "Krašić",
"Places": [
{
"Name": "Brezarić",
"PostCode": "10454",
"Location": {
"Latitude": 45.663,
"Longitude": 15.5174
}
},
{
"Name": "Brlenić",
"PostCode": "10454",
"Location": {
"Latitude": 45.6333,
"Longitude": 15.5408
}
},
{
"Name": "Bukovica Prekriška",
"PostCode": "10454",
"Location": {
"Latitude": 45.663,
"Longitude": 15.5174
}
},
{
"Name": "Careva Draga",
"PostCode": "10454",
"Location": {
"Latitude": 45.663,
"Longitude": 15.5174
}
},
{
"Name": "Dol",
"PostCode": "10454",
"Location": {
"Latitude": 45.6833,
"Longitude": 15.5167
}
},
{
"Name": "Donje Prekrižje",
"PostCode": "10454",
"Location": {
"Latitude": 45.6833,
"Longitude": 15.4833
}
},
{
"Name": "Gornja Kupčina",
"PostCode": "10454",
"Location": {
"Latitude": 45.6167,
"Longitude": 15.5667
}
},
{
"Name": "Gornje Prekrižje",
"PostCode": "10454",
"Location": {
"Latitude": 45.6833,
"Longitude": 15.4833
}
},
{
"Name": "Gračac Slavetički",
"PostCode": "10454",
"Location": {
"Latitude": 45.7333,
"Longitude": 15.5167
}
},
{
"Name": "Hrženik",
"PostCode": "10454",
"Location": {
"Latitude": 45.65,
"Longitude": 15.5
}
},
{
"Name": "Hutin",
"PostCode": "10454",
"Location": {
"Latitude": 45.663,
"Longitude": 15.5174
}
},
{
"Name": "Jezerine",
"PostCode": "10454",
"Location": {
"Latitude": 45.6667,
"Longitude": 15.4667
}
},
{
"Name": "Kostel Pribićki",
"PostCode": "10454",
"Location": {
"Latitude": 45.663,
"Longitude": 15.5174
}
},
{
"Name": "Krašić",
"PostCode": "10454",
"Location": {
"Latitude": 45.6558,
"Longitude": 15.5178
}
},
{
"Name": "Krnežići",
"PostCode": "10454",
"Location": {
"Latitude": 45.663,
"Longitude": 15.5174
}
},
{
"Name": "Krupače",
"PostCode": "10454",
"Location": {
"Latitude": 45.663,
"Longitude": 15.5174
}
},
{
"Name": "Kučer",
"PostCode": "10454",
"Location": {
"Latitude": 45.663,
"Longitude": 15.5174
}
},
{
"Name": "Kurpezova Gorica",
"PostCode": "10454",
"Location": {
"Latitude": 45.663,
"Longitude": 15.5174
}
},
{
"Name": "Mirkopolje",
"PostCode": "10454",
"Location": {
"Latitude": 45.663,
"Longitude": 15.5174
}
},
{
"Name": "Pesak",
"PostCode": "10454",
"Location": {
"Latitude": 45.663,
"Longitude": 15.5174
}
},
{
"Name": "Pribić",
"PostCode": "10454",
"Location": {
"Latitude": 45.6667,
"Longitude": 15.5333
}
},
{
"Name": "Pribić Crkveni",
"PostCode": "10454",
"Location": {
"Latitude": 45.6833,
"Longitude": 15.5167
}
},
{
"Name": "Radina Gorica",
"PostCode": "10454",
"Location": {
"Latitude": 45.663,
"Longitude": 15.5174
}
},
{
"Name": "Rude Pribićke",
"PostCode": "10454",
"Location": {
"Latitude": 45.663,
"Longitude": 15.5174
}
},
{
"Name": "Strmec Pribićki",
"PostCode": "10454",
"Location": {
"Latitude": 45.663,
"Longitude": 15.5174
}
},
{
"Name": "Svrževo",
"PostCode": "10454",
"Location": {
"Latitude": 45.663,
"Longitude": 15.5174
}
},
{
"Name": "Vranjak Žumberački",
"PostCode": "10454",
"Location": {
"Latitude": 45.663,
"Longitude": 15.5174
}
},
{
"Name": "Vukšin Šipak",
"PostCode": "10454",
"Location": {
"Latitude": 45.6,
"Longitude": 15.5667
}
}
],
"PostCode": "10454"
},
{
"Name": "Kostanjevac",
"Places": [
{
"Name": "Barovka",
"PostCode": "10455",
"Location": {
"Latitude": 45.7081,
"Longitude": 15.4465
}
},
{
"Name": "Begovo Brdo Žumberačko",
"PostCode": "10455",
"Location": {
"Latitude": 45.7081,
"Longitude": 15.4465
}
},
{
"Name": "Čunkova Draga",
"PostCode": "10455",
"Location": {
"Latitude": 45.7081,
"Longitude": 15.4465
}
},
{
"Name": "Donji Oštrc",
"PostCode": "10455",
"Location": {
"Latitude": 45.7,
"Longitude": 15.4333
}
},
{
"Name": "Drašći Vrh",
"PostCode": "10455",
"Location": {
"Latitude": 45.75,
"Longitude": 15.4833
}
},
{
"Name": "Gornji Oštrc",
"PostCode": "10455",
"Location": {
"Latitude": 45.7,
"Longitude": 15.4333
}
},
{
"Name": "Grgetići",
"PostCode": "10455",
"Location": {
"Latitude": 45.7081,
"Longitude": 15.4465
}
},
{
"Name": "Jurkovo Selo",
"PostCode": "10455",
"Location": {
"Latitude": 45.7081,
"Longitude": 15.4465
}
},
{
"Name": "Konjarić Vrh",
"PostCode": "10455",
"Location": {
"Latitude": 45.7081,
"Longitude": 15.4465
}
},
{
"Name": "Kostanjevac",
"PostCode": "10455",
"Location": {
"Latitude": 45.7,
"Longitude": 15.4667
}
},
{
"Name": "Kupčina Žumberačka",
"PostCode": "10455",
"Location": {
"Latitude": 45.7081,
"Longitude": 15.4465
}
},
{
"Name": "Markušići",
"PostCode": "10455",
"Location": {
"Latitude": 45.7081,
"Longitude": 15.4465
}
},
{
"Name": "Medven Draga",
"PostCode": "10455",
"Location": {
"Latitude": 45.7081,
"Longitude": 15.4465
}
},
{
"Name": "Prvinci",
"PostCode": "10455",
"Location": {
"Latitude": 45.7081,
"Longitude": 15.4465
}
},
{
"Name": "Radinovo Brdo",
"PostCode": "10455",
"Location": {
"Latitude": 45.7081,
"Longitude": 15.4465
}
},
{
"Name": "Stupe",
"PostCode": "10455",
"Location": {
"Latitude": 45.7081,
"Longitude": 15.4465
}
},
{
"Name": "Tupčina",
"PostCode": "10455",
"Location": {
"Latitude": 45.7147,
"Longitude": 15.4386
}
},
{
"Name": "Veliki Vrh",
"PostCode": "10455",
"Location": {
"Latitude": 45.6333,
"Longitude": 15.4
}
},
{
"Name": "Vlašić Brdo",
"PostCode": "10455",
"Location": {
"Latitude": 45.7081,
"Longitude": 15.4465
}
},
{
"Name": "Vukovo Brdo",
"PostCode": "10455",
"Location": {
"Latitude": 45.7167,
"Longitude": 15.4833
}
},
{
"Name": "Žamarija",
"PostCode": "10455",
"Location": {
"Latitude": 45.7081,
"Longitude": 15.4465
}
},
{
"Name": "Željezno Žumberačko",
"PostCode": "10455",
"Location": {
"Latitude": 45.7081,
"Longitude": 15.4465
}
},
{
"Name": "Žumberak",
"PostCode": "10455",
"Location": {
"Latitude": 45.75,
"Longitude": 15.4333
}
}
],
"PostCode": "10455"
},
{
"Name": "Kalje",
"Places": [
{
"Name": "Bratelji",
"PostCode": "10456",
"Location": {
"Latitude": 45.6714,
"Longitude": 15.2297
}
},
{
"Name": "Budinjak",
"PostCode": "10456",
"Location": {
"Latitude": 45.7892,
"Longitude": 15.4908
}
},
{
"Name": "Cerovica",
"PostCode": "10456",
"Location": {
"Latitude": 44.9933,
"Longitude": 14.1547
}
},
{
"Name": "Čučići",
"PostCode": "10456",
"Location": {
"Latitude": 45.6714,
"Longitude": 15.2297
}
},
{
"Name": "Dane",
"PostCode": "10456",
"Location": {
"Latitude": 45.47,
"Longitude": 14.0406
}
},
{
"Name": "Glušinja",
"PostCode": "10456",
"Location": {
"Latitude": 45.6714,
"Longitude": 15.2297
}
},
{
"Name": "Golubići",
"PostCode": "10456",
"Location": {
"Latitude": 45.6714,
"Longitude": 15.2297
}
},
{
"Name": "Gornja Vas",
"PostCode": "10456",
"Location": {
"Latitude": 45.6714,
"Longitude": 15.2297
}
},
{
"Name": "Grgetići",
"PostCode": "10456",
"Location": {
"Latitude": 45.6714,
"Longitude": 15.2297
}
},
{
"Name": "Grič",
"PostCode": "10456",
"Location": {
"Latitude": 45.6714,
"Longitude": 15.2297
}
},
{
"Name": "Hartje",
"PostCode": "10456",
"Location": {
"Latitude": 45.75,
"Longitude": 15.45
}
},
{
"Name": "Javor",
"PostCode": "10456",
"Location": {
"Latitude": 45.6714,
"Longitude": 15.2297
}
},
{
"Name": "Kalje",
"PostCode": "10456",
"Location": {
"Latitude": 45.7667,
"Longitude": 15.4833
}
},
{
"Name": "Mrzlo Polje Žumberačko",
"PostCode": "10456",
"Location": {
"Latitude": 45.7833,
"Longitude": 15.4833
}
},
{
"Name": "Novo Selo Žumberačko",
"PostCode": "10456",
"Location": {
"Latitude": 45.6714,
"Longitude": 15.2297
}
},
{
"Name": "Osredek Žumberački",
"PostCode": "10456",
"Location": {
"Latitude": 45.6714,
"Longitude": 15.2297
}
},
{
"Name": "Osunja",
"PostCode": "10456",
"Location": {
"Latitude": 45.6714,
"Longitude": 15.2297
}
},
{
"Name": "Pećno",
"PostCode": "10456",
"Location": {
"Latitude": 45.75,
"Longitude": 15.5167
}
},
{
"Name": "Petričko Selo",
"PostCode": "10456",
"Location": {
"Latitude": 45.7664,
"Longitude": 15.4572
}
},
{
"Name": "Šimraki",
"PostCode": "10456",
"Location": {
"Latitude": 45.7833,
"Longitude": 15.5333
}
},
{
"Name": "Sječevac",
"PostCode": "10456",
"Location": {
"Latitude": 45.6714,
"Longitude": 15.2297
}
},
{
"Name": "Staničići Žumberački",
"PostCode": "10456",
"Location": {
"Latitude": 45.6714,
"Longitude": 15.2297
}
},
{
"Name": "Tisovac Žumberački",
"PostCode": "10456",
"Location": {
"Latitude": 45.6714,
"Longitude": 15.2297
}
},
{
"Name": "Tomaševci",
"PostCode": "10456",
"Location": {
"Latitude": 45.7667,
"Longitude": 15.4333
}
},
{
"Name": "Višći Vrh",
"PostCode": "10456",
"Location": {
"Latitude": 45.7667,
"Longitude": 15.4833
}
}
],
"PostCode": "10456"
},
{
"Name": "Sošice",
"Places": [
{
"Name": "Cernik",
"PostCode": "10457",
"Location": {
"Latitude": 45.735,
"Longitude": 15.3848
}
},
{
"Name": "Jezernice",
"PostCode": "10457",
"Location": {
"Latitude": 45.7333,
"Longitude": 15.3667
}
},
{
"Name": "Kordići Žumberački",
"PostCode": "10457",
"Location": {
"Latitude": 45.735,
"Longitude": 15.3848
}
},
{
"Name": "Plavci",
"PostCode": "10457",
"Location": {
"Latitude": 45.735,
"Longitude": 15.3848
}
},
{
"Name": "Reštovo Žumberačko",
"PostCode": "10457",
"Location": {
"Latitude": 45.74,
"Longitude": 15.3892
}
},
{
"Name": "Sopote",
"PostCode": "10457",
"Location": {
"Latitude": 45.735,
"Longitude": 15.3848
}
},
{
"Name": "Sošice",
"PostCode": "10457",
"Location": {
"Latitude": 45.75,
"Longitude": 15.3833
}
},
{
"Name": "Stari Grad Žumberački",
"PostCode": "10457",
"Location": {
"Latitude": 45.735,
"Longitude": 15.3848
}
},
{
"Name": "Visoće",
"PostCode": "10457",
"Location": {
"Latitude": 45.7167,
"Longitude": 15.4
}
}
],
"PostCode": "10457"
}
]
}
]
},
{
"Name": "Dubrovačko-Neretvanska",
"Provinces": [
{
"Communities": [
{
"Name": "Dubrovnik",
"Places": [
{
"Name": "Dubrovnik",
"PostCode": "20000",
"Location": {
"Latitude": 42.6506,
"Longitude": 18.0914
}
}
],
"PostCode": "20000"
},
{
"Name": "Topolo",
"Places": [
{
"Name": "Imotica",
"PostCode": "20205",
"Location": {
"Latitude": 42.9139,
"Longitude": 17.6861
}
},
{
"Name": "Ošlje",
"PostCode": "20205",
"Location": {
"Latitude": 42.8897,
"Longitude": 17.7356
}
},
{
"Name": "Štedrica",
"PostCode": "20205",
"Location": {
"Latitude": 42.8925,
"Longitude": 17.6839
}
},
{
"Name": "Stupa",
"PostCode": "20205",
"Location": {
"Latitude": 42.8969,
"Longitude": 17.7247
}
},
{
"Name": "Topolo",
"PostCode": "20205",
"Location": {
"Latitude": 42.9097,
"Longitude": 17.7047
}
}
],
"PostCode": "20205"
},
{
"Name": "Mlini",
"Places": [
{
"Name": "Bosanka",
"PostCode": "20207",
"Location": {
"Latitude": 42.6458,
"Longitude": 18.1258
}
},
{
"Name": "Brašina",
"PostCode": "20207",
"Location": {
"Latitude": 42.6267,
"Longitude": 18.1983
}
},
{
"Name": "Brgat Donji",
"PostCode": "20207",
"Location": {
"Latitude": 42.6472,
"Longitude": 18.1661
}
},
{
"Name": "Brgat Gornji",
"PostCode": "20207",
"Location": {
"Latitude": 42.6411,
"Longitude": 18.1558
}
},
{
"Name": "Buići",
"PostCode": "20207",
"Location": {
"Latitude": 42.6411,
"Longitude": 18.1956
}
},
{
"Name": "Čelopeci",
"PostCode": "20207",
"Location": {
"Latitude": 42.6347,
"Longitude": 18.1769
}
},
{
"Name": "Čibača",
"PostCode": "20207",
"Location": {
"Latitude": 42.6289,
"Longitude": 18.1711
}
},
{
"Name": "Grbavac",
"PostCode": "20207",
"Location": {
"Latitude": 42.6522,
"Longitude": 18.1789
}
},
{
"Name": "Kupari",
"PostCode": "20207",
"Location": {
"Latitude": 42.6203,
"Longitude": 18.1914
}
},
{
"Name": "Makoše",
"PostCode": "20207",
"Location": {
"Latitude": 42.65,
"Longitude": 18.1897
}
},
{
"Name": "Martinovići",
"PostCode": "20207",
"Location": {
"Latitude": 42.6506,
"Longitude": 18.1839
}
},
{
"Name": "Mlini",
"PostCode": "20207",
"Location": {
"Latitude": 42.6231,
"Longitude": 18.2072
}
},
{
"Name": "Petrača",
"PostCode": "20207",
"Location": {
"Latitude": 42.6325,
"Longitude": 18.1931
}
},
{
"Name": "Plat",
"PostCode": "20207",
"Location": {
"Latitude": 42.6086,
"Longitude": 18.2256
}
},
{
"Name": "Soline",
"PostCode": "20207",
"Location": {
"Latitude": 42.6147,
"Longitude": 18.2222
}
},
{
"Name": "Srebreno",
"PostCode": "20207",
"Location": {
"Latitude": 42.6233,
"Longitude": 18.1961
}
},
{
"Name": "Zavrelje",
"PostCode": "20207",
"Location": {
"Latitude": 42.6228,
"Longitude": 18.2125
}
}
],
"PostCode": "20207"
},
{
"Name": "Cavtat",
"Places": [
{
"Name": "Brotnice",
"PostCode": "20210",
"Location": {
"Latitude": 42.5944,
"Longitude": 18.2983
}
},
{
"Name": "Cavtat",
"PostCode": "20210",
"Location": {
"Latitude": 42.5811,
"Longitude": 18.2181
}
},
{
"Name": "Duba Konavoska",
"PostCode": "20210",
"Location": {
"Latitude": 42.6028,
"Longitude": 18.3417
}
},
{
"Name": "Jasenice",
"PostCode": "20210",
"Location": {
"Latitude": 42.5836,
"Longitude": 18.2112
}
},
{
"Name": "Šilješki",
"PostCode": "20210",
"Location": {
"Latitude": 42.5898,
"Longitude": 18.2761
}
},
{
"Name": "Stravča",
"PostCode": "20210",
"Location": {
"Latitude": 42.6006,
"Longitude": 18.3142
}
},
{
"Name": "Uskoplje",
"PostCode": "20210",
"Location": {
"Latitude": 42.5806,
"Longitude": 18.2522
}
},
{
"Name": "Zvekovica",
"PostCode": "20210",
"Location": {
"Latitude": 42.5767,
"Longitude": 18.2392
}
}
],
"PostCode": "20210"
},
{
"Name": "Čilipi",
"Places": [
{
"Name": "Čilipi",
"PostCode": "20213",
"Location": {
"Latitude": 42.5531,
"Longitude": 18.2761
}
},
{
"Name": "Gabrili",
"PostCode": "20213",
"Location": {
"Latitude": 42.5742,
"Longitude": 18.2903
}
},
{
"Name": "Komaji",
"PostCode": "20213",
"Location": {
"Latitude": 42.5356,
"Longitude": 18.3083
}
},
{
"Name": "Močići",
"PostCode": "20213",
"Location": {
"Latitude": 42.5617,
"Longitude": 18.2511
}
}
],
"PostCode": "20213"
},
{
"Name": "Gruda",
"Places": [
{
"Name": "Gruda",
"PostCode": "20215",
"Location": {
"Latitude": 42.5178,
"Longitude": 18.3744
}
},
{
"Name": "Poljice",
"PostCode": "20215",
"Location": {
"Latitude": 42.4961,
"Longitude": 18.3797
}
},
{
"Name": "Popovići",
"PostCode": "20215",
"Location": {
"Latitude": 42.5228,
"Longitude": 18.3186
}
},
{
"Name": "Radovčići",
"PostCode": "20215",
"Location": {
"Latitude": 42.5125,
"Longitude": 18.3453
}
}
],
"PostCode": "20215"
},
{
"Name": "Dubravka",
"Places": [
{
"Name": "Dubravka",
"PostCode": "20216",
"Location": {
"Latitude": 42.5353,
"Longitude": 18.4244
}
},
{
"Name": "Dunave",
"PostCode": "20216",
"Location": {
"Latitude": 42.5411,
"Longitude": 18.4058
}
},
{
"Name": "Vodovađa",
"PostCode": "20216",
"Location": {
"Latitude": 42.515,
"Longitude": 18.4253
}
},
{
"Name": "Zastolje",
"PostCode": "20216",
"Location": {
"Latitude": 42.5242,
"Longitude": 18.4003
}
}
],
"PostCode": "20216"
},
{
"Name": "Pridvorje",
"Places": [
{
"Name": "Drvenik",
"PostCode": "20217",
"Location": {
"Latitude": 42.5678,
"Longitude": 18.3069
}
},
{
"Name": "Kuna Konavoska",
"PostCode": "20217",
"Location": {
"Latitude": 42.5594,
"Longitude": 18.3619
}
},
{
"Name": "Ljuta",
"PostCode": "20217",
"Location": {
"Latitude": 42.5383,
"Longitude": 18.3781
}
},
{
"Name": "Lovorno",
"PostCode": "20217",
"Location": {
"Latitude": 42.5461,
"Longitude": 18.3606
}
},
{
"Name": "Mihanići",
"PostCode": "20217",
"Location": {
"Latitude": 42.5633,
"Longitude": 18.3275
}
},
{
"Name": "Pridvorje",
"PostCode": "20217",
"Location": {
"Latitude": 42.5514,
"Longitude": 18.3469
}
}
],
"PostCode": "20217"
},
{
"Name": "Pločice",
"Places": [
{
"Name": "Đurinići",
"PostCode": "20218",
"Location": {
"Latitude": 42.4719,
"Longitude": 18.4425
}
},
{
"Name": "Mikulići",
"PostCode": "20218",
"Location": {
"Latitude": 42.4808,
"Longitude": 18.4114
}
},
{
"Name": "Molunat",
"PostCode": "20218",
"Location": {
"Latitude": 42.45,
"Longitude": 18.4372
}
},
{
"Name": "Palje Brdo",
"PostCode": "20218",
"Location": {
"Latitude": 42.5133,
"Longitude": 18.4111
}
},
{
"Name": "Pločice",
"PostCode": "20218",
"Location": {
"Latitude": 42.4933,
"Longitude": 18.4114
}
},
{
"Name": "Vitaljina",
"PostCode": "20218",
"Location": {
"Latitude": 42.4539,
"Longitude": 18.4714
}
}
],
"PostCode": "20218"
},
{
"Name": "Koločep",
"Places": [
{
"Name": "Koločep",
"PostCode": "20221",
"Location": {
"Latitude": 42.6761,
"Longitude": 18.0097
}
}
],
"PostCode": "20221"
},
{
"Name": "Lopud",
"Places": [
{
"Name": "Lopud",
"PostCode": "20222",
"Location": {
"Latitude": 42.6928,
"Longitude": 17.9469
}
}
],
"PostCode": "20222"
},
{
"Name": "Šipanjska Luka",
"Places": [
{
"Name": "Šipanjska Luka",
"PostCode": "20223",
"Location": {
"Latitude": 42.7289,
"Longitude": 17.8672
}
},
{
"Name": "Suđurađ",
"PostCode": "20223",
"Location": {
"Latitude": 42.7119,
"Longitude": 17.9106
}
}
],
"PostCode": "20223"
},
{
"Name": "Maranovići",
"Places": [
{
"Name": "Korita",
"PostCode": "20224",
"Location": {
"Latitude": 42.7128,
"Longitude": 17.7081
}
},
{
"Name": "Maranovići",
"PostCode": "20224",
"Location": {
"Latitude": 42.7156,
"Longitude": 17.67
}
},
{
"Name": "Okuklje",
"PostCode": "20224",
"Location": {
"Latitude": 42.7283,
"Longitude": 17.6692
}
},
{
"Name": "Prožura",
"PostCode": "20224",
"Location": {
"Latitude": 42.7286,
"Longitude": 17.6494
}
},
{
"Name": "Prožurska Luka",
"PostCode": "20224",
"Location": {
"Latitude": 42.7213,
"Longitude": 17.6742
}
},
{
"Name": "Saplunara",
"PostCode": "20224",
"Location": {
"Latitude": 42.7213,
"Longitude": 17.6742
}
}
],
"PostCode": "20224"
},
{
"Name": "Babino Polje",
"Places": [
{
"Name": "Babino Polje",
"PostCode": "20225",
"Location": {
"Latitude": 42.7333,
"Longitude": 17.5619
}
},
{
"Name": "Blato",
"PostCode": "20225",
"Location": {
"Latitude": 42.7625,
"Longitude": 17.4822
}
},
{
"Name": "Kozarica",
"PostCode": "20225",
"Location": {
"Latitude": 42.7764,
"Longitude": 17.4642
}
},
{
"Name": "Ropa",
"PostCode": "20225",
"Location": {
"Latitude": 42.7528,
"Longitude": 17.4603
}
},
{
"Name": "Sobra",
"PostCode": "20225",
"Location": {
"Latitude": 42.7372,
"Longitude": 17.6003
}
}
],
"PostCode": "20225"
},
{
"Name": "Goveđari",
"Places": [
{
"Name": "Babine Kuće",
"PostCode": "20226",
"Location": {
"Latitude": 42.8931,
"Longitude": 17.486
}
},
{
"Name": "Goveđari",
"PostCode": "20226",
"Location": {
"Latitude": 42.7833,
"Longitude": 17.3667
}
},
{
"Name": "Njivice",
"PostCode": "20226",
"Location": {
"Latitude": 43.3075,
"Longitude": 17.1569
}
},
{
"Name": "Polače",
"PostCode": "20226",
"Location": {
"Latitude": 42.7836,
"Longitude": 17.3797
}
},
{
"Name": "Pomena",
"PostCode": "20226",
"Location": {
"Latitude": 42.8931,
"Longitude": 17.486
}
},
{
"Name": "Pristanište",
"PostCode": "20226",
"Location": {
"Latitude": 42.8931,
"Longitude": 17.486
}
},
{
"Name": "Soline",
"PostCode": "20226",
"Location": {
"Latitude": 42.6981,
"Longitude": 18.0406
}
},
{
"Name": "Tatinica",
"PostCode": "20226",
"Location": {
"Latitude": 42.8931,
"Longitude": 17.486
}
},
{
"Name": "Velika Loza",
"PostCode": "20226",
"Location": {
"Latitude": 42.8931,
"Longitude": 17.486
}
}
],
"PostCode": "20226"
},
{
"Name": "Ston",
"Places": [
{
"Name": "Boljenovići",
"PostCode": "20230",
"Location": {
"Latitude": 42.8481,
"Longitude": 17.6247
}
},
{
"Name": "Broce",
"PostCode": "20230",
"Location": {
"Latitude": 42.8206,
"Longitude": 17.7156
}
},
{
"Name": "Česvinica",
"PostCode": "20230",
"Location": {
"Latitude": 42.8514,
"Longitude": 17.6669
}
},
{
"Name": "Duba Stonska",
"PostCode": "20230",
"Location": {
"Latitude": 42.8739,
"Longitude": 17.6417
}
},
{
"Name": "Hodilje",
"PostCode": "20230",
"Location": {
"Latitude": 42.8569,
"Longitude": 17.6894
}
},
{
"Name": "Luka",
"PostCode": "20230",
"Location": {
"Latitude": 42.8664,
"Longitude": 17.6756
}
},
{
"Name": "Mali Ston",
"PostCode": "20230",
"Location": {
"Latitude": 42.8467,
"Longitude": 17.7036
}
},
{
"Name": "Metohija",
"PostCode": "20230",
"Location": {
"Latitude": 42.8411,
"Longitude": 17.6336
}
},
{
"Name": "Sparagovići",
"PostCode": "20230",
"Location": {
"Latitude": 42.855,
"Longitude": 17.6133
}
},
{
"Name": "Ston",
"PostCode": "20230",
"Location": {
"Latitude": 42.8386,
"Longitude": 17.6964
}
},
{
"Name": "Zabrđe",
"PostCode": "20230",
"Location": {
"Latitude": 42.8606,
"Longitude": 17.5867
}
}
],
"PostCode": "20230"
},
{
"Name": "Doli",
"Places": [
{
"Name": "Čepikuće",
"PostCode": "20231",
"Location": {
"Latitude": 42.8581,
"Longitude": 17.8347
}
},
{
"Name": "Doli",
"PostCode": "20231",
"Location": {
"Latitude": 42.8197,
"Longitude": 17.7803
}
},
{
"Name": "Lisac",
"PostCode": "20231",
"Location": {
"Latitude": 42.8478,
"Longitude": 17.8128
}
},
{
"Name": "Podimoć",
"PostCode": "20231",
"Location": {
"Latitude": 42.8344,
"Longitude": 17.8286
}
},
{
"Name": "Smokovljani",
"PostCode": "20231",
"Location": {
"Latitude": 42.8581,
"Longitude": 17.7956
}
},
{
"Name": "Točionik",
"PostCode": "20231",
"Location": {
"Latitude": 42.8725,
"Longitude": 17.8117
}
},
{
"Name": "Trnovica",
"PostCode": "20231",
"Location": {
"Latitude": 42.8897,
"Longitude": 17.8375
}
},
{
"Name": "Visočani",
"PostCode": "20231",
"Location": {
"Latitude": 42.8542,
"Longitude": 17.7961
}
},
{
"Name": "Zaton Doli",
"PostCode": "20231",
"Location": {
"Latitude": 42.8331,
"Longitude": 17.7511
}
}
],
"PostCode": "20231"
},
{
"Name": "Slano",
"Places": [
{
"Name": "Banići",
"PostCode": "20232",
"Location": {
"Latitude": 42.7983,
"Longitude": 17.8575
}
},
{
"Name": "Majkovi",
"PostCode": "20232",
"Location": {
"Latitude": 42.8124,
"Longitude": 17.8616
}
},
{
"Name": "Mravnica",
"PostCode": "20232",
"Location": {
"Latitude": 42.8186,
"Longitude": 17.8572
}
},
{
"Name": "Podgora",
"PostCode": "20232",
"Location": {
"Latitude": 42.8486,
"Longitude": 17.8364
}
},
{
"Name": "Slano",
"PostCode": "20232",
"Location": {
"Latitude": 42.7861,
"Longitude": 17.8919
}
},
{
"Name": "Trnova",
"PostCode": "20232",
"Location": {
"Latitude": 42.8106,
"Longitude": 17.865
}
}
],
"PostCode": "20232"
},
{
"Name": "Trsteno",
"Places": [
{
"Name": "Trsteno",
"PostCode": "20233",
"Location": {
"Latitude": 42.7172,
"Longitude": 17.9803
}
}
],
"PostCode": "20233"
},
{
"Name": "Orašac",
"Places": [
{
"Name": "Brsećine",
"PostCode": "20234",
"Location": {
"Latitude": 42.7342,
"Longitude": 17.9583
}
},
{
"Name": "Dubravica",
"PostCode": "20234",
"Location": {
"Latitude": 42.7461,
"Longitude": 17.9428
}
},
{
"Name": "Gromača",
"PostCode": "20234",
"Location": {
"Latitude": 42.7283,
"Longitude": 18.0153
}
},
{
"Name": "Kliševo",
"PostCode": "20234",
"Location": {
"Latitude": 42.7272,
"Longitude": 18.0025
}
},
{
"Name": "Ljubač",
"PostCode": "20234",
"Location": {
"Latitude": 42.7231,
"Longitude": 18.0242
}
},
{
"Name": "Mravinjac",
"PostCode": "20234",
"Location": {
"Latitude": 42.7525,
"Longitude": 17.9583
}
},
{
"Name": "Mrčevo",
"PostCode": "20234",
"Location": {
"Latitude": 42.7333,
"Longitude": 17.9833
}
},
{
"Name": "Orašac",
"PostCode": "20234",
"Location": {
"Latitude": 42.7019,
"Longitude": 18.0078
}
}
],
"PostCode": "20234"
},
{
"Name": "Zaton Veliki",
"Places": [
{
"Name": "Zaton",
"PostCode": "20235",
"Location": {
"Latitude": 42.6908,
"Longitude": 18.0381
}
}
],
"PostCode": "20235"
},
{
"Name": "Mokošica",
"Places": [
{
"Name": "Čajkovica",
"PostCode": "20236",
"Location": {
"Latitude": 42.6661,
"Longitude": 18.1403
}
},
{
"Name": "Čajkovići",
"PostCode": "20236",
"Location": {
"Latitude": 42.67,
"Longitude": 18.1158
}
},
{
"Name": "Donje Obuljeno",
"PostCode": "20236",
"Location": {
"Latitude": 42.673,
"Longitude": 18.1127
}
},
{
"Name": "Gornje Obuljeno",
"PostCode": "20236",
"Location": {
"Latitude": 42.673,
"Longitude": 18.1127
}
},
{
"Name": "Knežica",
"PostCode": "20236",
"Location": {
"Latitude": 42.6561,
"Longitude": 18.1414
}
},
{
"Name": "Komolac",
"PostCode": "20236",
"Location": {
"Latitude": 42.6706,
"Longitude": 18.1358
}
},