{
 "Structure": "State/Community/Place",
 "States": [
  {
   "Name": "Zagrebačka",
   "Communities": [
    {
     "Name": "Zagreb",
     "Places": [
      {
       "Name": "Zagreb-dio",
       "PostCode": "10000",
       "LatLong": "45.7333,15.9667"
      },
      {
       "Name": "Sljeme",
       "PostCode": "10000",
       "LatLong": "45.7333,15.9667"
      },
      {
       "Name": "Zagreb-Trešnjevka",
       "PostCode": "10110",
       "LatLong": "45.7769,16.068"
      }
     ]
    },
    {
     "Name": "Zagreb-Sloboština",
     "Places": [
      {
       "Name": "Buzin",
       "PostCode": "10010",
       "LatLong": "45.75,16"
      },
      {
       "Name": "Veliko Polje",
       "PostCode": "10010",
       "LatLong": "45.75,16"
      },
      {
       "Name": "Zagreb-dio",
       "PostCode": "10010",
       "LatLong": "45.75,16"
      }
     ]
    },
    {
     "Name": "Zagreb-Novi Zagreb",
     "Places": [
      {
       "Name": "Odra",
       "PostCode": "10020",
       "LatLong": "45.7333,16"
      },
      {
       "Name": "Zagreb-dio",
       "PostCode": "10020",
       "LatLong": "45.7312,15.9625"
      },
      {
       "Name": "Odranski Obrež",
       "PostCode": "10020",
       "LatLong": "45.7167,15.9333"
      },
      {
       "Name": "Donji Čehi",
       "PostCode": "10020",
       "LatLong": "45.7333,15.9667"
      },
      {
       "Name": "Hrašće Turopoljsko",
       "PostCode": "10020",
       "LatLong": "45.7333,16"
      },
      {
       "Name": "Mala Mlaka",
       "PostCode": "10020",
       "LatLong": "45.7333,15.9667"
      },
      {
       "Name": "Gornji Čehi",
       "PostCode": "10020",
       "LatLong": "45.75,15.9667"
      },
      {
       "Name": "Botinec",
       "PostCode": "10020",
       "LatLong": "45.75,15.95"
      },
      {
       "Name": "Strmec",
       "PostCode": "10020",
       "LatLong": "45.7,15.9167"
      }
     ]
    },
    {
     "Name": "Zagreb-Dubrava",
     "Places": [
      {
       "Name": "Zagreb-dio",
       "PostCode": "10040",
       "LatLong": "45.7333,15.9667"
      }
     ]
    },
    {
     "Name": "Zagreb-Susedgrad",
     "Places": [
      {
       "Name": "Zagreb-dio",
       "PostCode": "10090",
       "LatLong": "45.7333,15.9667"
      }
     ]
    },
    {
     "Name": "Lučko",
     "Places": [
      {
       "Name": "Lučko",
       "PostCode": "10250",
       "LatLong": "45.7611,15.8703"
      },
      {
       "Name": "Ježdovec",
       "PostCode": "10250",
       "LatLong": "45.7833,15.85"
      }
     ]
    },
    {
     "Name": "Hrvatski Leskovac",
     "Places": [
      {
       "Name": "Demerje",
       "PostCode": "10251",
       "LatLong": "45.7419,15.9075"
      },
      {
       "Name": "Hrvatski Leskovac",
       "PostCode": "10251",
       "LatLong": "45.7419,15.9075"
      }
     ]
    },
    {
     "Name": "Donji Dragonožec",
     "Places": [
      {
       "Name": "Gornji Dragonožec",
       "PostCode": "10253",
       "LatLong": "45.65,15.95"
      },
      {
       "Name": "Bukovčak",
       "PostCode": "10253",
       "LatLong": "45.6538,15.9504"
      },
      {
       "Name": "Gudci",
       "PostCode": "10253",
       "LatLong": "45.6569,15.9886"
      },
      {
       "Name": "Donji Trupci",
       "PostCode": "10253",
       "LatLong": "45.6538,15.9504"
      },
      {
       "Name": "Donji Dragonožec",
       "PostCode": "10253",
       "LatLong": "45.6619,15.9469"
      },
      {
       "Name": "Gornji Trupci",
       "PostCode": "10253",
       "LatLong": "45.6538,15.9504"
      },
      {
       "Name": "Lipnica",
       "PostCode": "10253",
       "LatLong": "45.6333,15.9167"
      },
      {
       "Name": "Havidić Selo",
       "PostCode": "10253",
       "LatLong": "45.6538,15.9504"
      },
      {
       "Name": "Markuševec Turopoljski",
       "PostCode": "10253",
       "LatLong": "45.6667,15.95"
      }
     ]
    },
    {
     "Name": "Gornji Stupnik",
     "Places": [
      {
       "Name": "Gornji Stupnik",
       "PostCode": "10255",
       "LatLong": "45.7667,15.85"
      },
      {
       "Name": "Obrež Stupnički",
       "PostCode": "10255",
       "LatLong": "45.7167,15.9333"
      },
      {
       "Name": "Donji Stupnik",
       "PostCode": "10255",
       "LatLong": "45.7417,15.8917"
      }
     ]
    },
    {
     "Name": "Brezovica",
     "Places": [
      {
       "Name": "Brezovica",
       "PostCode": "10257",
       "LatLong": "45.7333,15.8833"
      },
      {
       "Name": "Desprim",
       "PostCode": "10257",
       "LatLong": "45.7111,15.8861"
      },
      {
       "Name": "Goli Breg",
       "PostCode": "10257",
       "LatLong": "45.7333,15.9"
      },
      {
       "Name": "Drežnik Brezovički",
       "PostCode": "10257",
       "LatLong": "45.7111,15.8861"
      },
      {
       "Name": "Hudi Bitek",
       "PostCode": "10257",
       "LatLong": "45.7167,15.8833"
      },
      {
       "Name": "Graničari",
       "PostCode": "10257",
       "LatLong": "45.7111,15.8861"
      },
      {
       "Name": "Brebernica",
       "PostCode": "10257",
       "LatLong": "45.6667,15.8833"
      },
      {
       "Name": "Zadvorsko",
       "PostCode": "10257",
       "LatLong": "45.7333,15.9167"
      },
      {
       "Name": "Stavjak",
       "PostCode": "10257",
       "LatLong": "45.7111,15.8861"
      },
      {
       "Name": "Kupinečki Kraljevec",
       "PostCode": "10257",
       "LatLong": "45.6833,15.85"
      }
     ]
    },
    {
     "Name": "Zaprešić",
     "Places": [
      {
       "Name": "Šibice",
       "PostCode": "10290",
       "LatLong": "45.8517,15.8196"
      },
      {
       "Name": "Zaprešić",
       "PostCode": "10290",
       "LatLong": "45.8564,15.8078"
      },
      {
       "Name": "Lužnica",
       "PostCode": "10290",
       "LatLong": "45.8517,15.8196"
      },
      {
       "Name": "Ivanec Bistranski",
       "PostCode": "10290",
       "LatLong": "45.8469,15.8314"
      }
     ]
    },
    {
     "Name": "Prigorje Brdovečko",
     "Places": [
      {
       "Name": "Trstenik Pušćanski",
       "PostCode": "10291",
       "LatLong": "45.9,15.75"
      },
      {
       "Name": "Savski Marof",
       "PostCode": "10291",
       "LatLong": "45.8642,15.7219"
      },
      {
       "Name": "Javorje",
       "PostCode": "10291",
       "LatLong": "45.8667,15.7667"
      },
      {
       "Name": "Brdovec",
       "PostCode": "10291",
       "LatLong": "45.8678,15.7833"
      },
      {
       "Name": "Zdenci Brdovečki",
       "PostCode": "10291",
       "LatLong": "45.8667,15.75"
      },
      {
       "Name": "Prudnice",
       "PostCode": "10291",
       "LatLong": "45.8741,15.7517"
      },
      {
       "Name": "Prigorje Brdovečko",
       "PostCode": "10291",
       "LatLong": "45.8794,15.7381"
      },
      {
       "Name": "Drenje Brdovečko",
       "PostCode": "10291",
       "LatLong": "45.8741,15.7517"
      }
     ]
    },
    {
     "Name": "Šenkovec",
     "Places": [
      {
       "Name": "Ključ Brdovečki",
       "PostCode": "10292",
       "LatLong": "45.8667,15.7"
      },
      {
       "Name": "Šenkovec",
       "PostCode": "10292",
       "LatLong": "45.8889,15.7003"
      },
      {
       "Name": "Donji Laduč",
       "PostCode": "10292",
       "LatLong": "45.8833,15.7333"
      },
      {
       "Name": "Harmica",
       "PostCode": "10292",
       "LatLong": "45.8833,15.7"
      },
      {
       "Name": "Gornji Laduč",
       "PostCode": "10292",
       "LatLong": "45.8833,15.7333"
      },
      {
       "Name": "Vukovo Selo",
       "PostCode": "10292",
       "LatLong": "45.8811,15.7134"
      }
     ]
    },
    {
     "Name": "Dubravica",
     "Places": [
      {
       "Name": "Bela Gorica",
       "PostCode": "10293",
       "LatLong": "45.9333,15.7167"
      },
      {
       "Name": "Lukavec Sutlanski",
       "PostCode": "10293",
       "LatLong": "45.9667,15.7333"
      },
      {
       "Name": "Vučilčevo",
       "PostCode": "10293",
       "LatLong": "45.95,15.7278"
      },
      {
       "Name": "Dubravica",
       "PostCode": "10293",
       "LatLong": "45.95,15.7333"
      },
      {
       "Name": "Kraj Gornji -sjeverni dio",
       "PostCode": "10293",
       "LatLong": "45.95,15.7278"
      },
      {
       "Name": "Lugarski Breg",
       "PostCode": "10293",
       "LatLong": "45.95,15.7278"
      },
      {
       "Name": "Pologi",
       "PostCode": "10293",
       "LatLong": "45.95,15.7278"
      },
      {
       "Name": "Rozga",
       "PostCode": "10293",
       "LatLong": "45.95,15.7278"
      },
      {
       "Name": "Donji Čemehovec",
       "PostCode": "10293",
       "LatLong": "45.95,15.7278"
      },
      {
       "Name": "Kraj Gornji -južni dio",
       "PostCode": "10293",
       "LatLong": "45.95,15.7278"
      },
      {
       "Name": "Prosinec",
       "PostCode": "10293",
       "LatLong": "45.95,15.7278"
      },
      {
       "Name": "Bobovec Rozganski",
       "PostCode": "10293",
       "LatLong": "45.95,15.7278"
      }
     ]
    },
    {
     "Name": "Donja Pušća",
     "Places": [
      {
       "Name": "Gornja Pušća",
       "PostCode": "10294",
       "LatLong": "45.9333,15.7833"
      },
      {
       "Name": "Pojatno",
       "PostCode": "10294",
       "LatLong": "45.905,15.8006"
      },
      {
       "Name": "Hrebine",
       "PostCode": "10294",
       "LatLong": "45.9183,15.7872"
      },
      {
       "Name": "Donja Pušća",
       "PostCode": "10294",
       "LatLong": "45.9167,15.7778"
      },
      {
       "Name": "Marija Magdalena",
       "PostCode": "10294",
       "LatLong": "45.9183,15.7872"
      },
      {
       "Name": "Celine Pušćanske",
       "PostCode": "10294",
       "LatLong": "45.9183,15.7872"
      },
      {
       "Name": "Hruševec Pušćanski",
       "PostCode": "10294",
       "LatLong": "45.9183,15.7872"
      },
      {
       "Name": "Žlebec Gorički",
       "PostCode": "10294",
       "LatLong": "45.9183,15.7872"
      },
      {
       "Name": "Žlebec Pušćanski",
       "PostCode": "10294",
       "LatLong": "45.9183,15.7872"
      },
      {
       "Name": "Bregovljana",
       "PostCode": "10294",
       "LatLong": "45.9183,15.7872"
      },
      {
       "Name": "Dubrava Pušćanska",
       "PostCode": "10294",
       "LatLong": "45.9183,15.7872"
      }
     ]
    },
    {
     "Name": "Kupljenovo",
     "Places": [
      {
       "Name": "Kupljenovo",
       "PostCode": "10295",
       "LatLong": "45.9333,15.8167"
      },
      {
       "Name": "Hruševec Kupljenski",
       "PostCode": "10295",
       "LatLong": "45.9333,15.8167"
      },
      {
       "Name": "Merenje",
       "PostCode": "10295",
       "LatLong": "45.9333,15.8167"
      }
     ]
    },
    {
     "Name": "Luka",
     "Places": [
      {
       "Name": "Luka",
       "PostCode": "10296",
       "LatLong": "45.9667,15.8167"
      },
      {
       "Name": "Pluska",
       "PostCode": "10296",
       "LatLong": "45.9667,15.8167"
      },
      {
       "Name": "Žejinci",
       "PostCode": "10296",
       "LatLong": "45.9667,15.8167"
      },
      {
       "Name": "Krajska Vas",
       "PostCode": "10296",
       "LatLong": "45.9667,15.8167"
      },
      {
       "Name": "Vadina",
       "PostCode": "10296",
       "LatLong": "45.9667,15.8167"
      }
     ]
    },
    {
     "Name": "Jakovlje",
     "Places": [
      {
       "Name": "Igrišće",
       "PostCode": "10297",
       "LatLong": "45.9667,15.8667"
      },
      {
       "Name": "Kraljev Vrh",
       "PostCode": "10297",
       "LatLong": "45.95,15.9167"
      },
      {
       "Name": "Jakovlje",
       "PostCode": "10297",
       "LatLong": "45.9514,15.8561"
      }
     ]
    },
    {
     "Name": "Donja Bistra",
     "Places": [
      {
       "Name": "Poljanica Bistranska",
       "PostCode": "10298",
       "LatLong": "45.9,15.8833"
      },
      {
       "Name": "Oborovo Bistransko",
       "PostCode": "10298",
       "LatLong": "45.8945,15.868"
      },
      {
       "Name": "Novaki Bistranski",
       "PostCode": "10298",
       "LatLong": "45.8833,15.8667"
      },
      {
       "Name": "Jablanovec",
       "PostCode": "10298",
       "LatLong": "45.8758,15.8536"
      },
      {
       "Name": "Gornja Bistra",
       "PostCode": "10298",
       "LatLong": "45.9167,15.9"
      },
      {
       "Name": "Donja Bistra",
       "PostCode": "10298",
       "LatLong": "45.9078,15.8544"
      },
      {
       "Name": "Bukovje Bistransko",
       "PostCode": "10298",
       "LatLong": "45.8833,15.85"
      }
     ]
    },
    {
     "Name": "Marija Gorica",
     "Places": [
      {
       "Name": "Marija Gorica",
       "PostCode": "10299",
       "LatLong": "45.9167,15.7333"
      },
      {
       "Name": "Kraj Donji",
       "PostCode": "10299",
       "LatLong": "45.9167,15.7333"
      },
      {
       "Name": "Hrastina Brdovečka",
       "PostCode": "10299",
       "LatLong": "45.9167,15.7333"
      },
      {
       "Name": "Križ Brdovečki",
       "PostCode": "10299",
       "LatLong": "45.9167,15.7333"
      },
      {
       "Name": "Oplaznik",
       "PostCode": "10299",
       "LatLong": "45.9167,15.7333"
      }
     ]
    },
    {
     "Name": "Ivanić-Grad",
     "Places": [
      {
       "Name": "Donji Šarampov",
       "PostCode": "10310",
       "LatLong": "45.7,16.4167"
      },
      {
       "Name": "Tarno",
       "PostCode": "10310",
       "LatLong": "45.7333,16.3667"
      },
      {
       "Name": "Ivanić Grad",
       "PostCode": "10310",
       "LatLong": "45.7083,16.3969"
      },
      {
       "Name": "Opatinec",
       "PostCode": "10310",
       "LatLong": "45.7167,16.3833"
      },
      {
       "Name": "Jalševec Breški",
       "PostCode": "10310",
       "LatLong": "45.7146,16.3909"
      },
      {
       "Name": "Lepšić",
       "PostCode": "10310",
       "LatLong": "45.7146,16.3909"
      }
     ]
    },
    {
     "Name": "Posavski Bregi",
     "Places": [
      {
       "Name": "Posavski Bregi",
       "PostCode": "10311",
       "LatLong": "45.6797,16.3536"
      },
      {
       "Name": "Trebovec",
       "PostCode": "10311",
       "LatLong": "45.7167,16.3167"
      },
      {
       "Name": "Greda Breška",
       "PostCode": "10311",
       "LatLong": "45.6868,16.3426"
      },
      {
       "Name": "Zaklepica",
       "PostCode": "10311",
       "LatLong": "45.7,16.35"
      },
      {
       "Name": "Šemovec Breški",
       "PostCode": "10311",
       "LatLong": "45.6868,16.3426"
      },
      {
       "Name": "Topolje",
       "PostCode": "10311",
       "LatLong": "45.6508,16.3503"
      },
      {
       "Name": "Zelina Breška",
       "PostCode": "10311",
       "LatLong": "45.6868,16.3426"
      }
     ]
    },
    {
     "Name": "Kloštar Ivanić",
     "Places": [
      {
       "Name": "Donja Obreška",
       "PostCode": "10312",
       "LatLong": "45.7833,16.45"
      },
      {
       "Name": "Lipovec Lonjski",
       "PostCode": "10312",
       "LatLong": "45.7619,16.4429"
      },
      {
       "Name": "Sobočani",
       "PostCode": "10312",
       "LatLong": "45.7322,16.4547"
      },
      {
       "Name": "Križci",
       "PostCode": "10312",
       "LatLong": "45.7667,16.4333"
      },
      {
       "Name": "Šćapovec",
       "PostCode": "10312",
       "LatLong": "45.75,16.4167"
      },
      {
       "Name": "Gornja Obreška",
       "PostCode": "10312",
       "LatLong": "45.7833,16.45"
      },
      {
       "Name": "Predavec",
       "PostCode": "10312",
       "LatLong": "45.75,16.4333"
      },
      {
       "Name": "Stara Marča",
       "PostCode": "10312",
       "LatLong": "45.7833,16.5"
      },
      {
       "Name": "Bešlinec",
       "PostCode": "10312",
       "LatLong": "45.7631,16.4506"
      },
      {
       "Name": "Čemernica Lonjska",
       "PostCode": "10312",
       "LatLong": "45.7667,16.4167"
      },
      {
       "Name": "Kloštar Ivanić",
       "PostCode": "10312",
       "LatLong": "45.7406,16.4242"
      }
     ]
    },
    {
     "Name": "Graberje Ivaničko",
     "Places": [
      {
       "Name": "Deanovec",
       "PostCode": "10313",
       "LatLong": "45.6953,16.4819"
      },
      {
       "Name": "Prkos Ivanićki",
       "PostCode": "10313",
       "LatLong": "45.7136,16.4525"
      },
      {
       "Name": "Caginec",
       "PostCode": "10313",
       "LatLong": "45.7069,16.4746"
      },
      {
       "Name": "Derežani",
       "PostCode": "10313",
       "LatLong": "45.7,16.4667"
      },
      {
       "Name": "Šumećani",
       "PostCode": "10313",
       "LatLong": "45.7089,16.4883"
      },
      {
       "Name": "Graberje Ivanićko",
       "PostCode": "10313",
       "LatLong": "45.7167,16.4833"
      }
     ]
    },
    {
     "Name": "Križ",
     "Places": [
      {
       "Name": "Gornji Prnjarovec",
       "PostCode": "10314",
       "LatLong": "45.6833,16.5333"
      },
      {
       "Name": "Širinec",
       "PostCode": "10314",
       "LatLong": "45.6783,16.4994"
      },
      {
       "Name": "Velika Hrastilnica",
       "PostCode": "10314",
       "LatLong": "45.65,16.4833"
      },
      {
       "Name": "Bunjani",
       "PostCode": "10314",
       "LatLong": "45.7,16.5"
      },
      {
       "Name": "Šušnjari",
       "PostCode": "10314",
       "LatLong": "45.693,16.5327"
      },
      {
       "Name": "Mala Hrastilnica",
       "PostCode": "10314",
       "LatLong": "45.65,16.5"
      },
      {
       "Name": "Johovec",
       "PostCode": "10314",
       "LatLong": "45.6667,16.4833"
      },
      {
       "Name": "Križ",
       "PostCode": "10314",
       "LatLong": "45.665,16.5233"
      },
      {
       "Name": "Donji Prnjarovec",
       "PostCode": "10314",
       "LatLong": "45.6833,16.55"
      }
     ]
    },
    {
     "Name": "Novoselec",
     "Places": [
      {
       "Name": "Rečica Kriška",
       "PostCode": "10315",
       "LatLong": "45.6617,16.5808"
      },
      {
       "Name": "Okešinec",
       "PostCode": "10315",
       "LatLong": "45.6347,16.5339"
      },
      {
       "Name": "Vezišće",
       "PostCode": "10315",
       "LatLong": "45.6167,16.5333"
      },
      {
       "Name": "Obedišće",
       "PostCode": "10315",
       "LatLong": "45.6331,16.5553"
      },
      {
       "Name": "Novoselec",
       "PostCode": "10315",
       "LatLong": "45.6525,16.5364"
      },
      {
       "Name": "Razljev",
       "PostCode": "10315",
       "LatLong": "45.6442,16.5483"
      },
      {
       "Name": "Konšćani",
       "PostCode": "10315",
       "LatLong": "45.6667,16.55"
      }
     ]
    },
    {
     "Name": "Lijevi Dubrovčak",
     "Places": [
      {
       "Name": "Lijevi Dubrovčak",
       "PostCode": "10316",
       "LatLong": "45.6517,16.3456"
      },
      {
       "Name": "Prerovec",
       "PostCode": "10316",
       "LatLong": "45.6447,16.3033"
      }
     ]
    },
    {
     "Name": "Vrbovec",
     "Places": [
      {
       "Name": "Lovrečka Varoš",
       "PostCode": "10340",
       "LatLong": "45.9167,16.4167"
      },
      {
       "Name": "Dijaneš",
       "PostCode": "10340",
       "LatLong": "45.9,16.35"
      },
      {
       "Name": "Naselje Stjepana Radića",
       "PostCode": "10340",
       "LatLong": "45.9161,16.4046"
      },
      {
       "Name": "Celine",
       "PostCode": "10340",
       "LatLong": "45.8931,16.4047"
      },
      {
       "Name": "Podolec",
       "PostCode": "10340",
       "LatLong": "45.9161,16.4046"
      },
      {
       "Name": "Cerje",
       "PostCode": "10340",
       "LatLong": "45.9,16.4167"
      },
      {
       "Name": "Luka",
       "PostCode": "10340",
       "LatLong": "45.8783,16.3817"
      },
      {
       "Name": "Lazarevac",
       "PostCode": "10340",
       "LatLong": "45.9161,16.4046"
      },
      {
       "Name": "Topolovec",
       "PostCode": "10340",
       "LatLong": "45.9,16.4"
      },
      {
       "Name": "Brčevec",
       "PostCode": "10340",
       "LatLong": "45.8667,16.4167"
      },
      {
       "Name": "Cerik",
       "PostCode": "10340",
       "LatLong": "45.9161,16.4046"
      },
      {
       "Name": "Novo Selo",
       "PostCode": "10340",
       "LatLong": "46.3308,16.4325"
      },
      {
       "Name": "Vrbovečki Pavlovec",
       "PostCode": "10340",
       "LatLong": "45.9061,16.4314"
      },
      {
       "Name": "Đivan",
       "PostCode": "10340",
       "LatLong": "45.9161,16.4046"
      },
      {
       "Name": "Gaj",
       "PostCode": "10340",
       "LatLong": "45.8989,16.3725"
      },
      {
       "Name": "Banovo",
       "PostCode": "10340",
       "LatLong": "45.9161,16.4046"
      },
      {
       "Name": "Graberanec",
       "PostCode": "10340",
       "LatLong": "45.9161,16.4046"
      },
      {
       "Name": "Lukovo",
       "PostCode": "10340",
       "LatLong": "45.9167,16.4"
      },
      {
       "Name": "Poljanski Lug",
       "PostCode": "10340",
       "LatLong": "45.8333,16.4167"
      },
      {
       "Name": "Konak",
       "PostCode": "10340",
       "LatLong": "45.9161,16.4046"
      },
      {
       "Name": "Poljana",
       "PostCode": "10340",
       "LatLong": "45.85,16.45"
      },
      {
       "Name": "Gostović",
       "PostCode": "10340",
       "LatLong": "45.9161,16.4046"
      },
      {
       "Name": "Kućari",
       "PostCode": "10340",
       "LatLong": "45.9161,16.4046"
      },
      {
       "Name": "Prilesje",
       "PostCode": "10340",
       "LatLong": "45.85,16.4167"
      },
      {
       "Name": "Krkač",
       "PostCode": "10340",
       "LatLong": "45.9167,16.3333"
      },
      {
       "Name": "Lovrečka Velika",
       "PostCode": "10340",
       "LatLong": "45.9161,16.4046"
      },
      {
       "Name": "Vrbovec",
       "PostCode": "10340",
       "LatLong": "45.8833,16.4217"
      },
      {
       "Name": "Marenić",
       "PostCode": "10340",
       "LatLong": "45.9161,16.4046"
      },
      {
       "Name": "Hruškovica",
       "PostCode": "10340",
       "LatLong": "45.9333,16.4167"
      },
      {
       "Name": "Martinska Ves",
       "PostCode": "10340",
       "LatLong": "45.9161,16.4046"
      },
      {
       "Name": "Savska Cesta",
       "PostCode": "10340",
       "LatLong": "45.9161,16.4046"
      }
     ]
    },
    {
     "Name": "Lonjica",
     "Places": [
      {
       "Name": "Negovec",
       "PostCode": "10341",
       "LatLong": "45.8833,16.3167"
      },
      {
       "Name": "Lonjica",
       "PostCode": "10341",
       "LatLong": "45.855,16.33"
      },
      {
       "Name": "Dulepska",
       "PostCode": "10341",
       "LatLong": "45.8723,16.3374"
      },
      {
       "Name": "Greda",
       "PostCode": "10341",
       "LatLong": "45.8667,16.35"
      },
      {
       "Name": "Peskovec",
       "PostCode": "10341",
       "LatLong": "45.8731,16.3236"
      },
      {
       "Name": "Pirakovec",
       "PostCode": "10341",
       "LatLong": "45.8833,16.3667"
      }
     ]
    },
    {
     "Name": "Dubrava",
     "Places": [
      {
       "Name": "Koritna",
       "PostCode": "10342",
       "LatLong": "45.8642,16.5019"
      },
      {
       "Name": "Zgališće",
       "PostCode": "10342",
       "LatLong": "45.8219,16.5336"
      },
      {
       "Name": "Dubravski Markovac",
       "PostCode": "10342",
       "LatLong": "45.85,16.5167"
      },
      {
       "Name": "Podlužan",
       "PostCode": "10342",
       "LatLong": "45.8167,16.5667"
      },
      {
       "Name": "Bađinec",
       "PostCode": "10342",
       "LatLong": "45.8144,16.5614"
      },
      {
       "Name": "Zvekovac",
       "PostCode": "10342",
       "LatLong": "45.8228,16.5103"
      },
      {
       "Name": "Graberec",
       "PostCode": "10342",
       "LatLong": "45.8,16.55"
      },
      {
       "Name": "Novaki",
       "PostCode": "10342",
       "LatLong": "45.8333,16.5667"
      },
      {
       "Name": "Mostari",
       "PostCode": "10342",
       "LatLong": "45.7831,16.5036"
      },
      {
       "Name": "Brezje",
       "PostCode": "10342",
       "LatLong": "45.8333,16.5333"
      },
      {
       "Name": "Paruževac",
       "PostCode": "10342",
       "LatLong": "45.8333,16.5"
      },
      {
       "Name": "Gornji Marinkovac",
       "PostCode": "10342",
       "LatLong": "45.8,16.5"
      },
      {
       "Name": "Dubrava",
       "PostCode": "10342",
       "LatLong": "45.8381,16.5439"
      },
      {
       "Name": "Kostanj",
       "PostCode": "10342",
       "LatLong": "45.8333,16.5833"
      },
      {
       "Name": "Ladina",
       "PostCode": "10342",
       "LatLong": "45.85,16.5167"
      },
      {
       "Name": "Zetkan",
       "PostCode": "10342",
       "LatLong": "45.8167,16.55"
      },
      {
       "Name": "Svinjarec",
       "PostCode": "10342",
       "LatLong": "45.8,16.5667"
      },
      {
       "Name": "Donji Marinkovac",
       "PostCode": "10342",
       "LatLong": "45.7833,16.5"
      },
      {
       "Name": "Donji Vukašinac",
       "PostCode": "10342",
       "LatLong": "45.8219,16.5336"
      },
      {
       "Name": "Pehardovac",
       "PostCode": "10342",
       "LatLong": "45.8219,16.5336"
      },
      {
       "Name": "Gornji Vukašinac",
       "PostCode": "10342",
       "LatLong": "45.8219,16.5336"
      },
      {
       "Name": "Radulec",
       "PostCode": "10342",
       "LatLong": "45.8219,16.5336"
      },
      {
       "Name": "Žukovec",
       "PostCode": "10342",
       "LatLong": "45.8219,16.5336"
      }
     ]
    },
    {
     "Name": "Nova Kapela",
     "Places": [
      {
       "Name": "Habjanovac",
       "PostCode": "10343",
       "LatLong": "45.8667,16.55"
      },
      {
       "Name": "Fuka",
       "PostCode": "10343",
       "LatLong": "45.8833,16.5333"
      },
      {
       "Name": "Stara Kapela",
       "PostCode": "10343",
       "LatLong": "45.2364,17.6878"
      },
      {
       "Name": "Stari Glog",
       "PostCode": "10343",
       "LatLong": "45.9,16.55"
      },
      {
       "Name": "Nova Kapela",
       "PostCode": "10343",
       "LatLong": "45.1989,17.6392"
      },
      {
       "Name": "Haganj",
       "PostCode": "10343",
       "LatLong": "45.91,16.5819"
      },
      {
       "Name": "Žabnica",
       "PostCode": "10343",
       "LatLong": "45.6659,16.9237"
      }
     ]
    },
    {
     "Name": "Farkaševac",
     "Places": [
      {
       "Name": "Brezine",
       "PostCode": "10344",
       "LatLong": "45.4567,17.0364"
      },
      {
       "Name": "Bolč",
       "PostCode": "10344",
       "LatLong": "45.8872,16.6789"
      },
      {
       "Name": "Majur",
       "PostCode": "10344",
       "LatLong": "45.9167,16.7"
      },
      {
       "Name": "Ivančani",
       "PostCode": "10344",
       "LatLong": "45.8667,16.6167"
      },
      {
       "Name": "Prašćevac",
       "PostCode": "10344",
       "LatLong": "45.9167,16.65"
      },
      {
       "Name": "Zvonik",
       "PostCode": "10344",
       "LatLong": "45.9,16.65"
      },
      {
       "Name": "Mački",
       "PostCode": "10344",
       "LatLong": "45.65,15.9167"
      },
      {
       "Name": "Kabal",
       "PostCode": "10344",
       "LatLong": "45.8594,16.6406"
      },
      {
       "Name": "Farkaševac",
       "PostCode": "10344",
       "LatLong": "45.8794,16.6408"
      },
      {
       "Name": "Donji Markovac",
       "PostCode": "10344",
       "LatLong": "45.85,16.6667"
      }
     ]
    },
    {
     "Name": "Gradec",
     "Places": [
      {
       "Name": "Remetinec",
       "PostCode": "10345",
       "LatLong": "46.1853,16.3278"
      },
      {
       "Name": "Pokasin",
       "PostCode": "10345",
       "LatLong": "45.9667,16.5167"
      },
      {
       "Name": "Zabrđe",
       "PostCode": "10345",
       "LatLong": "45.8833,16.5"
      },
      {
       "Name": "Cugovec",
       "PostCode": "10345",
       "LatLong": "45.9117,16.5189"
      },
      {
       "Name": "Podjales",
       "PostCode": "10345",
       "LatLong": "45.9333,16.5"
      },
      {
       "Name": "Festinec",
       "PostCode": "10345",
       "LatLong": "45.95,16.5167"
      },
      {
       "Name": "Gradečki Pavlovec",
       "PostCode": "10345",
       "LatLong": "45.9,16.4833"
      },
      {
       "Name": "Lubena",
       "PostCode": "10345",
       "LatLong": "45.9475,16.4879"
      },
      {
       "Name": "Gradec",
       "PostCode": "10345",
       "LatLong": "45.9111,16.4828"
      },
      {
       "Name": "Veliki Brezovec",
       "PostCode": "10345",
       "LatLong": "45.9475,16.4879"
      },
      {
       "Name": "Potočec",
       "PostCode": "10345",
       "LatLong": "45.8833,16.4667"
      },
      {
       "Name": "Repinec",
       "PostCode": "10345",
       "LatLong": "45.9475,16.4879"
      },
      {
       "Name": "Buzadovac",
       "PostCode": "10345",
       "LatLong": "45.95,16.5667"
      },
      {
       "Name": "Salajci",
       "PostCode": "10345",
       "LatLong": "45.9475,16.4879"
      },
      {
       "Name": "Tučenik",
       "PostCode": "10345",
       "LatLong": "45.9475,16.4879"
      },
      {
       "Name": "Grabrić",
       "PostCode": "10345",
       "LatLong": "45.9475,16.4879"
      },
      {
       "Name": "Mali Brezovec",
       "PostCode": "10345",
       "LatLong": "45.9475,16.4879"
      }
     ]
    },
    {
     "Name": "Preseka",
     "Places": [
      {
       "Name": "Žunci",
       "PostCode": "10346",
       "LatLong": "45.95,16.4333"
      },
      {
       "Name": "Gornjaki",
       "PostCode": "10346",
       "LatLong": "45.947,16.2259"
      },
      {
       "Name": "Krušljevac",
       "PostCode": "10346",
       "LatLong": "45.9833,16.3833"
      },
      {
       "Name": "Vinkovec /dio/",
       "PostCode": "10346",
       "LatLong": "45.947,16.2259"
      },
      {
       "Name": "Slatina",
       "PostCode": "10346",
       "LatLong": "45.4747,16.0256"
      },
      {
       "Name": "Strmec",
       "PostCode": "10346",
       "LatLong": "45.9667,15.9167"
      },
      {
       "Name": "Ledina",
       "PostCode": "10346",
       "LatLong": "46,16.3833"
      },
      {
       "Name": "Preseka",
       "PostCode": "10346",
       "LatLong": "45.9667,16.3833"
      },
      {
       "Name": "Žabnjak",
       "PostCode": "10346",
       "LatLong": "45.9833,16.4"
      },
      {
       "Name": "Pogančec",
       "PostCode": "10346",
       "LatLong": "45.95,16.3833"
      },
      {
       "Name": "Kamenica",
       "PostCode": "10346",
       "LatLong": "46.2453,16.0331"
      },
      {
       "Name": "Kraljev Vrh",
       "PostCode": "10346",
       "LatLong": "45.95,15.9167"
      }
     ]
    },
    {
     "Name": "Rakovec",
     "Places": [
      {
       "Name": "Hudovo",
       "PostCode": "10347",
       "LatLong": "45.9333,16.35"
      },
      {
       "Name": "Samoborec",
       "PostCode": "10347",
       "LatLong": "45.8942,16.3167"
      },
      {
       "Name": "Šelovec",
       "PostCode": "10347",
       "LatLong": "45.9803,16.2639"
      },
      {
       "Name": "Rakovec",
       "PostCode": "10347",
       "LatLong": "45.9303,16.3225"
      },
      {
       "Name": "Valetić",
       "PostCode": "10347",
       "LatLong": "45.9667,16.3333"
      },
      {
       "Name": "Dvorišće",
       "PostCode": "10347",
       "LatLong": "45.9503,16.3367"
      },
      {
       "Name": "Brezani",
       "PostCode": "10347",
       "LatLong": "45.9167,16.3333"
      },
      {
       "Name": "Goli Vrh",
       "PostCode": "10347",
       "LatLong": "45.6886,15.7164"
      },
      {
       "Name": "Kolenica",
       "PostCode": "10347",
       "LatLong": "45.8893,16.2376"
      },
      {
       "Name": "Vrhovec",
       "PostCode": "10347",
       "LatLong": "45.9,16.3"
      },
      {
       "Name": "Dropčevec",
       "PostCode": "10347",
       "LatLong": "45.8893,16.2376"
      },
      {
       "Name": "Lipnica",
       "PostCode": "10347",
       "LatLong": "45.6333,15.9167"
      },
      {
       "Name": "Mlaka",
       "PostCode": "10347",
       "LatLong": "45.9167,16.2833"
      },
      {
       "Name": "Baničevec",
       "PostCode": "10347",
       "LatLong": "45.9167,16.2833"
      },
      {
       "Name": "Hruškovec",
       "PostCode": "10347",
       "LatLong": "45.9333,16.3333"
      }
     ]
    },
    {
     "Name": "Sesvete",
     "Places": [
      {
       "Name": "Dobrodol",
       "PostCode": "10360",
       "LatLong": "45.85,16.1"
      },
      {
       "Name": "Sesvete",
       "PostCode": "10360",
       "LatLong": "45.8311,16.1164"
      },
      {
       "Name": "Goranec",
       "PostCode": "10360",
       "LatLong": "45.8281,16.1162"
      },
      {
       "Name": "Popovec",
       "PostCode": "10360",
       "LatLong": "45.8536,16.1406"
      },
      {
       "Name": "Markovo Polje",
       "PostCode": "10360",
       "LatLong": "45.8586,16.1289"
      },
      {
       "Name": "Kućanec",
       "PostCode": "10360",
       "LatLong": "45.8586,16.1289"
      },
      {
       "Name": "Šašinovec",
       "PostCode": "10360",
       "LatLong": "45.85,16.1667"
      },
      {
       "Name": "Šimunčevec",
       "PostCode": "10360",
       "LatLong": "45.8586,16.1289"
      },
      {
       "Name": "Žerjavinec",
       "PostCode": "10360",
       "LatLong": "45.8667,16.1667"
      },
      {
       "Name": "Soblinec",
       "PostCode": "10360",
       "LatLong": "45.8586,16.1289"
      },
      {
       "Name": "Vugrovec Gornji",
       "PostCode": "10360",
       "LatLong": "45.8586,16.1289"
      },
      {
       "Name": "Vuger Selo",
       "PostCode": "10360",
       "LatLong": "45.8586,16.1289"
      },
      {
       "Name": "Vugrovec Donji",
       "PostCode": "10360",
       "LatLong": "45.8586,16.1289"
      },
      {
       "Name": "Budenec",
       "PostCode": "10360",
       "LatLong": "45.8586,16.1289"
      }
     ]
    },
    {
     "Name": "Sesvete-Kraljevec",
     "Places": [
      {
       "Name": "Cerje",
       "PostCode": "10361",
       "LatLong": "45.8333,16.2"
      },
      {
       "Name": "Dumovec",
       "PostCode": "10361",
       "LatLong": "45.8167,16.1667"
      },
      {
       "Name": "Trstenik Nartski",
       "PostCode": "10361",
       "LatLong": "45.7667,16.1833"
      },
      {
       "Name": "Otok Nartski",
       "PostCode": "10361",
       "LatLong": "45.7942,16.1962"
      },
      {
       "Name": "Glavničica",
       "PostCode": "10361",
       "LatLong": "45.8508,16.2142"
      },
      {
       "Name": "Otok Svibovski",
       "PostCode": "10361",
       "LatLong": "45.7942,16.1962"
      },
      {
       "Name": "Čista Mlaka",
       "PostCode": "10361",
       "LatLong": "45.7644,16.1961"
      },
      {
       "Name": "Sop",
       "PostCode": "10361",
       "LatLong": "45.7333,16.2167"
      },
      {
       "Name": "Struga Nartska",
       "PostCode": "10361",
       "LatLong": "45.7942,16.1962"
      },
      {
       "Name": "Svibje",
       "PostCode": "10361",
       "LatLong": "45.7942,16.1962"
      },
      {
       "Name": "Novaki Nartski",
       "PostCode": "10361",
       "LatLong": "45.7942,16.1962"
      },
      {
       "Name": "Drenčec",
       "PostCode": "10361",
       "LatLong": "45.7942,16.1962"
      }
     ]
    },
    {
     "Name": "Kašina",
     "Places": [
      {
       "Name": "Blaguša",
       "PostCode": "10362",
       "LatLong": "45.9286,16.1281"
      },
      {
       "Name": "Kučilovina",
       "PostCode": "10362",
       "LatLong": "45.9167,16.0833"
      },
      {
       "Name": "Kašina",
       "PostCode": "10362",
       "LatLong": "45.9167,16"
      },
      {
       "Name": "Prepuštovec",
       "PostCode": "10362",
       "LatLong": "45.9,16.1333"
      },
      {
       "Name": "Paruževina",
       "PostCode": "10362",
       "LatLong": "45.9091,16.095"
      },
      {
       "Name": "Đurđekovec",
       "PostCode": "10362",
       "LatLong": "45.8833,16.1303"
      },
      {
       "Name": "Planina Donja",
       "PostCode": "10362",
       "LatLong": "45.9091,16.095"
      },
      {
       "Name": "Planina Gornja",
       "PostCode": "10362",
       "LatLong": "45.9091,16.095"
      },
      {
       "Name": "Prekvršje",
       "PostCode": "10362",
       "LatLong": "45.9091,16.095"
      },
      {
       "Name": "Vurnovec",
       "PostCode": "10362",
       "LatLong": "45.9091,16.095"
      },
      {
       "Name": "Kašinska Sopnica",
       "PostCode": "10362",
       "LatLong": "45.9091,16.095"
      },
      {
       "Name": "Gajec",
       "PostCode": "10362",
       "LatLong": "45.9091,16.095"
      }
     ]
    },
    {
     "Name": "Belovar",
     "Places": [
      {
       "Name": "Belovar",
       "PostCode": "10363",
       "LatLong": "45.8828,16.1836"
      },
      {
       "Name": "Glavnica Gornja",
       "PostCode": "10363",
       "LatLong": "45.9381,16.1403"
      },
      {
       "Name": "Moravče",
       "PostCode": "10363",
       "LatLong": "45.9333,16.1667"
      },
      {
       "Name": "Glavnica Donja",
       "PostCode": "10363",
       "LatLong": "45.9403,16.1497"
      },
      {
       "Name": "Jasenovec",
       "PostCode": "10363",
       "LatLong": "45.9136,16.1687"
      },
      {
       "Name": "Adamovec",
       "PostCode": "10363",
       "LatLong": "45.9039,16.1719"
      },
      {
       "Name": "Lužan",
       "PostCode": "10363",
       "LatLong": "45.8833,16.2"
      }
     ]
    },
    {
     "Name": "Dugo Selo",
     "Places": [
      {
       "Name": "Kozinščak",
       "PostCode": "10370",
       "LatLong": "45.8167,16.25"
      },
      {
       "Name": "Črnec Rugvički",
       "PostCode": "10370",
       "LatLong": "45.7667,16.2667"
      },
      {
       "Name": "Hrebinec",
       "PostCode": "10370",
       "LatLong": "45.7893,16.2907"
      },
      {
       "Name": "Okunšćak",
       "PostCode": "10370",
       "LatLong": "45.75,16.2167"
      },
      {
       "Name": "Jalševec Nartski",
       "PostCode": "10370",
       "LatLong": "45.7893,16.2907"
      },
      {
       "Name": "Tedrovec",
       "PostCode": "10370",
       "LatLong": "45.75,16.3667"
      },
      {
       "Name": "Kopčevec",
       "PostCode": "10370",
       "LatLong": "45.7893,16.2907"
      },
      {
       "Name": "Božjakovina",
       "PostCode": "10370",
       "LatLong": "45.8167,16.3167"
      },
      {
       "Name": "Lukarišće",
       "PostCode": "10370",
       "LatLong": "45.7893,16.2907"
      },
      {
       "Name": "Donja Greda",
       "PostCode": "10370",
       "LatLong": "45.75,16.2833"
      },
      {
       "Name": "Prozorje",
       "PostCode": "10370",
       "LatLong": "45.7893,16.2907"
      },
      {
       "Name": "Stančić",
       "PostCode": "10370",
       "LatLong": "45.85,16.2833"
      },
      {
       "Name": "Črnec Dugoselski",
       "PostCode": "10370",
       "LatLong": "45.7893,16.2907"
      },
      {
       "Name": "Velika Ostrna",
       "PostCode": "10370",
       "LatLong": "45.7833,16.3"
      },
      {
       "Name": "Donje Dvorišće",
       "PostCode": "10370",
       "LatLong": "45.7893,16.2907"
      },
      {
       "Name": "Dragošička",
       "PostCode": "10370",
       "LatLong": "45.75,16.2333"
      },
      {
       "Name": "Gornje Dvorišće",
       "PostCode": "10370",
       "LatLong": "45.7893,16.2907"
      },
      {
       "Name": "Obedišće Ježevsko",
       "PostCode": "10370",
       "LatLong": "45.75,16.3"
      },
      {
       "Name": "Rugvica",
       "PostCode": "10370",
       "LatLong": "45.7361,16.2331"
      },
      {
       "Name": "Prikraj",
       "PostCode": "10370",
       "LatLong": "45.8333,16.3333"
      },
      {
       "Name": "Andrilovec",
       "PostCode": "10370",
       "LatLong": "45.8,16.3"
      },
      {
       "Name": "Brckovljani",
       "PostCode": "10370",
       "LatLong": "45.8333,16.3"
      },
      {
       "Name": "Prečec",
       "PostCode": "10370",
       "LatLong": "45.7667,16.3667"
      },
      {
       "Name": "Kusanovec",
       "PostCode": "10370",
       "LatLong": "45.8167,16.35"
      },
      {
       "Name": "Gračec",
       "PostCode": "10370",
       "LatLong": "45.8333,16.3167"
      },
      {
       "Name": "Ježevo",
       "PostCode": "10370",
       "LatLong": "45.7333,16.3"
      },
      {
       "Name": "Dugo Selo",
       "PostCode": "10370",
       "LatLong": "45.8061,16.2444"
      },
      {
       "Name": "Gornja Greda",
       "PostCode": "10370",
       "LatLong": "45.8167,16.3333"
      },
      {
       "Name": "Štakorovec",
       "PostCode": "10370",
       "LatLong": "45.8667,16.2833"
      },
      {
       "Name": "Nart Savski",
       "PostCode": "10370",
       "LatLong": "45.7667,16.2"
      },
      {
       "Name": "Leprovica",
       "PostCode": "10370",
       "LatLong": "45.7667,16.2833"
      },
      {
       "Name": "Mala Ostrna",
       "PostCode": "10370",
       "LatLong": "45.7833,16.3"
      },
      {
       "Name": "Puhovo",
       "PostCode": "10370",
       "LatLong": "45.7833,16.25"
      },
      {
       "Name": "Lupoglav",
       "PostCode": "10370",
       "LatLong": "45.7964,16.3464"
      }
     ]
    },
    {
     "Name": "Oborovo",
     "Places": [
      {
       "Name": "Preseka Oborovska",
       "PostCode": "10372",
       "LatLong": "45.7,16.2333"
      },
      {
       "Name": "Novaki Oborovski",
       "PostCode": "10372",
       "LatLong": "45.7167,16.2167"
      },
      {
       "Name": "Oborovo",
       "PostCode": "10372",
       "LatLong": "45.6828,16.2569"
      },
      {
       "Name": "Prečno",
       "PostCode": "10372",
       "LatLong": "45.665,16.2961"
      },
      {
       "Name": "Prevlaka",
       "PostCode": "10372",
       "LatLong": "45.675,16.2769"
      }
     ]
    },
    {
     "Name": "Ivanja Reka",
     "Places": [
      {
       "Name": "Ivanja Reka",
       "PostCode": "10373",
       "LatLong": "45.8022,16.1189"
      },
      {
       "Name": "Hruščica",
       "PostCode": "10373",
       "LatLong": "45.7833,16.15"
      }
     ]
    },
    {
     "Name": "Sveti Ivan Zelina",
     "Places": [
      {
       "Name": "Sveti Ivan Zelina",
       "PostCode": "10380",
       "LatLong": "45.9561,16.2461"
      },
      {
       "Name": "Žitomir",
       "PostCode": "10380",
       "LatLong": "46.0214,16.2078"
      },
      {
       "Name": "Bukevje",
       "PostCode": "10380",
       "LatLong": "45.7167,16.2167"
      },
      {
       "Name": "Šulinec",
       "PostCode": "10380",
       "LatLong": "45.9667,16.25"
      },
      {
       "Name": "Gornje Orešje",
       "PostCode": "10380",
       "LatLong": "46.0158,16.2236"
      },
      {
       "Name": "Kalinje",
       "PostCode": "10380",
       "LatLong": "45.9781,16.2475"
      },
      {
       "Name": "Novo Mjesto",
       "PostCode": "10380",
       "LatLong": "45.95,16.2833"
      },
      {
       "Name": "Kreča Ves",
       "PostCode": "10380",
       "LatLong": "45.9781,16.2475"
      },
      {
       "Name": "Donje Psarjevo",
       "PostCode": "10380",
       "LatLong": "45.95,16.2333"
      },
      {
       "Name": "Marinovec Zelinski",
       "PostCode": "10380",
       "LatLong": "45.9781,16.2475"
      },
      {
       "Name": "Donje Orešje",
       "PostCode": "10380",
       "LatLong": "46,16.25"
      },
      {
       "Name": "Obrež Zelinski",
       "PostCode": "10380",
       "LatLong": "45.9781,16.2475"
      },
      {
       "Name": "Biškupec Zelinski",
       "PostCode": "10380",
       "LatLong": "45.9619,16.2425"
      },
      {
       "Name": "Pretoki",
       "PostCode": "10380",
       "LatLong": "45.9781,16.2475"
      },
      {
       "Name": "Črečan",
       "PostCode": "10380",
       "LatLong": "46.3986,16.3492"
      },
      {
       "Name": "Velika Gora",
       "PostCode": "10380",
       "LatLong": "45.9781,16.2475"
      },
      {
       "Name": "Bukovec Zelinski",
       "PostCode": "10380",
       "LatLong": "45.9,16.2167"
      },
      {
       "Name": "Kladešćica",
       "PostCode": "10380",
       "LatLong": "45.9781,16.2475"
      },
      {
       "Name": "Gornje Psarjevo",
       "PostCode": "10380",
       "LatLong": "45.95,16.2333"
      },
      {
       "Name": "Šalovec",
       "PostCode": "10380",
       "LatLong": "45.9803,16.2639"
      },
      {
       "Name": "Novakovec Bisački",
       "PostCode": "10380",
       "LatLong": "45.9781,16.2475"
      },
      {
       "Name": "Blaževdol",
       "PostCode": "10380",
       "LatLong": "45.9333,16.2333"
      },
      {
       "Name": "Prepolno",
       "PostCode": "10380",
       "LatLong": "45.9781,16.2475"
      },
      {
       "Name": "Donja Topličica",
       "PostCode": "10380",
       "LatLong": "45.9667,16.25"
      },
      {
       "Name": "Selnica Psarjevačka",
       "PostCode": "10380",
       "LatLong": "45.9781,16.2475"
      },
      {
       "Name": "Gornja Topličica",
       "PostCode": "10380",
       "LatLong": "45.9833,16.2333"
      },
      {
       "Name": "Berislavec",
       "PostCode": "10380",
       "LatLong": "45.9781,16.2475"
      },
      {
       "Name": "Hrastje",
       "PostCode": "10380",
       "LatLong": "45.9772,16.2744"
      },
      {
       "Name": "Breg Mokrički",
       "PostCode": "10380",
       "LatLong": "45.9781,16.2475"
      }
     ]
    },
    {
     "Name": "Bedenica",
     "Places": [
      {
       "Name": "Turkovčina",
       "PostCode": "10381",
       "LatLong": "46.0436,16.2472"
      },
      {
       "Name": "Zadrkovec",
       "PostCode": "10381",
       "LatLong": "46,16.25"
      },
      {
       "Name": "Otrčkovec",
       "PostCode": "10381",
       "LatLong": "46.0292,16.2448"
      },
      {
       "Name": "Bosna",
       "PostCode": "10381",
       "LatLong": "46.04,16.2392"
      },
      {
       "Name": "Omamno",
       "PostCode": "10381",
       "LatLong": "46.0292,16.2448"
      },
      {
       "Name": "Bedenica",
       "PostCode": "10381",
       "LatLong": "46.0333,16.2428"
      },
      {
       "Name": "Šurdovec",
       "PostCode": "10381",
       "LatLong": "46.0292,16.2448"
      },
      {
       "Name": "Beloslavec",
       "PostCode": "10381",
       "LatLong": "46.0292,16.2448"
      }
     ]
    },
    {
     "Name": "Donja Zelina",
     "Places": [
      {
       "Name": "Blaškovec",
       "PostCode": "10382",
       "LatLong": "45.9,16.1833"
      },
      {
       "Name": "Suhodol Zelinski",
       "PostCode": "10382",
       "LatLong": "45.8807,16.2313"
      },
      {
       "Name": "Paukovec",
       "PostCode": "10382",
       "LatLong": "45.8897,16.2178"
      },
      {
       "Name": "Brezovec Zelinski",
       "PostCode": "10382",
       "LatLong": "45.8807,16.2313"
      },
      {
       "Name": "Hrnjanec",
       "PostCode": "10382",
       "LatLong": "45.9167,16.2"
      },
      {
       "Name": "Bunjak",
       "PostCode": "10382",
       "LatLong": "45.8807,16.2313"
      },
      {
       "Name": "Križevčec",
       "PostCode": "10382",
       "LatLong": "45.8833,16.25"
      },
      {
       "Name": "Curkovec",
       "PostCode": "10382",
       "LatLong": "45.8807,16.2313"
      },
      {
       "Name": "Donja Zelina",
       "PostCode": "10382",
       "LatLong": "45.9208,16.245"
      },
      {
       "Name": "Donja Drenova",
       "PostCode": "10382",
       "LatLong": "45.8807,16.2313"
      },
      {
       "Name": "Nespeš",
       "PostCode": "10382",
       "LatLong": "45.95,16.2"
      },
      {
       "Name": "Goričanec",
       "PostCode": "10382",
       "LatLong": "45.8807,16.2313"
      },
      {
       "Name": "Vukovje Zelinsko",
       "PostCode": "10382",
       "LatLong": "45.8807,16.2313"
      },
      {
       "Name": "Bukovec Zelinski",
       "PostCode": "10382",
       "LatLong": "45.9,16.2167"
      },
      {
       "Name": "Goričica",
       "PostCode": "10382",
       "LatLong": "45.8807,16.2313"
      },
      {
       "Name": "Sveta Helena",
       "PostCode": "10382",
       "LatLong": "45.9025,16.2664"
      },
      {
       "Name": "Gornja Drenova",
       "PostCode": "10382",
       "LatLong": "45.8807,16.2313"
      },
      {
       "Name": "Bukevje",
       "PostCode": "10382",
       "LatLong": "45.7167,16.2167"
      },
      {
       "Name": "Laktec",
       "PostCode": "10382",
       "LatLong": "45.86,16.2319"
      },
      {
       "Name": "Banje Selo",
       "PostCode": "10382",
       "LatLong": "45.8458,16.2647"
      },
      {
       "Name": "Majkovec",
       "PostCode": "10382",
       "LatLong": "45.8833,16.2833"
      }
     ]
    },
    {
     "Name": "Komin",
     "Places": [
      {
       "Name": "Radoišće",
       "PostCode": "10383",
       "LatLong": "46.0186,16.3306"
      },
      {
       "Name": "Salnik",
       "PostCode": "10383",
       "LatLong": "45.9833,16.3333"
      },
      {
       "Name": "Polonje",
       "PostCode": "10383",
       "LatLong": "45.9667,16.3"
      },
      {
       "Name": "Komin",
       "PostCode": "10383",
       "LatLong": "46.0036,16.2797"
      },
      {
       "Name": "Gornji Vinkovec",
       "PostCode": "10383",
       "LatLong": "45.9913,16.3087"
      },
      {
       "Name": "Keleminovec",
       "PostCode": "10383",
       "LatLong": "45.9833,16.2833"
      },
      {
       "Name": "Mokrica Tomaševečka",
       "PostCode": "10383",
       "LatLong": "45.9913,16.3087"
      },
      {
       "Name": "Zrinšćina",
       "PostCode": "10383",
       "LatLong": "46.0083,16.3425"
      },
      {
       "Name": "Vinkovec /dio/",
       "PostCode": "10383",
       "LatLong": "45.9913,16.3087"
      },
      {
       "Name": "Tomaševec",
       "PostCode": "10383",
       "LatLong": "46,16.3"
      },
      {
       "Name": "Dubovec Bisaški",
       "PostCode": "10383",
       "LatLong": "45.9913,16.3087"
      },
      {
       "Name": "Polonje Tomaševečko",
       "PostCode": "10383",
       "LatLong": "45.9667,16.3"
      },
      {
       "Name": "Filipovići",
       "PostCode": "10383",
       "LatLong": "45.9913,16.3087"
      }
     ]
    },
    {
     "Name": "Velika Mlaka",
     "Places": [
      {
       "Name": "Velika Mlaka",
       "PostCode": "10408",
       "LatLong": "45.7364,16.0311"
      }
     ]
    },
    {
     "Name": "Velika Gorica",
     "Places": [
      {
       "Name": "Mičevec",
       "PostCode": "10410",
       "LatLong": "45.75,16.0667"
      },
      {
       "Name": "Petrovina Turopoljska",
       "PostCode": "10410",
       "LatLong": "45.7,16.0333"
      },
      {
       "Name": "Mraclin",
       "PostCode": "10410",
       "LatLong": "45.6667,16.0956"
      },
      {
       "Name": "Petina",
       "PostCode": "10410",
       "LatLong": "45.75,16.0833"
      },
      {
       "Name": "Velika Kosnica",
       "PostCode": "10410",
       "LatLong": "45.7336,16.0952"
      },
      {
       "Name": "Lekneno",
       "PostCode": "10410",
       "LatLong": "45.75,16.15"
      },
      {
       "Name": "Bapče",
       "PostCode": "10410",
       "LatLong": "45.7336,16.0952"
      },
      {
       "Name": "Kobilić",
       "PostCode": "10410",
       "LatLong": "45.7333,16.1"
      },
      {
       "Name": "Drenje Šćitarjevsko",
       "PostCode": "10410",
       "LatLong": "45.7336,16.0952"
      },
      {
       "Name": "Selnica",
       "PostCode": "10410",
       "LatLong": "45.75,16.1"
      },
      {
       "Name": "Lazi Turopoljski",
       "PostCode": "10410",
       "LatLong": "45.7336,16.0952"
      },
      {
       "Name": "Gradići",
       "PostCode": "10410",
       "LatLong": "45.7,16.05"
      },
      {
       "Name": "Mala Kosnica",
       "PostCode": "10410",
       "LatLong": "45.7336,16.0952"
      },
      {
       "Name": "Velika Gorica",
       "PostCode": "10410",
       "LatLong": "45.7125,16.0756"
      },
      {
       "Name": "Sasi",
       "PostCode": "10410",
       "LatLong": "45.7336,16.0952"
      },
      {
       "Name": "Črnkovec",
       "PostCode": "10410",
       "LatLong": "45.75,16.1167"
      },
      {
       "Name": "Novaki Šćitarjevski",
       "PostCode": "10410",
       "LatLong": "45.7833,16.1"
      },
      {
       "Name": "Trnje",
       "PostCode": "10410",
       "LatLong": "45.7336,16.0952"
      },
      {
       "Name": "Šćitarjevo",
       "PostCode": "10410",
       "LatLong": "45.7644,16.1183"
      },
      {
       "Name": "Zablatje Posavsko",
       "PostCode": "10410",
       "LatLong": "45.7336,16.0952"
      },
      {
       "Name": "Obrezina",
       "PostCode": "10410",
       "LatLong": "45.7667,16.1"
      },
      {
       "Name": "Okuje",
       "PostCode": "10410",
       "LatLong": "45.6769,16.0717"
      },
      {
       "Name": "Strmec Bukevski",
       "PostCode": "10410",
       "LatLong": "45.75,16.1667"
      }
     ]
    },
    {
     "Name": "Orle",
     "Places": [
      {
       "Name": "Ruča",
       "PostCode": "10411",
       "LatLong": "45.6411,16.2833"
      },
      {
       "Name": "Veleševec",
       "PostCode": "10411",
       "LatLong": "45.65,16.2667"
      },
      {
       "Name": "Orle",
       "PostCode": "10411",
       "LatLong": "45.6833,16.2333"
      },
      {
       "Name": "Drnek",
       "PostCode": "10411",
       "LatLong": "45.6759,16.2468"
      },
      {
       "Name": "Sop Bukevski",
       "PostCode": "10411",
       "LatLong": "45.6759,16.2468"
      },
      {
       "Name": "Bukevje",
       "PostCode": "10411",
       "LatLong": "45.7167,16.2167"
      },
      {
       "Name": "Vrbovo Posavsko",
       "PostCode": "10411",
       "LatLong": "45.6759,16.2468"
      },
      {
       "Name": "Suša",
       "PostCode": "10411",
       "LatLong": "45.6333,16.2833"
      },
      {
       "Name": "Čret Posavski",
       "PostCode": "10411",
       "LatLong": "45.6759,16.2468"
      },
      {
       "Name": "Obed",
       "PostCode": "10411",
       "LatLong": "45.7308,16.1975"
      },
      {
       "Name": "Stružec Posavski",
       "PostCode": "10411",
       "LatLong": "45.6759,16.2468"
      }
     ]
    },
    {
     "Name": "Donja Lomnica",
     "Places": [
      {
       "Name": "Lukavec",
       "PostCode": "10412",
       "LatLong": "45.7044,15.99"
      },
      {
       "Name": "Donja Lomnica",
       "PostCode": "10412",
       "LatLong": "45.7119,16.0269"
      },
      {
       "Name": "Gornja Lomnica",
       "PostCode": "10412",
       "LatLong": "45.7167,16"
      }
     ]
    },
    {
     "Name": "Kravarsko",
     "Places": [
      {
       "Name": "Šiljakovina",
       "PostCode": "10413",
       "LatLong": "45.6333,16.0167"
      },
      {
       "Name": "Gladovec Kravarski",
       "PostCode": "10413",
       "LatLong": "45.5667,16.05"
      },
      {
       "Name": "Barbarići Kravarski",
       "PostCode": "10413",
       "LatLong": "45.6,16.0667"
      },
      {
       "Name": "Novo Brdo",
       "PostCode": "10413",
       "LatLong": "45.5822,15.995"
      },
      {
       "Name": "Mala Buna",
       "PostCode": "10413",
       "LatLong": "45.6333,16.0667"
      },
      {
       "Name": "Ključić Brdo",
       "PostCode": "10413",
       "LatLong": "45.6167,16.05"
      },
      {
       "Name": "Čakanec",
       "PostCode": "10413",
       "LatLong": "45.5948,16.0406"
      },
      {
       "Name": "Velika Buna",
       "PostCode": "10413",
       "LatLong": "45.6333,16.0667"
      },
      {
       "Name": "Podvornica",
       "PostCode": "10413",
       "LatLong": "45.6167,16.0667"
      },
      {
       "Name": "Pustike",
       "PostCode": "10413",
       "LatLong": "45.5948,16.0406"
      },
      {
       "Name": "Kozjača",
       "PostCode": "10413",
       "LatLong": "45.6,16.0167"
      },
      {
       "Name": "Žitkovčica",
       "PostCode": "10413",
       "LatLong": "45.5948,16.0406"
      },
      {
       "Name": "Kravarsko",
       "PostCode": "10413",
       "LatLong": "45.5833,16.05"
      },
      {
       "Name": "Donji Hruševec",
       "PostCode": "10413",
       "LatLong": "45.5333,16.0667"
      },
      {
       "Name": "Opatija",
       "PostCode": "10413",
       "LatLong": "45.5667,16"
      },
      {
       "Name": "Gornji Hruševec",
       "PostCode": "10413",
       "LatLong": "45.5667,16.0167"
      }
     ]
    },
    {
     "Name": "Pokupsko",
     "Places": [
      {
       "Name": "Šestak Brdo",
       "PostCode": "10414",
       "LatLong": "45.5333,15.9833"
      },
      {
       "Name": "Lijevi Degoj",
       "PostCode": "10414",
       "LatLong": "45.4833,15.95"
      },
      {
       "Name": "Roženica",
       "PostCode": "10414",
       "LatLong": "45.5333,16"
      },
      {
       "Name": "Gladovec Pokupski",
       "PostCode": "10414",
       "LatLong": "45.5,16"
      },
      {
       "Name": "Strezojevo",
       "PostCode": "10414",
       "LatLong": "45.5333,16.0333"
      },
      {
       "Name": "Lijevi Štefanki",
       "PostCode": "10414",
       "LatLong": "45.5167,15.9333"
      },
      {
       "Name": "Hotnja",
       "PostCode": "10414",
       "LatLong": "45.5061,16.05"
      },
      {
       "Name": "Auguštanovec",
       "PostCode": "10414",
       "LatLong": "45.5155,15.9961"
      },
      {
       "Name": "Opatija",
       "PostCode": "10414",
       "LatLong": "45.5667,16"
      },
      {
       "Name": "Pokupsko",
       "PostCode": "10414",
       "LatLong": "45.4872,15.9933"
      },
      {
       "Name": "Cerje Pokupsko",
       "PostCode": "10414",
       "LatLong": "45.5155,15.9961"
      },
      {
       "Name": "Brkiševina",
       "PostCode": "10414",
       "LatLong": "45.4422,16.0928"
      },
      {
       "Name": "Cvetnić Brdo",
       "PostCode": "10414",
       "LatLong": "45.5155,15.9961"
      },
      {
       "Name": "Zgurić Brdo",
       "PostCode": "10414",
       "LatLong": "45.5167,15.9833"
      },
      {
       "Name": "Lukinić Brdo",
       "PostCode": "10414",
       "LatLong": "45.5667,15.9333"
      }
     ]
    },
    {
     "Name": "Novo Čiče",
     "Places": [
      {
       "Name": "Lazina Čička",
       "PostCode": "10415",
       "LatLong": "45.7042,16.1333"
      },
      {
       "Name": "Novo Čiče",
       "PostCode": "10415",
       "LatLong": "45.7,16.1167"
      },
      {
       "Name": "Poljana Čička",
       "PostCode": "10415",
       "LatLong": "45.7042,16.1333"
      },
      {
       "Name": "Donje Podotočje",
       "PostCode": "10415",
       "LatLong": "45.7,16.1333"
      },
      {
       "Name": "Ribnica",
       "PostCode": "10415",
       "LatLong": "45.7167,16.1333"
      },
      {
       "Name": "Jagodno",
       "PostCode": "10415",
       "LatLong": "45.7,16.15"
      }
     ]
    },
    {
     "Name": "Buševec",
     "Places": [
      {
       "Name": "Novo Selo Lekeničko",
       "PostCode": "10417",
       "LatLong": "45.636,16.1306"
      },
      {
       "Name": "Ogulinac",
       "PostCode": "10417",
       "LatLong": "45.6242,16.1286"
      },
      {
       "Name": "Turopolje",
       "PostCode": "10417",
       "LatLong": "45.6494,16.1436"
      },
      {
       "Name": "Buševec",
       "PostCode": "10417",
       "LatLong": "45.6344,16.1197"
      }
     ]
    },
    {
     "Name": "Dubranec",
     "Places": [
      {
       "Name": "Vukomerić",
       "PostCode": "10418",
       "LatLong": "45.6167,15.95"
      },
      {
       "Name": "Dubranec",
       "PostCode": "10418",
       "LatLong": "45.6167,15.9667"
      },
      {
       "Name": "Cerovski Vrh",
       "PostCode": "10418",
       "LatLong": "45.5833,15.95"
      },
      {
       "Name": "Prvonožina",
       "PostCode": "10418",
       "LatLong": "45.5839,16.0214"
      },
      {
       "Name": "Gustelnica",
       "PostCode": "10418",
       "LatLong": "45.6031,15.9736"
      },
      {
       "Name": "Jerebić",
       "PostCode": "10418",
       "LatLong": "45.5839,16.0214"
      },
      {
       "Name": "Petrovec",
       "PostCode": "10418",
       "LatLong": "45.5,16.2667"
      },
      {
       "Name": "Cvetković Brdo",
       "PostCode": "10418",
       "LatLong": "45.5839,16.0214"
      }
     ]
    },
    {
     "Name": "Vukovina",
     "Places": [
      {
       "Name": "Vukovina",
       "PostCode": "10419",
       "LatLong": "45.6833,16.1167"
      },
      {
       "Name": "Gornje Podotočje",
       "PostCode": "10419",
       "LatLong": "45.6833,16.1333"
      },
      {
       "Name": "Staro Čiče",
       "PostCode": "10419",
       "LatLong": "45.7,16.1167"
      },
      {
       "Name": "Rakitovec",
       "PostCode": "10419",
       "LatLong": "45.6667,16.15"
      },
      {
       "Name": "Kuče",
       "PostCode": "10419",
       "LatLong": "45.6769,16.145"
      }
     ]
    },
    {
     "Name": "Samobor",
     "Places": [
      {
       "Name": "Slapnica",
       "PostCode": "10430",
       "LatLong": "45.7667,15.6167"
      },
      {
       "Name": "Molvice",
       "PostCode": "10430",
       "LatLong": "45.7667,15.75"
      },
      {
       "Name": "Slani Dol",
       "PostCode": "10430",
       "LatLong": "45.7833,15.6333"
      },
      {
       "Name": "Gregurić Breg",
       "PostCode": "10430",
       "LatLong": "45.7833,15.65"
      },
      {
       "Name": "Hrastina Samoborska",
       "PostCode": "10430",
       "LatLong": "45.7863,15.6936"
      },
      {
       "Name": "Medsave",
       "PostCode": "10430",
       "LatLong": "45.8333,15.7667"
      },
      {
       "Name": "Kladje",
       "PostCode": "10430",
       "LatLong": "45.7833,15.7333"
      },
      {
       "Name": "Gradna",
       "PostCode": "10430",
       "LatLong": "45.7863,15.6936"
      },
      {
       "Name": "Braslovje",
       "PostCode": "10430",
       "LatLong": "45.75,15.6667"
      },
      {
       "Name": "Draganje Selo",
       "PostCode": "10430",
       "LatLong": "45.8,15.65"
      },
      {
       "Name": "Kotari",
       "PostCode": "10430",
       "LatLong": "45.7863,15.6936"
      },
      {
       "Name": "Vrhovčak",
       "PostCode": "10430",
       "LatLong": "45.8,15.7"
      },
      {
       "Name": "Domaslovec",
       "PostCode": "10430",
       "LatLong": "45.8,15.75"
      },
      {
       "Name": "Prekrižje Plešivičko",
       "PostCode": "10430",
       "LatLong": "45.7863,15.6936"
      },
      {
       "Name": "Rude",
       "PostCode": "10430",
       "LatLong": "45.7667,15.6667"
      },
      {
       "Name": "Velika Rakovica",
       "PostCode": "10430",
       "LatLong": "45.7667,15.7167"
      },
      {
       "Name": "Samoborski Otok",
       "PostCode": "10430",
       "LatLong": "45.7863,15.6936"
      },
      {
       "Name": "Vrbovec Samoborski",
       "PostCode": "10430",
       "LatLong": "45.8167,15.7667"
      },
      {
       "Name": "Mali Lipovec",
       "PostCode": "10430",
       "LatLong": "45.75,15.6167"
      },
      {
       "Name": "Savršćak",
       "PostCode": "10430",
       "LatLong": "45.7863,15.6936"
      },
      {
       "Name": "Bobovica",
       "PostCode": "10430",
       "LatLong": "45.8333,15.7333"
      },
      {
       "Name": "Slavagora",
       "PostCode": "10430",
       "LatLong": "45.7863,15.6936"
      },
      {
       "Name": "Samobor",
       "PostCode": "10430",
       "LatLong": "45.8031,15.7181"
      },
      {
       "Name": "Smerovišće",
       "PostCode": "10430",
       "LatLong": "45.7863,15.6936"
      },
      {
       "Name": "Mala Rakovica",
       "PostCode": "10430",
       "LatLong": "45.7833,15.7167"
      },
      {
       "Name": "Celine Samoborske",
       "PostCode": "10430",
       "LatLong": "45.7863,15.6936"
      },
      {
       "Name": "Veliki Lipovec",
       "PostCode": "10430",
       "LatLong": "45.7667,15.6333"
      },
      {
       "Name": "Bukovje Podvrško",
       "PostCode": "10430",
       "LatLong": "45.7863,15.6936"
      },
      {
       "Name": "Dragonoš",
       "PostCode": "10430",
       "LatLong": "45.7863,15.6936"
      },
      {
       "Name": "Manja Vas",
       "PostCode": "10430",
       "LatLong": "45.7863,15.6936"
      },
      {
       "Name": "Šipački Breg",
       "PostCode": "10430",
       "LatLong": "45.7863,15.6936"
      },
      {
       "Name": "Vratnik Samoborski",
       "PostCode": "10430",
       "LatLong": "45.7863,15.6936"
      },
      {
       "Name": "Cerje Samoborsko",
       "PostCode": "10430",
       "LatLong": "45.7863,15.6936"
      },
      {
       "Name": "Dubrava Samoborska",
       "PostCode": "10430",
       "LatLong": "45.7863,15.6936"
      },
      {
       "Name": "Farkaševec Samoborski",
       "PostCode": "10430",
       "LatLong": "45.7863,15.6936"
      }
     ]
    },
    {
     "Name": "Sveta Nedjelja",
     "Places": [
      {
       "Name": "Kerestinec",
       "PostCode": "10431",
       "LatLong": "45.7667,15.8"
      },
      {
       "Name": "Sveta Nedjelja",
       "PostCode": "10431",
       "LatLong": "45.7983,15.7806"
      },
      {
       "Name": "Jagnjić Dol",
       "PostCode": "10431",
       "LatLong": "45.7829,15.791"
      },
      {
       "Name": "Novaki Samoborski",
       "PostCode": "10431",
       "LatLong": "45.8,15.8"
      },
      {
       "Name": "Brezje Samoborsko",
       "PostCode": "10431",
       "LatLong": "45.7829,15.791"
      },
      {
       "Name": "Mala Gorica",
       "PostCode": "10431",
       "LatLong": "45.7667,15.7833"
      },
      {
       "Name": "Srebrenjak",
       "PostCode": "10431",
       "LatLong": "45.7829,15.791"
      },
      {
       "Name": "Svetonedjeljski Breg",
       "PostCode": "10431",
       "LatLong": "45.7829,15.791"
      }
     ]
    },
    {
     "Name": "Bregana",
     "Places": [
      {
       "Name": "Stojdraga",
       "PostCode": "10432",
       "LatLong": "45.85,15.5833"
      },
      {
       "Name": "Lug Samoborski",
       "PostCode": "10432",
       "LatLong": "45.818,15.6095"
      },
      {
       "Name": "Velika Jazbina",
       "PostCode": "10432",
       "LatLong": "45.818,15.6095"
      },
      {
       "Name": "Mala Jazbina",
       "PostCode": "10432",
       "LatLong": "45.818,15.6095"
      },
      {
       "Name": "Javorek",
       "PostCode": "10432",
       "LatLong": "45.8333,15.6167"
      },
      {
       "Name": "Grdanjci",
       "PostCode": "10432",
       "LatLong": "45.818,15.6095"
      },
      {
       "Name": "Otruševec",
       "PostCode": "10432",
       "LatLong": "45.8167,15.6833"
      },
      {
       "Name": "Bregana",
       "PostCode": "10432",
       "LatLong": "45.8456,15.6853"
      },
      {
       "Name": "Podvrh",
       "PostCode": "10432",
       "LatLong": "45.818,15.6095"
      },
      {
       "Name": "Kostanjevec Podvrški",
       "PostCode": "10432",
       "LatLong": "45.8333,15.6"
      },
      {
       "Name": "Breganica",
       "PostCode": "10432",
       "LatLong": "45.818,15.6095"
      },
      {
       "Name": "Noršić Selo",
       "PostCode": "10432",
       "LatLong": "45.7833,15.5667"
      },
      {
       "Name": "Klokočevac Samoborski",
       "PostCode": "10432",
       "LatLong": "45.818,15.6095"
      },
      {
       "Name": "Jarušje",
       "PostCode": "10432",
       "LatLong": "45.7667,15.5833"
      },
      {
       "Name": "Poklek",
       "PostCode": "10432",
       "LatLong": "45.818,15.6095"
      },
      {
       "Name": "Kravljak",
       "PostCode": "10432",
       "LatLong": "45.8167,15.55"
      },
      {
       "Name": "Selce Žumberačko",
       "PostCode": "10432",
       "LatLong": "45.818,15.6095"
      },
      {
       "Name": "Beder",
       "PostCode": "10432",
       "LatLong": "45.8167,15.6167"
      },
      {
       "Name": "Višnjevac Podvrški",
       "PostCode": "10432",
       "LatLong": "45.818,15.6095"
      }
     ]
    },
    {
     "Name": "Strmec Samoborski",
     "Places": [
      {
       "Name": "Orešje",
       "PostCode": "10434",
       "LatLong": "45.8167,15.8"
      },
      {
       "Name": "Strmec Samoborski",
       "PostCode": "10434",
       "LatLong": "45.8167,15.8"
      }
     ]
    },
    {
     "Name": "Sveti Martin pod Okićem",
     "Places": [
      {
       "Name": "Sveti Martin pod Okićem",
       "PostCode": "10435",
       "LatLong": "45.75,15.75"
      },
      {
       "Name": "Galgovo",
       "PostCode": "10435",
       "LatLong": "45.7333,15.75"
      },
      {
       "Name": "Konšćica",
       "PostCode": "10435",
       "LatLong": "45.7667,15.7333"
      },
      {
       "Name": "Podgrađe Podokićko",
       "PostCode": "10435",
       "LatLong": "45.75,15.7417"
      },
      {
       "Name": "Klake",
       "PostCode": "10435",
       "LatLong": "45.75,15.7333"
      },
      {
       "Name": "Dolec Podokićki",
       "PostCode": "10435",
       "LatLong": "45.75,15.7417"
      },
      {
       "Name": "Drežnik Podokićki",
       "PostCode": "10435",
       "LatLong": "45.75,15.7417"
      },
      {
       "Name": "Falašćak",
       "PostCode": "10435",
       "LatLong": "45.75,15.7417"
      }
     ]
    },
    {
     "Name": "Rakov Potok",
     "Places": [
      {
       "Name": "Kalinovica",
       "PostCode": "10436",
       "LatLong": "45.7667,15.7833"
      },
      {
       "Name": "Rakov Potok",
       "PostCode": "10436",
       "LatLong": "45.7381,15.7972"
      },
      {
       "Name": "Horvati",
       "PostCode": "10436",
       "LatLong": "45.7175,15.8197"
      },
      {
       "Name": "Žitarka",
       "PostCode": "10436",
       "LatLong": "45.7407,15.8001"
      }
     ]
    },
    {
     "Name": "Bestovje",
     "Places": [
      {
       "Name": "Bestovje",
       "PostCode": "10437",
       "LatLong": "45.8083,15.8167"
      },
      {
       "Name": "Rakitje",
       "PostCode": "10437",
       "LatLong": "45.7939,15.8222"
      }
     ]
    },
    {
     "Name": "Jastrebarsko",
     "Places": [
      {
       "Name": "Pavučnjak",
       "PostCode": "10450",
       "LatLong": "45.7167,15.7667"
      },
      {
       "Name": "Stankovo",
       "PostCode": "10450",
       "LatLong": "45.7167,15.7"
      },
      {
       "Name": "Goli Vrh",
       "PostCode": "10450",
       "LatLong": "45.6886,15.7164"
      },
      {
       "Name": "Cvetković",
       "PostCode": "10450",
       "LatLong": "45.6514,15.6522"
      },
      {
       "Name": "Gornja Zdenčina",
       "PostCode": "10450",
       "LatLong": "45.6833,15.7833"
      },
      {
       "Name": "Brebrovac",
       "PostCode": "10450",
       "LatLong": "45.6833,15.55"
      },
      {
       "Name": "Malunje",
       "PostCode": "10450",
       "LatLong": "45.7,15.6167"
      },
      {
       "Name": "Čeglje",
       "PostCode": "10450",
       "LatLong": "45.6167,15.6"
      },
      {
       "Name": "Slavetić",
       "PostCode": "10450",
       "LatLong": "45.7,15.55"
      },
      {
       "Name": "Prhoć",
       "PostCode": "10450",
       "LatLong": "45.7,15.7"
      },
      {
       "Name": "Lokošin Dol",
       "PostCode": "10450",
       "LatLong": "45.7,15.65"
      },
      {
       "Name": "Volavje",
       "PostCode": "10450",
       "LatLong": "45.6556,15.6108"
      },
      {
       "Name": "Jastrebarsko",
       "PostCode": "10450",
       "LatLong": "45.6683,15.6486"
      },
      {
       "Name": "Donja Zdenčina",
       "PostCode": "10450",
       "LatLong": "45.6667,15.7667"
      },
      {
       "Name": "Domagović",
       "PostCode": "10450",
       "LatLong": "45.6317,15.6403"
      },
      {
       "Name": "Čabdin",
       "PostCode": "10450",
       "LatLong": "45.65,15.6667"
      },
      {
       "Name": "Gornji Desinec",
       "PostCode": "10450",
       "LatLong": "45.7,15.7"
      },
      {
       "Name": "Donji Desinec",
       "PostCode": "10450",
       "LatLong": "45.6822,15.7089"
      },
      {
       "Name": "Goljak",
       "PostCode": "10450",
       "LatLong": "45.7036,15.5433"
      },
      {
       "Name": "Petrovina",
       "PostCode": "10450",
       "LatLong": "45.6833,15.5833"
      },
      {
       "Name": "Beter",
       "PostCode": "10450",
       "LatLong": "45.7333,15.7167"
      },
      {
       "Name": "Izimje",
       "PostCode": "10450",
       "LatLong": "45.6333,15.6167"
      },
      {
       "Name": "Plešivica",
       "PostCode": "10450",
       "LatLong": "45.7333,15.6667"
      },
      {
       "Name": "Kupinec",
       "PostCode": "10450",
       "LatLong": "45.6586,15.7869"
      },
      {
       "Name": "Vranov Dol",
       "PostCode": "10450",
       "LatLong": "45.7247,15.6319"
      },
      {
       "Name": "Klinča Sela",
       "PostCode": "10450",
       "LatLong": "45.6903,15.7411"
      },
      {
       "Name": "Zdihovo",
       "PostCode": "10450",
       "LatLong": "45.6833,15.65"
      },
      {
       "Name": "Guci Draganički",
       "PostCode": "10450",
       "LatLong": "45.6835,15.6653"
      },
      {
       "Name": "Hrašća",
       "PostCode": "10450",
       "LatLong": "45.6835,15.6653"
      },
      {
       "Name": "Novaki Petrovinski",
       "PostCode": "10450",
       "LatLong": "45.6835,15.6653"
      },
      {
       "Name": "Petkov Breg",
       "PostCode": "10450",
       "LatLong": "45.6835,15.6653"
      },
      {
       "Name": "Pavlovčani",
       "PostCode": "10450",
       "LatLong": "45.6835,15.6653"
      },
      {
       "Name": "Prilipje",
       "PostCode": "10450",
       "LatLong": "45.6835,15.6653"
      },
      {
       "Name": "Rastoki",
       "PostCode": "10450",
       "LatLong": "45.6835,15.6653"
      },
      {
       "Name": "Tržić",
       "PostCode": "10450",
       "LatLong": "45.6835,15.6653"
      },
      {
       "Name": "Vlaškovec",
       "PostCode": "10450",
       "LatLong": "45.6835,15.6653"
      },
      {
       "Name": "Repišće",
       "PostCode": "10450",
       "LatLong": "45.6835,15.6653"
      },
      {
       "Name": "Novo Selo Okićko",
       "PostCode": "10450",
       "LatLong": "45.6835,15.6653"
      },
      {
       "Name": "Orešje Okićko",
       "PostCode": "10450",
       "LatLong": "45.6835,15.6653"
      },
      {
       "Name": "Poljanica Okićka",
       "PostCode": "10450",
       "LatLong": "45.6835,15.6653"
      },
      {
       "Name": "Brezari",
       "PostCode": "10450",
       "LatLong": "45.6835,15.6653"
      },
      {
       "Name": "Črnilovec",
       "PostCode": "10450",
       "LatLong": "45.6835,15.6653"
      },
      {
       "Name": "Gonjeva",
       "PostCode": "10450",
       "LatLong": "45.6835,15.6653"
      },
      {
       "Name": "Gornja Purgarija",
       "PostCode": "10450",
       "LatLong": "45.6835,15.6653"
      },
      {
       "Name": "Hrastje Plešivičko",
       "PostCode": "10450",
       "LatLong": "45.6835,15.6653"
      },
      {
       "Name": "Jurjevčani",
       "PostCode": "10450",
       "LatLong": "45.6835,15.6653"
      },
      {
       "Name": "Kozlikovo",
       "PostCode": "10450",
       "LatLong": "45.6835,15.6653"
      },
      {
       "Name": "Breznik Plešivički",
       "PostCode": "10450",
       "LatLong": "45.6835,15.6653"
      },
      {
       "Name": "Crna Mlaka",
       "PostCode": "10450",
       "LatLong": "45.6835,15.6653"
      },
      {
       "Name": "Donja Purgarija",
       "PostCode": "10450",
       "LatLong": "45.6835,15.6653"
      },
      {
       "Name": "Donja Reka",
       "PostCode": "10450",
       "LatLong": "45.6835,15.6653"
      },
      {
       "Name": "Dragovanščak",
       "PostCode": "10450",
       "LatLong": "45.6835,15.6653"
      },
      {
       "Name": "Gornja Reka",
       "PostCode": "10450",
       "LatLong": "45.6835,15.6653"
      }
     ]
    },
    {
     "Name": "Pisarovina",
     "Places": [
      {
       "Name": "Bratina",
       "PostCode": "10451",
       "LatLong": "45.6214,15.8272"
      },
      {
       "Name": "Podgorje Jamničko",
       "PostCode": "10451",
       "LatLong": "45.6,15.8667"
      },
      {
       "Name": "Velika Jamnička",
       "PostCode": "10451",
       "LatLong": "45.605,15.8467"
      },
      {
       "Name": "Dvoranci",
       "PostCode": "10451",
       "LatLong": "45.5667,15.8833"
      },
      {
       "Name": "Selsko Brdo",
       "PostCode": "10451",
       "LatLong": "45.55,15.9"
      },
      {
       "Name": "Gradec Pokupski",
       "PostCode": "10451",
       "LatLong": "45.5842,15.8687"
      },
      {
       "Name": "Donja Kupčina",
       "PostCode": "10451",
       "LatLong": "45.5506,15.8122"
      },
      {
       "Name": "Topolovec Pisarovinski",
       "PostCode": "10451",
       "LatLong": "45.5833,15.8667"
      },
      {
       "Name": "Bregana Pisarovinska",
       "PostCode": "10451",
       "LatLong": "45.5842,15.8687"
      },
      {
       "Name": "Pisarovina",
       "PostCode": "10451",
       "LatLong": "45.5864,15.8592"
      },
      {
       "Name": "Lučelnica",
       "PostCode": "10451",
       "LatLong": "45.5833,15.9167"
      },
      {
       "Name": "Gorica Jamnička",
       "PostCode": "10451",
       "LatLong": "45.6333,15.8833"
      },
      {
       "Name": "Jamnica Pisarovinska",
       "PostCode": "10451",
       "LatLong": "45.5975,15.8794"
      },
      {
       "Name": "Lijevo Sredičko",
       "PostCode": "10451",
       "LatLong": "45.5333,15.8833"
      }
     ]
    },
    {
     "Name": "Gorica Svetojanska",
     "Places": [
      {
       "Name": "Kupeć Dol",
       "PostCode": "10453",
       "LatLong": "45.7492,15.7196"
      },
      {
       "Name": "Tihočaj",
       "PostCode": "10453",
       "LatLong": "45.75,15.55"
      },
      {
       "Name": "Prodin Dol",
       "PostCode": "10453",
       "LatLong": "45.7492,15.7196"
      },
      {
       "Name": "Paljugi",
       "PostCode": "10453",
       "LatLong": "45.7167,15.5667"
      },
      {
       "Name": "Lanišće",
       "PostCode": "10453",
       "LatLong": "45.7492,15.7196"
      },
      {
       "Name": "Miladini",
       "PostCode": "10453",
       "LatLong": "45.7,15.6"
      },
      {
       "Name": "Celine",
       "PostCode": "10453",
       "LatLong": "45.8931,16.4047"
      },
      {
       "Name": "Belčići",
       "PostCode": "10453",
       "LatLong": "45.7492,15.7196"
      },
      {
       "Name": "Gorica Svetojanska",
       "PostCode": "10453",
       "LatLong": "45.7189,15.5961"
      },
      {
       "Name": "Bukovac Svetojanski",
       "PostCode": "10453",
       "LatLong": "45.7492,15.7196"
      },
      {
       "Name": "Ivančići",
       "PostCode": "10453",
       "LatLong": "45.7167,15.6"
      },
      {
       "Name": "Redovje",
       "PostCode": "10453",
       "LatLong": "45.7492,15.7196"
      },
      {
       "Name": "Grabarak",
       "PostCode": "10453",
       "LatLong": "45.7492,15.7196"
      },
      {
       "Name": "Špigelski Breg",
       "PostCode": "10453",
       "LatLong": "45.7492,15.7196"
      },
      {
       "Name": "Srednjak",
       "PostCode": "10453",
       "LatLong": "45.7492,15.7196"
      },
      {
       "Name": "Toplice",
       "PostCode": "10453",
       "LatLong": "45.7492,15.7196"
      },
      {
       "Name": "Brezovac Žumberački",
       "PostCode": "10453",
       "LatLong": "45.7492,15.7196"
      },
      {
       "Name": "Dolanjski Jarak",
       "PostCode": "10453",
       "LatLong": "45.7492,15.7196"
      },
      {
       "Name": "Draga Svetojanska",
       "PostCode": "10453",
       "LatLong": "45.7492,15.7196"
      }
     ]
    },
    {
     "Name": "Krašić",
     "Places": [
      {
       "Name": "Krašić",
       "PostCode": "10454",
       "LatLong": "45.6558,15.5178"
      },
      {
       "Name": "Hrženik",
       "PostCode": "10454",
       "LatLong": "45.65,15.5"
      },
      {
       "Name": "Gornje Prekrižje",
       "PostCode": "10454",
       "LatLong": "45.6833,15.4833"
      },
      {
       "Name": "Mirkopolje",
       "PostCode": "10454",
       "LatLong": "45.663,15.5174"
      },
      {
       "Name": "Gornja Kupčina",
       "PostCode": "10454",
       "LatLong": "45.6167,15.5667"
      },
      {
       "Name": "Gračac Slavetički",
       "PostCode": "10454",
       "LatLong": "45.7333,15.5167"
      },
      {
       "Name": "Vukšin Šipak",
       "PostCode": "10454",
       "LatLong": "45.6,15.5667"
      },
      {
       "Name": "Dol",
       "PostCode": "10454",
       "LatLong": "45.6833,15.5167"
      },
      {
       "Name": "Jezerine",
       "PostCode": "10454",
       "LatLong": "45.6667,15.4667"
      },
      {
       "Name": "Pesak",
       "PostCode": "10454",
       "LatLong": "45.663,15.5174"
      },
      {
       "Name": "Pribić Crkveni",
       "PostCode": "10454",
       "LatLong": "45.6833,15.5167"
      },
      {
       "Name": "Donje Prekrižje",
       "PostCode": "10454",
       "LatLong": "45.6833,15.4833"
      },
      {
       "Name": "Bukovica Prekriška",
       "PostCode": "10454",
       "LatLong": "45.663,15.5174"
      },
      {
       "Name": "Brlenić",
       "PostCode": "10454",
       "LatLong": "45.6333,15.5408"
      },
      {
       "Name": "Careva Draga",
       "PostCode": "10454",
       "LatLong": "45.663,15.5174"
      },
      {
       "Name": "Pribić",
       "PostCode": "10454",
       "LatLong": "45.6667,15.5333"
      },
      {
       "Name": "Hutin",
       "PostCode": "10454",
       "LatLong": "45.663,15.5174"
      },
      {
       "Name": "Kostel Pribićki",
       "PostCode": "10454",
       "LatLong": "45.663,15.5174"
      },
      {
       "Name": "Krnežići",
       "PostCode": "10454",
       "LatLong": "45.663,15.5174"
      },
      {
       "Name": "Krupače",
       "PostCode": "10454",
       "LatLong": "45.663,15.5174"
      },
      {
       "Name": "Kučer",
       "PostCode": "10454",
       "LatLong": "45.663,15.5174"
      },
      {
       "Name": "Kurpezova Gorica",
       "PostCode": "10454",
       "LatLong": "45.663,15.5174"
      },
      {
       "Name": "Radina Gorica",
       "PostCode": "10454",
       "LatLong": "45.663,15.5174"
      },
      {
       "Name": "Rude Pribićke",
       "PostCode": "10454",
       "LatLong": "45.663,15.5174"
      },
      {
       "Name": "Strmec Pribićki",
       "PostCode": "10454",
       "LatLong": "45.663,15.5174"
      },
      {
       "Name": "Svrževo",
       "PostCode": "10454",
       "LatLong": "45.663,15.5174"
      },
      {
       "Name": "Vranjak Žumberački",
       "PostCode": "10454",
       "LatLong": "45.663,15.5174"
      },
      {
       "Name": "Brezarić",
       "PostCode": "10454",
       "LatLong": "45.663,15.5174"
      }
     ]
    },
    {
     "Name": "Kostanjevac",
     "Places": [
      {
       "Name": "Tupčina",
       "PostCode": "10455",
       "LatLong": "45.7147,15.4386"
      },
      {
       "Name": "Žumberak",
       "PostCode": "10455",
       "LatLong": "45.75,15.4333"
      },
      {
       "Name": "Kostanjevac",
       "PostCode": "10455",
       "LatLong": "45.7,15.4667"
      },
      {
       "Name": "Jurkovo Selo",
       "PostCode": "10455",
       "LatLong": "45.7081,15.4465"
      },
      {
       "Name": "Vukovo Brdo",
       "PostCode": "10455",
       "LatLong": "45.7167,15.4833"
      },
      {
       "Name": "Veliki Vrh",
       "PostCode": "10455",
       "LatLong": "45.6333,15.4"
      },
      {
       "Name": "Konjarić Vrh",
       "PostCode": "10455",
       "LatLong": "45.7081,15.4465"
      },
      {
       "Name": "Grgetići",
       "PostCode": "10455",
       "LatLong": "45.7081,15.4465"
      },
      {
       "Name": "Kupčina Žumberačka",
       "PostCode": "10455",
       "LatLong": "45.7081,15.4465"
      },
      {
       "Name": "Gornji Oštrc",
       "PostCode": "10455",
       "LatLong": "45.7,15.4333"
      },
      {
       "Name": "Markušići",
       "PostCode": "10455",
       "LatLong": "45.7081,15.4465"
      },
      {
       "Name": "Stupe",
       "PostCode": "10455",
       "LatLong": "45.7081,15.4465"
      },
      {
       "Name": "Medven Draga",
       "PostCode": "10455",
       "LatLong": "45.7081,15.4465"
      },
      {
       "Name": "Drašći Vrh",
       "PostCode": "10455",
       "LatLong": "45.75,15.4833"
      },
      {
       "Name": "Barovka",
       "PostCode": "10455",
       "LatLong": "45.7081,15.4465"
      },
      {
       "Name": "Donji Oštrc",
       "PostCode": "10455",
       "LatLong": "45.7,15.4333"
      },
      {
       "Name": "Begovo Brdo Žumberačko",
       "PostCode": "10455",
       "LatLong": "45.7081,15.4465"
      },
      {
       "Name": "Prvinci",
       "PostCode": "10455",
       "LatLong": "45.7081,15.4465"
      },
      {
       "Name": "Radinovo Brdo",
       "PostCode": "10455",
       "LatLong": "45.7081,15.4465"
      },
      {
       "Name": "Vlašić Brdo",
       "PostCode": "10455",
       "LatLong": "45.7081,15.4465"
      },
      {
       "Name": "Žamarija",
       "PostCode": "10455",
       "LatLong": "45.7081,15.4465"
      },
      {
       "Name": "Željezno Žumberačko",
       "PostCode": "10455",
       "LatLong": "45.7081,15.4465"
      },
      {
       "Name": "Čunkova Draga",
       "PostCode": "10455",
       "LatLong": "45.7081,15.4465"
      }
     ]
    },
    {
     "Name": "Kalje",
     "Places": [
      {
       "Name": "Mrzlo Polje Žumberačko",
       "PostCode": "10456",
       "LatLong": "45.7833,15.4833"
      },
      {
       "Name": "Petričko Selo",
       "PostCode": "10456",
       "LatLong": "45.7664,15.4572"
      },
      {
       "Name": "Tomaševci",
       "PostCode": "10456",
       "LatLong": "45.7667,15.4333"
      },
      {
       "Name": "Javor",
       "PostCode": "10456",
       "LatLong": "45.6714,15.2297"
      },
      {
       "Name": "Budinjak",
       "PostCode": "10456",
       "LatLong": "45.7892,15.4908"
      },
      {
       "Name": "Glušinja",
       "PostCode": "10456",
       "LatLong": "45.6714,15.2297"
      },
      {
       "Name": "Dane",
       "PostCode": "10456",
       "LatLong": "45.47,14.0406"
      },
      {
       "Name": "Novo Selo Žumberačko",
       "PostCode": "10456",
       "LatLong": "45.6714,15.2297"
      },
      {
       "Name": "Kalje",
       "PostCode": "10456",
       "LatLong": "45.7667,15.4833"
      },
      {
       "Name": "Osredek Žumberački",
       "PostCode": "10456",
       "LatLong": "45.6714,15.2297"
      },
      {
       "Name": "Pećno",
       "PostCode": "10456",
       "LatLong": "45.75,15.5167"
      },
      {
       "Name": "Staničići Žumberački",
       "PostCode": "10456",
       "LatLong": "45.6714,15.2297"
      },
      {
       "Name": "Višći Vrh",
       "PostCode": "10456",
       "LatLong": "45.7667,15.4833"
      },
      {
       "Name": "Grgetići",
       "PostCode": "10456",
       "LatLong": "45.6714,15.2297"
      },
      {
       "Name": "Šimraki",
       "PostCode": "10456",
       "LatLong": "45.7833,15.5333"
      },
      {
       "Name": "Hartje",
       "PostCode": "10456",
       "LatLong": "45.75,15.45"
      },
      {
       "Name": "Golubići",
       "PostCode": "10456",
       "LatLong": "45.6714,15.2297"
      },
      {
       "Name": "Cerovica",
       "PostCode": "10456",
       "LatLong": "44.9933,14.1547"
      },
      {
       "Name": "Bratelji",
       "PostCode": "10456",
       "LatLong": "45.6714,15.2297"
      },
      {
       "Name": "Čučići",
       "PostCode": "10456",
       "LatLong": "45.6714,15.2297"
      },
      {
       "Name": "Osunja",
       "PostCode": "10456",
       "LatLong": "45.6714,15.2297"
      },
      {
       "Name": "Sječevac",
       "PostCode": "10456",
       "LatLong": "45.6714,15.2297"
      },
      {
       "Name": "Tisovac Žumberački",
       "PostCode": "10456",
       "LatLong": "45.6714,15.2297"
      },
      {
       "Name": "Grič",
       "PostCode": "10456",
       "LatLong": "45.6714,15.2297"
      },
      {
       "Name": "Gornja Vas",
       "PostCode": "10456",
       "LatLong": "45.6714,15.2297"
      }
     ]
    },
    {
     "Name": "Sošice",
     "Places": [
      {
       "Name": "Reštovo Žumberačko",
       "PostCode": "10457",
       "LatLong": "45.74,15.3892"
      },
      {
       "Name": "Sošice",
       "PostCode": "10457",
       "LatLong": "45.75,15.3833"
      },
      {
       "Name": "Visoće",
       "PostCode": "10457",
       "LatLong": "45.7167,15.4"
      },
      {
       "Name": "Jezernice",
       "PostCode": "10457",
       "LatLong": "45.7333,15.3667"
      },
      {
       "Name": "Kordići Žumberački",
       "PostCode": "10457",
       "LatLong": "45.735,15.3848"
      },
      {
       "Name": "Cernik",
       "PostCode": "10457",
       "LatLong": "45.735,15.3848"
      },
      {
       "Name": "Plavci",
       "PostCode": "10457",
       "LatLong": "45.735,15.3848"
      },
      {
       "Name": "Sopote",
       "PostCode": "10457",
       "LatLong": "45.735,15.3848"
      },
      {
       "Name": "Stari Grad Žumberački",
       "PostCode": "10457",
       "LatLong": "45.735,15.3848"
      }
     ]
    }
   ]
  },
  {
   "Name": "Dubrovačko-Neretvanska",
   "Communities": [
    {
     "Name": "Dubrovnik",
     "Places": [
      {
       "Name": "Dubrovnik",
       "PostCode": "20000",
       "LatLong": "42.6506,18.0914"
      }
     ]
    },
    {
     "Name": "Topolo",
     "Places": [
      {
       "Name": "Štedrica",
       "PostCode": "20205",
       "LatLong": "42.8925,17.6839"
      },
      {
       "Name": "Stupa",
       "PostCode": "20205",
       "LatLong": "42.8969,17.7247"
      },
      {
       "Name": "Imotica",
       "PostCode": "20205",
       "LatLong": "42.9139,17.6861"
      },
      {
       "Name": "Topolo",
       "PostCode": "20205",
       "LatLong": "42.9097,17.7047"
      },
      {
       "Name": "Ošlje",
       "PostCode": "20205",
       "LatLong": "42.8897,17.7356"
      }
     ]
    },
    {
     "Name": "Mlini",
     "Places": [
      {
       "Name": "Kupari",
       "PostCode": "20207",
       "LatLong": "42.6203,18.1914"
      },
      {
       "Name": "Brgat Donji",
       "PostCode": "20207",
       "LatLong": "42.6472,18.1661"
      },
      {
       "Name": "Brgat Gornji",
       "PostCode": "20207",
       "LatLong": "42.6411,18.1558"
      },
      {
       "Name": "Makoše",
       "PostCode": "20207",
       "LatLong": "42.65,18.1897"
      },
      {
       "Name": "Plat",
       "PostCode": "20207",
       "LatLong": "42.6086,18.2256"
      },
      {
       "Name": "Mlini",
       "PostCode": "20207",
       "LatLong": "42.6231,18.2072"
      },
      {
       "Name": "Brašina",
       "PostCode": "20207",
       "LatLong": "42.6267,18.1983"
      },
      {
       "Name": "Bosanka",
       "PostCode": "20207",
       "LatLong": "42.6458,18.1258"
      },
      {
       "Name": "Buići",
       "PostCode": "20207",
       "LatLong": "42.6411,18.1956"
      },
      {
       "Name": "Petrača",
       "PostCode": "20207",
       "LatLong": "42.6325,18.1931"
      },
      {
       "Name": "Zavrelje",
       "PostCode": "20207",
       "LatLong": "42.6228,18.2125"
      },
      {
       "Name": "Martinovići",
       "PostCode": "20207",
       "LatLong": "42.6506,18.1839"
      },
      {
       "Name": "Soline",
       "PostCode": "20207",
       "LatLong": "42.6147,18.2222"
      },
      {
       "Name": "Čelopeci",
       "PostCode": "20207",
       "LatLong": "42.6347,18.1769"
      },
      {
       "Name": "Srebreno",
       "PostCode": "20207",
       "LatLong": "42.6233,18.1961"
      },
      {
       "Name": "Čibača",
       "PostCode": "20207",
       "LatLong": "42.6289,18.1711"
      },
      {
       "Name": "Grbavac",
       "PostCode": "20207",
       "LatLong": "42.6522,18.1789"
      }
     ]
    },
    {
     "Name": "Cavtat",
     "Places": [
      {
       "Name": "Šilješki",
       "PostCode": "20210",
       "LatLong": "42.5898,18.2761"
      },
      {
       "Name": "Jasenice",
       "PostCode": "20210",
       "LatLong": "42.5836,18.2112"
      },
      {
       "Name": "Cavtat",
       "PostCode": "20210",
       "LatLong": "42.5811,18.2181"
      },
      {
       "Name": "Stravča",
       "PostCode": "20210",
       "LatLong": "42.6006,18.3142"
      },
      {
       "Name": "Zvekovica",
       "PostCode": "20210",
       "LatLong": "42.5767,18.2392"
      },
      {
       "Name": "Uskoplje",
       "PostCode": "20210",
       "LatLong": "42.5806,18.2522"
      },
      {
       "Name": "Duba Konavoska",
       "PostCode": "20210",
       "LatLong": "42.6028,18.3417"
      },
      {
       "Name": "Brotnice",
       "PostCode": "20210",
       "LatLong": "42.5944,18.2983"
      }
     ]
    },
    {
     "Name": "Čilipi",
     "Places": [
      {
       "Name": "Komaji",
       "PostCode": "20213",
       "LatLong": "42.5356,18.3083"
      },
      {
       "Name": "Gabrili",
       "PostCode": "20213",
       "LatLong": "42.5742,18.2903"
      },
      {
       "Name": "Čilipi",
       "PostCode": "20213",
       "LatLong": "42.5531,18.2761"
      },
      {
       "Name": "Močići",
       "PostCode": "20213",
       "LatLong": "42.5617,18.2511"
      }
     ]
    },
    {
     "Name": "Gruda",
     "Places": [
      {
       "Name": "Gruda",
       "PostCode": "20215",
       "LatLong": "42.5178,18.3744"
      },
      {
       "Name": "Poljice",
       "PostCode": "20215",
       "LatLong": "42.4961,18.3797"
      },
      {
       "Name": "Popovići",
       "PostCode": "20215",
       "LatLong": "42.5228,18.3186"
      },
      {
       "Name": "Radovčići",
       "PostCode": "20215",
       "LatLong": "42.5125,18.3453"
      }
     ]
    },
    {
     "Name": "Dubravka",
     "Places": [
      {
       "Name": "Vodovađa",
       "PostCode": "20216",
       "LatLong": "42.515,18.4253"
      },
      {
       "Name": "Zastolje",
       "PostCode": "20216",
       "LatLong": "42.5242,18.4003"
      },
      {
       "Name": "Dunave",
       "PostCode": "20216",
       "LatLong": "42.5411,18.4058"
      },
      {
       "Name": "Dubravka",
       "PostCode": "20216",
       "LatLong": "42.5353,18.4244"
      }
     ]
    },
    {
     "Name": "Pridvorje",
     "Places": [
      {
       "Name": "Lovorno",
       "PostCode": "20217",
       "LatLong": "42.5461,18.3606"
      },
      {
       "Name": "Drvenik",
       "PostCode": "20217",
       "LatLong": "42.5678,18.3069"
      },
      {
       "Name": "Kuna Konavoska",
       "PostCode": "20217",
       "LatLong": "42.5594,18.3619"
      },
      {
       "Name": "Ljuta",
       "PostCode": "20217",
       "LatLong": "42.5383,18.3781"
      },
      {
       "Name": "Mihanići",
       "PostCode": "20217",
       "LatLong": "42.5633,18.3275"
      },
      {
       "Name": "Pridvorje",
       "PostCode": "20217",
       "LatLong": "42.5514,18.3469"
      }
     ]
    },
    {
     "Name": "Pločice",
     "Places": [
      {
       "Name": "Molunat",
       "PostCode": "20218",
       "LatLong": "42.45,18.4372"
      },
      {
       "Name": "Palje Brdo",
       "PostCode": "20218",
       "LatLong": "42.5133,18.4111"
      },
      {
       "Name": "Đurinići",
       "PostCode": "20218",
       "LatLong": "42.4719,18.4425"
      },
      {
       "Name": "Pločice",
       "PostCode": "20218",
       "LatLong": "42.4933,18.4114"
      },
      {
       "Name": "Mikulići",
       "PostCode": "20218",
       "LatLong": "42.4808,18.4114"
      },
      {
       "Name": "Vitaljina",
       "PostCode": "20218",
       "LatLong": "42.4539,18.4714"
      }
     ]
    },
    {
     "Name": "Koločep",
     "Places": [
      {
       "Name": "Koločep",
       "PostCode": "20221",
       "LatLong": "42.6761,18.0097"
      }
     ]
    },
    {
     "Name": "Lopud",
     "Places": [
      {
       "Name": "Lopud",
       "PostCode": "20222",
       "LatLong": "42.6928,17.9469"
      }
     ]
    },
    {
     "Name": "Šipanjska Luka",
     "Places": [
      {
       "Name": "Suđurađ",
       "PostCode": "20223",
       "LatLong": "42.7119,17.9106"
      },
      {
       "Name": "Šipanjska Luka",
       "PostCode": "20223",
       "LatLong": "42.7289,17.8672"
      }
     ]
    },
    {
     "Name": "Maranovići",
     "Places": [
      {
       "Name": "Saplunara",
       "PostCode": "20224",
       "LatLong": "42.7213,17.6742"
      },
      {
       "Name": "Korita",
       "PostCode": "20224",
       "LatLong": "42.7128,17.7081"
      },
      {
       "Name": "Maranovići",
       "PostCode": "20224",
       "LatLong": "42.7156,17.67"
      },
      {
       "Name": "Prožurska Luka",
       "PostCode": "20224",
       "LatLong": "42.7213,17.6742"
      },
      {
       "Name": "Prožura",
       "PostCode": "20224",
       "LatLong": "42.7286,17.6494"
      },
      {
       "Name": "Okuklje",
       "PostCode": "20224",
       "LatLong": "42.7283,17.6692"
      }
     ]
    },
    {
     "Name": "Babino Polje",
     "Places": [
      {
       "Name": "Babino Polje",
       "PostCode": "20225",
       "LatLong": "42.7333,17.5619"
      },
      {
       "Name": "Kozarica",
       "PostCode": "20225",
       "LatLong": "42.7764,17.4642"
      },
      {
       "Name": "Ropa",
       "PostCode": "20225",
       "LatLong": "42.7528,17.4603"
      },
      {
       "Name": "Sobra",
       "PostCode": "20225",
       "LatLong": "42.7372,17.6003"
      },
      {
       "Name": "Blato",
       "PostCode": "20225",
       "LatLong": "42.7625,17.4822"
      }
     ]
    },
    {
     "Name": "Goveđari",
     "Places": [
      {
       "Name": "Njivice",
       "PostCode": "20226",
       "LatLong": "43.3075,17.1569"
      },
      {
       "Name": "Soline",
       "PostCode": "20226",
       "LatLong": "42.6981,18.0406"
      },
      {
       "Name": "Polače",
       "PostCode": "20226",
       "LatLong": "42.7836,17.3797"
      },
      {
       "Name": "Goveđari",
       "PostCode": "20226",
       "LatLong": "42.7833,17.3667"
      },
      {
       "Name": "Pomena",
       "PostCode": "20226",
       "LatLong": "42.8931,17.486"
      },
      {
       "Name": "Pristanište",
       "PostCode": "20226",
       "LatLong": "42.8931,17.486"
      },
      {
       "Name": "Tatinica",
       "PostCode": "20226",
       "LatLong": "42.8931,17.486"
      },
      {
       "Name": "Babine Kuće",
       "PostCode": "20226",
       "LatLong": "42.8931,17.486"
      },
      {
       "Name": "Velika Loza",
       "PostCode": "20226",
       "LatLong": "42.8931,17.486"
      }
     ]
    },
    {
     "Name": "Ston",
     "Places": [
      {
       "Name": "Boljenovići",
       "PostCode": "20230",
       "LatLong": "42.8481,17.6247"
      },
      {
       "Name": "Česvinica",
       "PostCode": "20230",
       "LatLong": "42.8514,17.6669"
      },
      {
       "Name": "Zabrđe",
       "PostCode": "20230",
       "LatLong": "42.8606,17.5867"
      },
      {
       "Name": "Sparagovići",
       "PostCode": "20230",
       "LatLong": "42.855,17.6133"
      },
      {
       "Name": "Ston",
       "PostCode": "20230",
       "LatLong": "42.8386,17.6964"
      },
      {
       "Name": "Broce",
       "PostCode": "20230",
       "LatLong": "42.8206,17.7156"
      },
      {
       "Name": "Metohija",
       "PostCode": "20230",
       "LatLong": "42.8411,17.6336"
      },
      {
       "Name": "Duba Stonska",
       "PostCode": "20230",
       "LatLong": "42.8739,17.6417"
      },
      {
       "Name": "Mali Ston",
       "PostCode": "20230",
       "LatLong": "42.8467,17.7036"
      },
      {
       "Name": "Hodilje",
       "PostCode": "20230",
       "LatLong": "42.8569,17.6894"
      },