[
{
"Name": "Bjelovarsko-Bilogorska",
"Code": "01",
"Provinces": [
{
"Communities": [
{
"Name": "Bjelovar",
"Places": [
{
"Name": "Babinac",
"PostCode": "43000",
"Location": {
"Latitude": 45.7536,
"Longitude": 16.8261
}
},
{
"Name": "Babotok",
"PostCode": "43000",
"Location": {
"Latitude": 46.0167,
"Longitude": 16.8833
}
},
{
"Name": "Berek",
"PostCode": "43000",
"Location": {
"Latitude": 45.7383,
"Longitude": 16.8303
}
},
{
"Name": "Bjelovar",
"PostCode": "43000",
"Location": {
"Latitude": 45.8986,
"Longitude": 16.8489
}
},
{
"Name": "Botinac",
"PostCode": "43000",
"Location": {
"Latitude": 46.0,
"Longitude": 16.8667
}
},
{
"Name": "Breza",
"PostCode": "43000",
"Location": {
"Latitude": 45.8667,
"Longitude": 16.7167
}
},
{
"Name": "Brezovac",
"PostCode": "43000",
"Location": {
"Latitude": 45.8675,
"Longitude": 16.8408
}
},
{
"Name": "Ciglena",
"PostCode": "43000",
"Location": {
"Latitude": 45.8669,
"Longitude": 16.9367
}
},
{
"Name": "Ćurlovac",
"PostCode": "43000",
"Location": {
"Latitude": 45.9833,
"Longitude": 16.8833
}
},
{
"Name": "Domankuš",
"PostCode": "43000",
"Location": {
"Latitude": 46.0,
"Longitude": 16.7667
}
},
{
"Name": "Dominkovica",
"PostCode": "43000",
"Location": {
"Latitude": 45.9667,
"Longitude": 16.9667
}
},
{
"Name": "Donja Petrička",
"PostCode": "43000",
"Location": {
"Latitude": 45.7333,
"Longitude": 16.8
}
},
{
"Name": "Donji Mosti",
"PostCode": "43000",
"Location": {
"Latitude": 46.0464,
"Longitude": 16.8692
}
},
{
"Name": "Đurđic",
"PostCode": "43000",
"Location": {
"Latitude": 45.8976,
"Longitude": 16.8529
}
},
{
"Name": "Galovac",
"PostCode": "43000",
"Location": {
"Latitude": 45.8417,
"Longitude": 16.8558
}
},
{
"Name": "Gornja Petrička",
"PostCode": "43000",
"Location": {
"Latitude": 45.7333,
"Longitude": 16.7833
}
},
{
"Name": "Gornje Plavnice",
"PostCode": "43000",
"Location": {
"Latitude": 45.9333,
"Longitude": 16.8667
}
},
{
"Name": "Gornje Rovišće",
"PostCode": "43000",
"Location": {
"Latitude": 45.8976,
"Longitude": 16.8529
}
},
{
"Name": "Gornje Zdelice",
"PostCode": "43000",
"Location": {
"Latitude": 46.0256,
"Longitude": 16.8725
}
},
{
"Name": "Gornji Mosti",
"PostCode": "43000",
"Location": {
"Latitude": 46.0658,
"Longitude": 16.8456
}
},
{
"Name": "Gornji Tomaš",
"PostCode": "43000",
"Location": {
"Latitude": 45.8976,
"Longitude": 16.8529
}
},
{
"Name": "Grginac",
"PostCode": "43000",
"Location": {
"Latitude": 45.9,
"Longitude": 16.9
}
},
{
"Name": "Gudovac",
"PostCode": "43000",
"Location": {
"Latitude": 45.8803,
"Longitude": 16.7808
}
},
{
"Name": "Ivanska",
"PostCode": "43000",
"Location": {
"Latitude": 45.7789,
"Longitude": 16.8119
}
},
{
"Name": "Jabučeta",
"PostCode": "43000",
"Location": {
"Latitude": 46.0139,
"Longitude": 16.8992
}
},
{
"Name": "Jakopovac",
"PostCode": "43000",
"Location": {
"Latitude": 46.0256,
"Longitude": 16.7883
}
},
{
"Name": "Jasenik",
"PostCode": "43000",
"Location": {
"Latitude": 45.9333,
"Longitude": 17.05
}
},
{
"Name": "Kakinac",
"PostCode": "43000",
"Location": {
"Latitude": 45.9667,
"Longitude": 16.7667
}
},
{
"Name": "Kapela",
"PostCode": "43000",
"Location": {
"Latitude": 45.9883,
"Longitude": 16.8514
}
},
{
"Name": "Kašljavac",
"PostCode": "43000",
"Location": {
"Latitude": 45.8833,
"Longitude": 17.0
}
},
{
"Name": "Kegljevac",
"PostCode": "43000",
"Location": {
"Latitude": 45.9833,
"Longitude": 16.95
}
},
{
"Name": "Klokočevac",
"PostCode": "43000",
"Location": {
"Latitude": 45.9167,
"Longitude": 16.7833
}
},
{
"Name": "Kobasičari",
"PostCode": "43000",
"Location": {
"Latitude": 45.95,
"Longitude": 16.8167
}
},
{
"Name": "Kokinac",
"PostCode": "43000",
"Location": {
"Latitude": 45.8483,
"Longitude": 16.9059
}
},
{
"Name": "Kolarevo Selo",
"PostCode": "43000",
"Location": {
"Latitude": 45.8167,
"Longitude": 16.8333
}
},
{
"Name": "Kovačevac",
"PostCode": "43000",
"Location": {
"Latitude": 45.9833,
"Longitude": 16.7167
}
},
{
"Name": "Kraljevac",
"PostCode": "43000",
"Location": {
"Latitude": 45.9667,
"Longitude": 16.7333
}
},
{
"Name": "Krivaja",
"PostCode": "43000",
"Location": {
"Latitude": 45.7123,
"Longitude": 16.8192
}
},
{
"Name": "Križ Gornji",
"PostCode": "43000",
"Location": {
"Latitude": 46.0472,
"Longitude": 16.7675
}
},
{
"Name": "Križic",
"PostCode": "43000",
"Location": {
"Latitude": 45.7667,
"Longitude": 16.7833
}
},
{
"Name": "Kupinovac",
"PostCode": "43000",
"Location": {
"Latitude": 45.9516,
"Longitude": 16.8918
}
},
{
"Name": "Lalići",
"PostCode": "43000",
"Location": {
"Latitude": 45.8976,
"Longitude": 16.8529
}
},
{
"Name": "Letičani",
"PostCode": "43000",
"Location": {
"Latitude": 45.9304,
"Longitude": 16.8872
}
},
{
"Name": "Lipovčani",
"PostCode": "43000",
"Location": {
"Latitude": 45.7718,
"Longitude": 16.5506
}
},
{
"Name": "Lipovo Brdo",
"PostCode": "43000",
"Location": {
"Latitude": 46.0,
"Longitude": 16.8833
}
},
{
"Name": "Maglenča",
"PostCode": "43000",
"Location": {
"Latitude": 45.9167,
"Longitude": 16.9333
}
},
{
"Name": "Mala Ciglena",
"PostCode": "43000",
"Location": {
"Latitude": 45.8976,
"Longitude": 16.8529
}
},
{
"Name": "Malo Korenovo",
"PostCode": "43000",
"Location": {
"Latitude": 45.85,
"Longitude": 16.8333
}
},
{
"Name": "Malo Trojstvo",
"PostCode": "43000",
"Location": {
"Latitude": 45.9728,
"Longitude": 16.9486
}
},
{
"Name": "Martinac",
"PostCode": "43000",
"Location": {
"Latitude": 45.9333,
"Longitude": 16.9167
}
},
{
"Name": "Narta",
"PostCode": "43000",
"Location": {
"Latitude": 45.8328,
"Longitude": 16.7861
}
},
{
"Name": "Nova Diklenica",
"PostCode": "43000",
"Location": {
"Latitude": 45.9833,
"Longitude": 16.8833
}
},
{
"Name": "Novi Pavljani",
"PostCode": "43000",
"Location": {
"Latitude": 45.85,
"Longitude": 16.85
}
},
{
"Name": "Novi Skucani",
"PostCode": "43000",
"Location": {
"Latitude": 45.9486,
"Longitude": 16.8281
}
},
{
"Name": "Novoseljani",
"PostCode": "43000",
"Location": {
"Latitude": 45.8833,
"Longitude": 16.8833
}
},
{
"Name": "Obrovnica",
"PostCode": "43000",
"Location": {
"Latitude": 45.8269,
"Longitude": 16.8769
}
},
{
"Name": "Orovac",
"PostCode": "43000",
"Location": {
"Latitude": 45.8658,
"Longitude": 16.9764
}
},
{
"Name": "Paljevine",
"PostCode": "43000",
"Location": {
"Latitude": 45.8284,
"Longitude": 16.811
}
},
{
"Name": "Patkovac",
"PostCode": "43000",
"Location": {
"Latitude": 45.8525,
"Longitude": 16.9314
}
},
{
"Name": "Paulovac",
"PostCode": "43000",
"Location": {
"Latitude": 45.8976,
"Longitude": 16.8529
}
},
{
"Name": "Pavlin Kloštar",
"PostCode": "43000",
"Location": {
"Latitude": 46.01,
"Longitude": 16.8039
}
},
{
"Name": "Podgorci",
"PostCode": "43000",
"Location": {
"Latitude": 45.9706,
"Longitude": 16.7986
}
},
{
"Name": "Poljančani",
"PostCode": "43000",
"Location": {
"Latitude": 45.8976,
"Longitude": 16.8529
}
},
{
"Name": "Potok",
"PostCode": "43000",
"Location": {
"Latitude": 45.7333,
"Longitude": 16.8667
}
},
{
"Name": "Predavac",
"PostCode": "43000",
"Location": {
"Latitude": 45.9358,
"Longitude": 16.7833
}
},
{
"Name": "Prekobrdo",
"PostCode": "43000",
"Location": {
"Latitude": 45.8976,
"Longitude": 16.8529
}
},
{
"Name": "Prespa",
"PostCode": "43000",
"Location": {
"Latitude": 45.8667,
"Longitude": 16.9167
}
},
{
"Name": "Prgomelje",
"PostCode": "43000",
"Location": {
"Latitude": 45.8908,
"Longitude": 16.7522
}
},
{
"Name": "Prnjavor",
"PostCode": "43000",
"Location": {
"Latitude": 45.8976,
"Longitude": 16.8529
}
},
{
"Name": "Prokljuvani",
"PostCode": "43000",
"Location": {
"Latitude": 45.8976,
"Longitude": 16.8529
}
},
{
"Name": "Pupelica",
"PostCode": "43000",
"Location": {
"Latitude": 45.88,
"Longitude": 17.0361
}
},
{
"Name": "Puričani",
"PostCode": "43000",
"Location": {
"Latitude": 45.8976,
"Longitude": 16.8529
}
},
{
"Name": "Rajić",
"PostCode": "43000",
"Location": {
"Latitude": 45.9003,
"Longitude": 16.7144
}
},
{
"Name": "Rastovac",
"PostCode": "43000",
"Location": {
"Latitude": 45.7936,
"Longitude": 16.7848
}
},
{
"Name": "Ravneš",
"PostCode": "43000",
"Location": {
"Latitude": 45.8628,
"Longitude": 17.0078
}
},
{
"Name": "Reškovci",
"PostCode": "43000",
"Location": {
"Latitude": 45.8976,
"Longitude": 16.8529
}
},
{
"Name": "Rovišće",
"PostCode": "43000",
"Location": {
"Latitude": 45.9447,
"Longitude": 16.735
}
},
{
"Name": "Ruškovac",
"PostCode": "43000",
"Location": {
"Latitude": 45.7222,
"Longitude": 16.8928
}
},
{
"Name": "Samarica",
"PostCode": "43000",
"Location": {
"Latitude": 45.6978,
"Longitude": 16.7689
}
},
{
"Name": "Šandrovac",
"PostCode": "43000",
"Location": {
"Latitude": 45.9056,
"Longitude": 17.0211
}
},
{
"Name": "Severin",
"PostCode": "43000",
"Location": {
"Latitude": 45.835,
"Longitude": 16.9589
}
},
{
"Name": "Šimljana",
"PostCode": "43000",
"Location": {
"Latitude": 45.6975,
"Longitude": 16.8247
}
},
{
"Name": "Šimljanica",
"PostCode": "43000",
"Location": {
"Latitude": 45.7167,
"Longitude": 16.8667
}
},
{
"Name": "Šiptari",
"PostCode": "43000",
"Location": {
"Latitude": 45.8976,
"Longitude": 16.8529
}
},
{
"Name": "Sredice Gornje",
"PostCode": "43000",
"Location": {
"Latitude": 46.0372,
"Longitude": 16.82
}
},
{
"Name": "Srednja Diklenica",
"PostCode": "43000",
"Location": {
"Latitude": 45.9667,
"Longitude": 16.8833
}
},
{
"Name": "Srednji Mosti",
"PostCode": "43000",
"Location": {
"Latitude": 46.0622,
"Longitude": 16.8628
}
},
{
"Name": "Srijedska",
"PostCode": "43000",
"Location": {
"Latitude": 45.8976,
"Longitude": 16.8529
}
},
{
"Name": "Stančići",
"PostCode": "43000",
"Location": {
"Latitude": 45.8976,
"Longitude": 16.8529
}
},
{
"Name": "Stanići",
"PostCode": "43000",
"Location": {
"Latitude": 45.8976,
"Longitude": 16.8529
}
},
{
"Name": "Stara Diklenica",
"PostCode": "43000",
"Location": {
"Latitude": 45.9667,
"Longitude": 16.8667
}
},
{
"Name": "Stara Plošćica",
"PostCode": "43000",
"Location": {
"Latitude": 45.7608,
"Longitude": 16.8847
}
},
{
"Name": "Starčevljani",
"PostCode": "43000",
"Location": {
"Latitude": 45.95,
"Longitude": 16.85
}
},
{
"Name": "Stare Plavnice",
"PostCode": "43000",
"Location": {
"Latitude": 45.9,
"Longitude": 16.8167
}
},
{
"Name": "Stari Pavljani",
"PostCode": "43000",
"Location": {
"Latitude": 45.8581,
"Longitude": 16.8838
}
},
{
"Name": "Stari Skucani",
"PostCode": "43000",
"Location": {
"Latitude": 45.8976,
"Longitude": 16.8529
}
},
{
"Name": "Tomaš",
"PostCode": "43000",
"Location": {
"Latitude": 45.8833,
"Longitude": 16.9167
}
},
{
"Name": "Trojstveni Markovac",
"PostCode": "43000",
"Location": {
"Latitude": 45.9167,
"Longitude": 16.8833
}
},
{
"Name": "Tuk",
"PostCode": "43000",
"Location": {
"Latitude": 45.9167,
"Longitude": 16.7333
}
},
{
"Name": "Tvrda Reka",
"PostCode": "43000",
"Location": {
"Latitude": 45.8976,
"Longitude": 16.8529
}
},
{
"Name": "Utiskani",
"PostCode": "43000",
"Location": {
"Latitude": 45.8,
"Longitude": 16.8167
}
},
{
"Name": "Veliko Korenovo",
"PostCode": "43000",
"Location": {
"Latitude": 45.85,
"Longitude": 16.8
}
},
{
"Name": "Veliko Trojstvo",
"PostCode": "43000",
"Location": {
"Latitude": 45.9356,
"Longitude": 16.9342
}
},
{
"Name": "Višnjevac",
"PostCode": "43000",
"Location": {
"Latitude": 45.9732,
"Longitude": 16.9222
}
},
{
"Name": "Visovi",
"PostCode": "43000",
"Location": {
"Latitude": 45.8976,
"Longitude": 16.8529
}
},
{
"Name": "Vrbica",
"PostCode": "43000",
"Location": {
"Latitude": 45.95,
"Longitude": 16.9833
}
},
{
"Name": "Žabjak",
"PostCode": "43000",
"Location": {
"Latitude": 45.8976,
"Longitude": 16.8529
}
},
{
"Name": "Ždralovi",
"PostCode": "43000",
"Location": {
"Latitude": 45.8764,
"Longitude": 16.875
}
},
{
"Name": "Zrinski Topolovac",
"PostCode": "43000",
"Location": {
"Latitude": 46.0183,
"Longitude": 16.7555
}
},
{
"Name": "Zvijerci",
"PostCode": "43000",
"Location": {
"Latitude": 45.8976,
"Longitude": 16.8529
}
}
],
"PostCode": "43000"
},
{
"Name": "Čazma",
"Places": [
{
"Name": "Andigola",
"PostCode": "43240",
"Location": {
"Latitude": 45.7604,
"Longitude": 16.6453
}
},
{
"Name": "Blatnica",
"PostCode": "43240",
"Location": {
"Latitude": 45.8299,
"Longitude": 16.7374
}
},
{
"Name": "Bojana",
"PostCode": "43240",
"Location": {
"Latitude": 45.7567,
"Longitude": 16.6816
}
},
{
"Name": "Bosiljevo",
"PostCode": "43240",
"Location": {
"Latitude": 45.7422,
"Longitude": 16.5739
}
},
{
"Name": "Čazma",
"PostCode": "43240",
"Location": {
"Latitude": 45.7482,
"Longitude": 16.6139
}
},
{
"Name": "Cerina",
"PostCode": "43240",
"Location": {
"Latitude": 45.7736,
"Longitude": 16.573
}
},
{
"Name": "Dapci",
"PostCode": "43240",
"Location": {
"Latitude": 45.7604,
"Longitude": 16.6453
}
},
{
"Name": "Daskatica",
"PostCode": "43240",
"Location": {
"Latitude": 45.7958,
"Longitude": 16.6989
}
},
{
"Name": "Dereza",
"PostCode": "43240",
"Location": {
"Latitude": 45.7604,
"Longitude": 16.6453
}
},
{
"Name": "Donja Šušnjara",
"PostCode": "43240",
"Location": {
"Latitude": 45.7604,
"Longitude": 16.6453
}
},
{
"Name": "Donji Draganec",
"PostCode": "43240",
"Location": {
"Latitude": 45.7604,
"Longitude": 16.6453
}
},
{
"Name": "Donji Dragičevci",
"PostCode": "43240",
"Location": {
"Latitude": 45.7604,
"Longitude": 16.6453
}
},
{
"Name": "Donji Lipovčani",
"PostCode": "43240",
"Location": {
"Latitude": 45.7718,
"Longitude": 16.5506
}
},
{
"Name": "Donji Miklouš",
"PostCode": "43240",
"Location": {
"Latitude": 45.7197,
"Longitude": 16.6953
}
},
{
"Name": "Gornja Šušnjara",
"PostCode": "43240",
"Location": {
"Latitude": 45.7667,
"Longitude": 16.75
}
},
{
"Name": "Gornji Draganec",
"PostCode": "43240",
"Location": {
"Latitude": 45.7842,
"Longitude": 16.6474
}
},
{
"Name": "Gornji Dragičevci",
"PostCode": "43240",
"Location": {
"Latitude": 45.7604,
"Longitude": 16.6453
}
},
{
"Name": "Gornji Lipovčani",
"PostCode": "43240",
"Location": {
"Latitude": 45.7604,
"Longitude": 16.6453
}
},
{
"Name": "Gornji Miklouš",
"PostCode": "43240",
"Location": {
"Latitude": 45.7333,
"Longitude": 16.7
}
},
{
"Name": "Grabik",
"PostCode": "43240",
"Location": {
"Latitude": 45.7604,
"Longitude": 16.6453
}
},
{
"Name": "Grabovnica",
"PostCode": "43240",
"Location": {
"Latitude": 45.7449,
"Longitude": 16.6534
}
},
{
"Name": "Komuševac",
"PostCode": "43240",
"Location": {
"Latitude": 45.7891,
"Longitude": 16.6338
}
},
{
"Name": "Laminac",
"PostCode": "43240",
"Location": {
"Latitude": 45.8,
"Longitude": 16.75
}
},
{
"Name": "Marčani",
"PostCode": "43240",
"Location": {
"Latitude": 45.75,
"Longitude": 16.5167
}
},
{
"Name": "Martinac",
"PostCode": "43240",
"Location": {
"Latitude": 45.75,
"Longitude": 16.7333
}
},
{
"Name": "Milaševac",
"PostCode": "43240",
"Location": {
"Latitude": 45.7622,
"Longitude": 16.6481
}
},
{
"Name": "Novo Selo",
"PostCode": "43240",
"Location": {
"Latitude": 45.7604,
"Longitude": 16.6453
}
},
{
"Name": "Općevac",
"PostCode": "43240",
"Location": {
"Latitude": 45.7604,
"Longitude": 16.6453
}
},
{
"Name": "Palančani",
"PostCode": "43240",
"Location": {
"Latitude": 45.7219,
"Longitude": 16.5478
}
},
{
"Name": "Pavličani",
"PostCode": "43240",
"Location": {
"Latitude": 45.7,
"Longitude": 16.6
}
},
{
"Name": "Pobjenik",
"PostCode": "43240",
"Location": {
"Latitude": 45.6983,
"Longitude": 16.6111
}
},
{
"Name": "Pobrđani",
"PostCode": "43240",
"Location": {
"Latitude": 45.7604,
"Longitude": 16.6453
}
},
{
"Name": "Prnjarovac",
"PostCode": "43240",
"Location": {
"Latitude": 45.7889,
"Longitude": 16.5397
}
},
{
"Name": "Prokljuvani",
"PostCode": "43240",
"Location": {
"Latitude": 45.7604,
"Longitude": 16.6453
}
},
{
"Name": "Sišćani",
"PostCode": "43240",
"Location": {
"Latitude": 45.8123,
"Longitude": 16.6519
}
},
{
"Name": "Sovari",
"PostCode": "43240",
"Location": {
"Latitude": 45.7333,
"Longitude": 16.5333
}
},
{
"Name": "Starine",
"PostCode": "43240",
"Location": {
"Latitude": 45.7604,
"Longitude": 16.6453
}
},
{
"Name": "Staro Štefanje",
"PostCode": "43240",
"Location": {
"Latitude": 45.8167,
"Longitude": 16.7167
}
},
{
"Name": "Štefanje",
"PostCode": "43240",
"Location": {
"Latitude": 45.8047,
"Longitude": 16.7203
}
},
{
"Name": "Suhaja",
"PostCode": "43240",
"Location": {
"Latitude": 45.7167,
"Longitude": 16.6333
}
},
{
"Name": "Vagovina",
"PostCode": "43240",
"Location": {
"Latitude": 45.7815,
"Longitude": 16.6681
}
},
{
"Name": "Vrtlinska",
"PostCode": "43240",
"Location": {
"Latitude": 45.6739,
"Longitude": 16.6144
}
},
{
"Name": "Vučani",
"PostCode": "43240",
"Location": {
"Latitude": 45.7333,
"Longitude": 16.6833
}
},
{
"Name": "Zdenčec",
"PostCode": "43240",
"Location": {
"Latitude": 45.8122,
"Longitude": 16.6828
}
}
],
"PostCode": "43240"
},
{
"Name": "Veliki Grđevac",
"Places": [
{
"Name": "Babinac",
"PostCode": "43270",
"Location": {
"Latitude": 45.8292,
"Longitude": 17.0442
}
},
{
"Name": "Bačkovica",
"PostCode": "43270",
"Location": {
"Latitude": 45.8427,
"Longitude": 17.1023
}
},
{
"Name": "Bedenička",
"PostCode": "43270",
"Location": {
"Latitude": 45.8667,
"Longitude": 17.1
}
},
{
"Name": "Bedenik",
"PostCode": "43270",
"Location": {
"Latitude": 45.8275,
"Longitude": 17.0091
}
},
{
"Name": "Bulinac",
"PostCode": "43270",
"Location": {
"Latitude": 45.8158,
"Longitude": 16.9786
}
},
{
"Name": "Čađavac",
"PostCode": "43270",
"Location": {
"Latitude": 45.8228,
"Longitude": 17.112
}
},
{
"Name": "Cremušina",
"PostCode": "43270",
"Location": {
"Latitude": 45.8167,
"Longitude": 17.2333
}
},
{
"Name": "Dautan",
"PostCode": "43270",
"Location": {
"Latitude": 45.8286,
"Longitude": 16.9222
}
},
{
"Name": "Donja Kovačica",
"PostCode": "43270",
"Location": {
"Latitude": 45.7543,
"Longitude": 16.9978
}
},
{
"Name": "Dražica",
"PostCode": "43270",
"Location": {
"Latitude": 45.7167,
"Longitude": 16.9833
}
},
{
"Name": "Drljanovac",
"PostCode": "43270",
"Location": {
"Latitude": 45.7989,
"Longitude": 16.9928
}
},
{
"Name": "Gornja Kovačica",
"PostCode": "43270",
"Location": {
"Latitude": 45.7692,
"Longitude": 17.1108
}
},
{
"Name": "Kozarevac Račanski",
"PostCode": "43270",
"Location": {
"Latitude": 45.7915,
"Longitude": 16.924
}
},
{
"Name": "Lasovac",
"PostCode": "43270",
"Location": {
"Latitude": 45.8517,
"Longitude": 17.03
}
},
{
"Name": "Lasovac Brdo",
"PostCode": "43270",
"Location": {
"Latitude": 45.7983,
"Longitude": 17.037
}
},
{
"Name": "Mala Pisanica",
"PostCode": "43270",
"Location": {
"Latitude": 45.774,
"Longitude": 17.0179
}
},
{
"Name": "Mali Grđevac",
"PostCode": "43270",
"Location": {
"Latitude": 45.7711,
"Longitude": 17.1725
}
},
{
"Name": "Međurača",
"PostCode": "43270",
"Location": {
"Latitude": 45.8003,
"Longitude": 16.8933
}
},
{
"Name": "Nevinac",
"PostCode": "43270",
"Location": {
"Latitude": 45.8153,
"Longitude": 16.9028
}
},
{
"Name": "Nova Pisanica",
"PostCode": "43270",
"Location": {
"Latitude": 45.7983,
"Longitude": 17.037
}
},
{
"Name": "Nova Rača",
"PostCode": "43270",
"Location": {
"Latitude": 45.7969,
"Longitude": 16.9536
}
},
{
"Name": "Orlovac",
"PostCode": "43270",
"Location": {
"Latitude": 45.7458,
"Longitude": 16.9642
}
},
{
"Name": "Pavlovac",
"PostCode": "43270",
"Location": {
"Latitude": 45.7169,
"Longitude": 17.045
}
},
{
"Name": "Polum",
"PostCode": "43270",
"Location": {
"Latitude": 45.7983,
"Longitude": 17.037
}
},
{
"Name": "Ribnjačka",
"PostCode": "43270",
"Location": {
"Latitude": 45.9022,
"Longitude": 17.0878
}
},
{
"Name": "Sasovac",
"PostCode": "43270",
"Location": {
"Latitude": 45.7689,
"Longitude": 16.9294
}
},
{
"Name": "Sibenik",
"PostCode": "43270",
"Location": {
"Latitude": 45.8183,
"Longitude": 17.1814
}
},
{
"Name": "Slovinska Kovačica",
"PostCode": "43270",
"Location": {
"Latitude": 45.7578,
"Longitude": 16.9819
}
},
{
"Name": "Stara Rača",
"PostCode": "43270",
"Location": {
"Latitude": 45.8167,
"Longitude": 16.95
}
},
{
"Name": "Tociljevac",
"PostCode": "43270",
"Location": {
"Latitude": 45.7983,
"Longitude": 17.037
}
},
{
"Name": "Topolovica",
"PostCode": "43270",
"Location": {
"Latitude": 45.7808,
"Longitude": 17.2267
}
},
{
"Name": "Velika Pisanica",
"PostCode": "43270",
"Location": {
"Latitude": 45.8016,
"Longitude": 17.0655
}
},
{
"Name": "Veliki Grđevac",
"PostCode": "43270",
"Location": {
"Latitude": 45.7503,
"Longitude": 17.0475
}
},
{
"Name": "Zrinska",
"PostCode": "43270",
"Location": {
"Latitude": 45.8,
"Longitude": 17.15
}
}
],
"PostCode": "43270"
},
{
"Name": "Garešnica",
"Places": [
{
"Name": "Begovača",
"PostCode": "43280",
"Location": {
"Latitude": 45.675,
"Longitude": 16.8644
}
},
{
"Name": "Blagorodovac",
"PostCode": "43280",
"Location": {
"Latitude": 45.5525,
"Longitude": 17.0353
}
},
{
"Name": "Ciglenica",
"PostCode": "43280",
"Location": {
"Latitude": 45.5586,
"Longitude": 16.9361
}
},
{
"Name": "Dišnik",
"PostCode": "43280",
"Location": {
"Latitude": 45.6006,
"Longitude": 16.9014
}
},
{
"Name": "Duhovi",
"PostCode": "43280",
"Location": {
"Latitude": 45.5194,
"Longitude": 17.0083
}
},
{
"Name": "Garešnica",
"PostCode": "43280",
"Location": {
"Latitude": 45.5744,
"Longitude": 16.9414
}
},
{
"Name": "Garešnički Brestovac",
"PostCode": "43280",
"Location": {
"Latitude": 45.6155,
"Longitude": 16.9323
}
},
{
"Name": "Gornja Garešnica",
"PostCode": "43280",
"Location": {
"Latitude": 45.6528,
"Longitude": 16.8156
}
},
{
"Name": "Gornja Ploščica",
"PostCode": "43280",
"Location": {
"Latitude": 45.6155,
"Longitude": 16.9323
}
},
{
"Name": "Gornja Trnovitica",
"PostCode": "43280",
"Location": {
"Latitude": 45.6155,
"Longitude": 16.9323
}
},
{
"Name": "Gornji Uljanik",
"PostCode": "43280",
"Location": {
"Latitude": 45.5333,
"Longitude": 17.1167
}
},
{
"Name": "Hercegovac",
"PostCode": "43280",
"Location": {
"Latitude": 45.6586,
"Longitude": 17.0136
}
},
{
"Name": "Hrastovac",
"PostCode": "43280",
"Location": {
"Latitude": 45.5531,
"Longitude": 16.99
}
},
{
"Name": "Ilovski Klokočevac",
"PostCode": "43280",
"Location": {
"Latitude": 45.6267,
"Longitude": 17.0331
}
},
{
"Name": "Kajgana",
"PostCode": "43280",
"Location": {
"Latitude": 45.6153,
"Longitude": 16.9594
}
},
{
"Name": "Kaniška Iva",
"PostCode": "43280",
"Location": {
"Latitude": 45.5378,
"Longitude": 16.9269
}
},
{
"Name": "Kapelica",
"PostCode": "43280",
"Location": {
"Latitude": 45.5753,
"Longitude": 16.8933
}
},
{
"Name": "Kostanjevac",
"PostCode": "43280",
"Location": {
"Latitude": 45.6667,
"Longitude": 16.8889
}
},
{
"Name": "Ladislav",
"PostCode": "43280",
"Location": {
"Latitude": 45.6981,
"Longitude": 17.0078
}
},
{
"Name": "Mala Bršljanica",
"PostCode": "43280",
"Location": {
"Latitude": 45.5792,
"Longitude": 16.8389
}
},
{
"Name": "Mala Mlinska",
"PostCode": "43280",
"Location": {
"Latitude": 45.6675,
"Longitude": 16.9458
}
},
{
"Name": "Mala Trnovitica",
"PostCode": "43280",
"Location": {
"Latitude": 45.7103,
"Longitude": 16.9378
}
},
{
"Name": "Mali Pašijan",
"PostCode": "43280",
"Location": {
"Latitude": 45.6333,
"Longitude": 16.9333
}
},
{
"Name": "Malo Vukovje",
"PostCode": "43280",
"Location": {
"Latitude": 45.5253,
"Longitude": 16.9108
}
},
{
"Name": "Mlinski Vinogradi",
"PostCode": "43280",
"Location": {
"Latitude": 45.6155,
"Longitude": 16.9323
}
},
{
"Name": "Nova Ploščica",
"PostCode": "43280",
"Location": {
"Latitude": 45.7356,
"Longitude": 16.9239
}
},
{
"Name": "Novo Selo Garešničko",
"PostCode": "43280",
"Location": {
"Latitude": 45.6155,
"Longitude": 16.9323
}
},
{
"Name": "Oštri Zid",
"PostCode": "43280",
"Location": {
"Latitude": 45.6753,
"Longitude": 16.8269
}
},
{
"Name": "Palešnik",
"PostCode": "43280",
"Location": {
"Latitude": 45.6367,
"Longitude": 16.9761
}
},
{
"Name": "Podgarić",
"PostCode": "43280",
"Location": {
"Latitude": 45.64,
"Longitude": 16.7753
}
},
{
"Name": "Ribnjaci",
"PostCode": "43280",
"Location": {
"Latitude": 45.6155,
"Longitude": 16.9323
}
},
{
"Name": "Rogoža",
"PostCode": "43280",
"Location": {
"Latitude": 45.5467,
"Longitude": 16.8628
}
},
{
"Name": "Šimljanik",
"PostCode": "43280",
"Location": {
"Latitude": 45.6689,
"Longitude": 16.7833
}
},
{
"Name": "Tomašica",
"PostCode": "43280",
"Location": {
"Latitude": 45.6103,
"Longitude": 17.0058
}
},
{
"Name": "Trnovitički Popovac",
"PostCode": "43280",
"Location": {
"Latitude": 45.6508,
"Longitude": 16.8647
}
},
{
"Name": "Uljanički Brijeg",
"PostCode": "43280",
"Location": {
"Latitude": 45.6155,
"Longitude": 16.9323
}
},
{
"Name": "Uljanik",
"PostCode": "43280",
"Location": {
"Latitude": 45.5303,
"Longitude": 17.0183
}
},
{
"Name": "Velika Bršljanica",
"PostCode": "43280",
"Location": {
"Latitude": 45.5667,
"Longitude": 16.8667
}
},
{
"Name": "Velika Mlinska",
"PostCode": "43280",
"Location": {
"Latitude": 45.6606,
"Longitude": 16.9244
}
},
{
"Name": "Velika Trnava",
"PostCode": "43280",
"Location": {
"Latitude": 45.6833,
"Longitude": 17.0333
}
},
{
"Name": "Velika Trnovitica",
"PostCode": "43280",
"Location": {
"Latitude": 45.6825,
"Longitude": 16.9539
}
},
{
"Name": "Veliki Pašijan",
"PostCode": "43280",
"Location": {
"Latitude": 45.6356,
"Longitude": 16.9328
}
},
{
"Name": "Veliki Prokop",
"PostCode": "43280",
"Location": {
"Latitude": 45.6155,
"Longitude": 16.9323
}
},
{
"Name": "Veliko Vukovje",
"PostCode": "43280",
"Location": {
"Latitude": 45.52,
"Longitude": 16.8872
}
},
{
"Name": "Zdenčac",
"PostCode": "43280",
"Location": {
"Latitude": 45.6153,
"Longitude": 16.9594
}
}
],
"PostCode": "43280"
},
{
"Name": "Grubišno Polje",
"Places": [
{
"Name": "Dapčevački Brđani",
"PostCode": "43290",
"Location": {
"Latitude": 45.7081,
"Longitude": 17.2198
}
},
{
"Name": "Dijakovac",
"PostCode": "43290",
"Location": {
"Latitude": 45.7081,
"Longitude": 17.2198
}
},
{
"Name": "Donja Rašenica",
"PostCode": "43290",
"Location": {
"Latitude": 45.6747,
"Longitude": 17.2236
}
},
{
"Name": "Gornja Rašenica",
"PostCode": "43290",
"Location": {
"Latitude": 45.6898,
"Longitude": 17.2186
}
},
{
"Name": "Grbavac",
"PostCode": "43290",
"Location": {
"Latitude": 45.7058,
"Longitude": 17.1204
}
},
{
"Name": "Grubišno Polje",
"PostCode": "43290",
"Location": {
"Latitude": 45.7021,
"Longitude": 17.1727
}
},
{
"Name": "Ivanovo Selo",
"PostCode": "43290",
"Location": {
"Latitude": 45.6722,
"Longitude": 17.2522
}
},
{
"Name": "Lončarica",
"PostCode": "43290",
"Location": {
"Latitude": 45.7547,
"Longitude": 17.3069
}
},
{
"Name": "Mala Barna",
"PostCode": "43290",
"Location": {
"Latitude": 45.7349,
"Longitude": 17.2182
}
},
{
"Name": "Mala Dapčevica",
"PostCode": "43290",
"Location": {
"Latitude": 45.7167,
"Longitude": 17.3
}
},
{
"Name": "Mala Jasenovača",
"PostCode": "43290",
"Location": {
"Latitude": 45.7081,
"Longitude": 17.2198
}
},
{
"Name": "Mala Peratovica",
"PostCode": "43290",
"Location": {
"Latitude": 45.7167,
"Longitude": 17.2314
}
},
{
"Name": "Mali Zdenci",
"PostCode": "43290",
"Location": {
"Latitude": 45.6831,
"Longitude": 17.1314
}
},
{
"Name": "Munije",
"PostCode": "43290",
"Location": {
"Latitude": 45.6802,
"Longitude": 17.2939
}
},
{
"Name": "Orlovac Zdenački",
"PostCode": "43290",
"Location": {
"Latitude": 45.7081,
"Longitude": 17.2198
}
},
{
"Name": "Poljani",
"PostCode": "43290",
"Location": {
"Latitude": 45.7081,
"Longitude": 17.2198
}
},
{
"Name": "Rastovac",
"PostCode": "43290",
"Location": {
"Latitude": 45.6828,
"Longitude": 17.2781
}
},
{
"Name": "Treglava",
"PostCode": "43290",
"Location": {
"Latitude": 45.7081,
"Longitude": 17.2198
}
},
{
"Name": "Turčević Polje",
"PostCode": "43290",
"Location": {
"Latitude": 45.7056,
"Longitude": 17.3326
}
},
{
"Name": "Velika Barna",
"PostCode": "43290",
"Location": {
"Latitude": 45.7349,
"Longitude": 17.1398
}
},
{
"Name": "Velika Dapčevica",
"PostCode": "43290",
"Location": {
"Latitude": 45.7197,
"Longitude": 17.2656
}
},
{
"Name": "Velika Jasenovača",
"PostCode": "43290",
"Location": {
"Latitude": 45.7333,
"Longitude": 17.1
}
},
{
"Name": "Velika Peratovica",
"PostCode": "43290",
"Location": {
"Latitude": 45.7656,
"Longitude": 17.2608
}
},
{
"Name": "Veliki Zdenci",
"PostCode": "43290",
"Location": {
"Latitude": 45.6733,
"Longitude": 17.1092
}
}
],
"PostCode": "43290"
},
{
"Name": "Daruvar",
"Places": [
{
"Name": "Barica",
"PostCode": "43500",
"Location": {
"Latitude": 45.5167,
"Longitude": 17.2667
}
},
{
"Name": "Bastajski Brđani",
"PostCode": "43500",
"Location": {
"Latitude": 45.6667,
"Longitude": 17.3667
}
},
{
"Name": "Batinjani",
"PostCode": "43500",
"Location": {
"Latitude": 45.6167,
"Longitude": 17.25
}
},
{
"Name": "Batinjska Rijeka",
"PostCode": "43500",
"Location": {
"Latitude": 45.6058,
"Longitude": 17.2504
}
},
{
"Name": "Bijela",
"PostCode": "43500",
"Location": {
"Latitude": 45.5565,
"Longitude": 17.2966
}
},
{
"Name": "Boriš",
"PostCode": "43500",
"Location": {
"Latitude": 45.6058,
"Longitude": 17.2504
}
},
{
"Name": "Borova Kosa",
"PostCode": "43500",
"Location": {
"Latitude": 45.6506,
"Longitude": 17.2525
}
},
{
"Name": "Brestovačka Brda",
"PostCode": "43500",
"Location": {
"Latitude": 45.6058,
"Longitude": 17.2504
}
},
{
"Name": "Daruvar",
"PostCode": "43500",
"Location": {
"Latitude": 45.5906,
"Longitude": 17.225
}
},
{
"Name": "Daruvarski Brestovac",
"PostCode": "43500",
"Location": {
"Latitude": 45.6178,
"Longitude": 17.1256
}
},
{
"Name": "Daruvarski Vinogradi",
"PostCode": "43500",
"Location": {
"Latitude": 45.6058,
"Longitude": 17.2504
}
},
{
"Name": "Dežanovac",
"PostCode": "43500",
"Location": {
"Latitude": 45.5706,
"Longitude": 17.0867
}
},
{
"Name": "Dioš",
"PostCode": "43500",
"Location": {
"Latitude": 45.6058,
"Longitude": 17.2504
}
},
{
"Name": "Dobra Kuća",
"PostCode": "43500",
"Location": {
"Latitude": 45.6058,
"Longitude": 17.2504
}
},
{
"Name": "Doljani",
"PostCode": "43500",
"Location": {
"Latitude": 45.5675,
"Longitude": 17.2253
}
},
{
"Name": "Donja Vrijeska",
"PostCode": "43500",
"Location": {
"Latitude": 45.645,
"Longitude": 17.2692
}
},
{
"Name": "Donje Cjepidlake",
"PostCode": "43500",
"Location": {
"Latitude": 45.6863,
"Longitude": 17.3965
}
},
{
"Name": "Donji Borki",
"PostCode": "43500",
"Location": {
"Latitude": 45.5666,
"Longitude": 17.3177
}
},
{
"Name": "Donji Daruvar",
"PostCode": "43500",
"Location": {
"Latitude": 45.6136,
"Longitude": 17.2308
}
},
{
"Name": "Donji Sređani",
"PostCode": "43500",
"Location": {
"Latitude": 45.5333,
"Longitude": 17.15
}
},
{
"Name": "Drlež",
"PostCode": "43500",
"Location": {
"Latitude": 45.5508,
"Longitude": 17.1392
}
},
{
"Name": "Đulovac",
"PostCode": "43500",
"Location": {
"Latitude": 45.6058,
"Longitude": 17.2504
}
},
{
"Name": "Golubinjak",
"PostCode": "43500",
"Location": {
"Latitude": 45.5631,
"Longitude": 17.1528
}
},
{
"Name": "Gornja Vrijeska",
"PostCode": "43500",
"Location": {
"Latitude": 45.6247,
"Longitude": 17.2872
}
},
{
"Name": "Gornje Cjepidlake",
"PostCode": "43500",
"Location": {
"Latitude": 45.7,
"Longitude": 17.4333
}
},
{
"Name": "Gornji Borki",
"PostCode": "43500",
"Location": {
"Latitude": 45.5667,
"Longitude": 17.3744
}
},
{
"Name": "Gornji Daruvar",
"PostCode": "43500",
"Location": {
"Latitude": 45.5936,
"Longitude": 17.1872
}
},
{
"Name": "Gornji Sređani",
"PostCode": "43500",
"Location": {
"Latitude": 45.5286,
"Longitude": 17.1631
}
},
{
"Name": "Goveđe Polje",
"PostCode": "43500",
"Location": {
"Latitude": 45.5211,
"Longitude": 17.0908
}
},
{
"Name": "Imsovac",
"PostCode": "43500",
"Location": {
"Latitude": 45.6006,
"Longitude": 17.0558
}
},
{
"Name": "Ivanovo Polje",
"PostCode": "43500",
"Location": {
"Latitude": 45.5883,
"Longitude": 17.14
}
},
{
"Name": "Kaštel Dežanovački",
"PostCode": "43500",
"Location": {
"Latitude": 45.55,
"Longitude": 17.1
}
},
{
"Name": "Katinac",
"PostCode": "43500",
"Location": {
"Latitude": 45.6058,
"Longitude": 17.2504
}
},
{
"Name": "Kip",
"PostCode": "43500",
"Location": {
"Latitude": 45.5425,
"Longitude": 17.195
}
},
{
"Name": "Končanica",
"PostCode": "43500",
"Location": {
"Latitude": 45.6361,
"Longitude": 17.1664
}
},
{
"Name": "Koreničani",
"PostCode": "43500",
"Location": {
"Latitude": 45.6475,
"Longitude": 17.3619
}
},
{
"Name": "Kreštelovac",
"PostCode": "43500",
"Location": {
"Latitude": 45.5806,
"Longitude": 17.0325
}
},
{
"Name": "Lipovac Majur",
"PostCode": "43500",
"Location": {
"Latitude": 45.6058,
"Longitude": 17.2504
}
},
{
"Name": "Ljudevit Selo",
"PostCode": "43500",
"Location": {
"Latitude": 45.6,
"Longitude": 17.2
}
},
{
"Name": "Mala Babina Gora",
"PostCode": "43500",
"Location": {
"Latitude": 45.7064,
"Longitude": 17.4361
}
},
{
"Name": "Mali Bastaji",
"PostCode": "43500",
"Location": {
"Latitude": 45.65,
"Longitude": 17.3167
}
},
{
"Name": "Mali Miletinac",
"PostCode": "43500",
"Location": {
"Latitude": 45.6833,
"Longitude": 17.3667
}
},
{
"Name": "Markovac",
"PostCode": "43500",
"Location": {
"Latitude": 45.5786,
"Longitude": 17.2821
}
},
{
"Name": "Maslenjača",
"PostCode": "43500",
"Location": {
"Latitude": 45.6058,
"Longitude": 17.2504
}
},
{
"Name": "Miljanovac",
"PostCode": "43500",
"Location": {
"Latitude": 45.5333,
"Longitude": 17.2167
}
},
{
"Name": "Nova Krivaja",
"PostCode": "43500",
"Location": {
"Latitude": 45.65,
"Longitude": 17.45
}
},
{
"Name": "Otkopi",
"PostCode": "43500",
"Location": {
"Latitude": 45.6058,
"Longitude": 17.2504
}
},
{
"Name": "Pakrani",
"PostCode": "43500",
"Location": {
"Latitude": 45.55,
"Longitude": 17.2833
}
},
{
"Name": "Potočani",
"PostCode": "43500",
"Location": {
"Latitude": 45.65,
"Longitude": 17.4
}
},
{
"Name": "Puklica",
"PostCode": "43500",
"Location": {
"Latitude": 45.6567,
"Longitude": 17.4311
}
},
{
"Name": "Removac",
"PostCode": "43500",
"Location": {
"Latitude": 45.7094,
"Longitude": 17.4131
}
},
{
"Name": "Šibovac",
"PostCode": "43500",
"Location": {
"Latitude": 45.5689,
"Longitude": 17.1978
}
},
{
"Name": "Sirač",
"PostCode": "43500",
"Location": {
"Latitude": 45.5233,
"Longitude": 17.255
}
},
{
"Name": "Škodinovac",
"PostCode": "43500",
"Location": {
"Latitude": 45.6058,
"Longitude": 17.2504
}
},
{
"Name": "Sokolovac",
"PostCode": "43500",
"Location": {
"Latitude": 45.5833,
"Longitude": 17.0333
}
},
{
"Name": "Stara Krivaja",
"PostCode": "43500",
"Location": {
"Latitude": 45.6058,
"Longitude": 17.2504
}
},
{
"Name": "Stražanac",
"PostCode": "43500",
"Location": {
"Latitude": 45.6058,
"Longitude": 17.2504
}
},
{
"Name": "Šuplja Lipa",
"PostCode": "43500",
"Location": {
"Latitude": 45.6472,
"Longitude": 17.2253
}
},
{
"Name": "Trojeglava",
"PostCode": "43500",
"Location": {
"Latitude": 45.6854,
"Longitude": 17.2468
}
},
{
"Name": "Veliki Bastaji",
"PostCode": "43500",
"Location": {
"Latitude": 45.6453,
"Longitude": 17.3283
}
},
{
"Name": "Veliki Miletinac",
"PostCode": "43500",
"Location": {
"Latitude": 45.6833,
"Longitude": 17.3333
}
},
{
"Name": "Vrbovac",
"PostCode": "43500",
"Location": {
"Latitude": 45.5833,
"Longitude": 17.2667
}
},
{
"Name": "Vukovije",
"PostCode": "43500",
"Location": {
"Latitude": 45.6058,
"Longitude": 17.2504
}
}
],
"PostCode": "43500"
}
]
}
]
},
{
"Name": "Brodsko-Posavska",
"Code": "02",
"Provinces": [
{
"Communities": [
{
"Name": "Slavonski Brod",
"Places": [
{
"Name": "Banovci",
"PostCode": "35000",
"Location": {
"Latitude": 45.0822,
"Longitude": 17.8381
}
},
{
"Name": "Bebrina",
"PostCode": "35000",
"Location": {
"Latitude": 45.0983,
"Longitude": 17.8342
}
},
{
"Name": "Brodski Varoš",
"PostCode": "35000",
"Location": {
"Latitude": 45.1811,
"Longitude": 17.9786
}
},
{
"Name": "Brodski Zdenci",
"PostCode": "35000",
"Location": {
"Latitude": 45.26,
"Longitude": 17.9475
}
},
{
"Name": "Bukovlje",
"PostCode": "35000",
"Location": {
"Latitude": 45.1853,
"Longitude": 18.07
}
},
{
"Name": "Crni Potok",
"PostCode": "35000",
"Location": {
"Latitude": 45.2478,
"Longitude": 18.0692
}
},
{
"Name": "Donja Bebrina",
"PostCode": "35000",
"Location": {
"Latitude": 45.0967,
"Longitude": 18.1833
}
},
{
"Name": "Donja Vrba",
"PostCode": "35000",
"Location": {
"Latitude": 45.1658,
"Longitude": 18.1067
}
},
{
"Name": "Donji Slatinik",
"PostCode": "35000",
"Location": {
"Latitude": 45.2542,
"Longitude": 17.9908
}
},
{
"Name": "Dubočac",
"PostCode": "35000",
"Location": {
"Latitude": 45.0525,
"Longitude": 17.8658
}
},
{
"Name": "Dubovik",
"PostCode": "35000",
"Location": {
"Latitude": 45.2561,
"Longitude": 18.0111
}
},
{
"Name": "Glogovica",
"PostCode": "35000",
"Location": {
"Latitude": 45.2319,
"Longitude": 17.9739
}
},
{
"Name": "Gornja Bebrina",
"PostCode": "35000",
"Location": {
"Latitude": 45.1119,
"Longitude": 18.11
}
},
{
"Name": "Gornja Vrba",
"PostCode": "35000",
"Location": {
"Latitude": 45.1553,
"Longitude": 18.0656
}
},
{
"Name": "Gornji Slatinik",
"PostCode": "35000",
"Location": {
"Latitude": 45.2631,
"Longitude": 17.9781
}
},
{
"Name": "Grabarje",
"PostCode": "35000",
"Location": {
"Latitude": 45.2175,
"Longitude": 18.0289
}
},
{
"Name": "Ježevik",
"PostCode": "35000",
"Location": {
"Latitude": 45.2119,
"Longitude": 18.075
}
},
{
"Name": "Kaniža",
"PostCode": "35000",
"Location": {
"Latitude": 45.1081,
"Longitude": 17.8861
}
},
{
"Name": "Kindrovo",
"PostCode": "35000",
"Location": {
"Latitude": 45.2344,
"Longitude": 18.0453
}
},
{
"Name": "Klakar",
"PostCode": "35000",
"Location": {
"Latitude": 45.0986,
"Longitude": 18.1322
}
},
{
"Name": "Matković Mala",
"PostCode": "35000",
"Location": {
"Latitude": 45.2614,
"Longitude": 18.0231
}
},
{
"Name": "Oriovčić",
"PostCode": "35000",
"Location": {
"Latitude": 45.2528,
"Longitude": 18.0294
}
},
{
"Name": "Podcrkavlje",
"PostCode": "35000",
"Location": {
"Latitude": 45.2239,
"Longitude": 18.01
}
},
{
"Name": "Podvinje",
"PostCode": "35000",
"Location": {
"Latitude": 45.1903,
"Longitude": 18.0269
}
},
{
"Name": "Rastušje",
"PostCode": "35000",
"Location": {
"Latitude": 45.2047,
"Longitude": 18.0336
}
},
{
"Name": "Ruščica",
"PostCode": "35000",
"Location": {
"Latitude": 45.1467,
"Longitude": 18.0794
}
},
{
"Name": "Slavonski Brod",
"PostCode": "35000",
"Location": {
"Latitude": 45.1603,
"Longitude": 18.0156
}
},
{
"Name": "Stupnički Kuti",
"PostCode": "35000",
"Location": {
"Latitude": 45.1214,
"Longitude": 17.8147
}
},
{
"Name": "Šumeće",
"PostCode": "35000",
"Location": {
"Latitude": 45.0761,
"Longitude": 17.8775
}
},
{
"Name": "Tomica",
"PostCode": "35000",
"Location": {
"Latitude": 45.1961,
"Longitude": 18.0431
}
},
{
"Name": "Vranovci",
"PostCode": "35000",
"Location": {
"Latitude": 45.1842,
"Longitude": 18.0906
}
},
{
"Name": "Zbjeg",
"PostCode": "35000",
"Location": {
"Latitude": 45.0733,
"Longitude": 17.8986
}
}
],
"PostCode": "35000"
},
{
"Name": "Garčin",
"Places": [
{
"Name": "Bicko Selo",
"PostCode": "35212",
"Location": {
"Latitude": 45.1669,
"Longitude": 18.1914
}
},
{
"Name": "Garčin",
"PostCode": "35212",
"Location": {
"Latitude": 45.1828,
"Longitude": 18.1831
}
},
{
"Name": "Klokočevik",
"PostCode": "35212",
"Location": {
"Latitude": 45.2197,
"Longitude": 18.1503
}
},
{
"Name": "Korduševci",
"PostCode": "35212",
"Location": {
"Latitude": 45.2203,
"Longitude": 18.0903
}
},
{
"Name": "Oprisavci",
"PostCode": "35212",
"Location": {
"Latitude": 45.1511,
"Longitude": 18.2297
}
},
{
"Name": "Poljanci",
"PostCode": "35212",
"Location": {
"Latitude": 45.1306,
"Longitude": 18.1961
}
},
{
"Name": "Selna",
"PostCode": "35212",
"Location": {
"Latitude": 45.185,
"Longitude": 18.1581
}
},
{
"Name": "Šušnjevci",
"PostCode": "35212",
"Location": {
"Latitude": 45.2092,
"Longitude": 18.1044
}
},
{
"Name": "Trnjani",
"PostCode": "35212",
"Location": {
"Latitude": 45.1875,
"Longitude": 18.1422
}
},
{
"Name": "Trnjanski Kuti",
"PostCode": "35212",
"Location": {
"Latitude": 45.125,
"Longitude": 18.1631
}
},
{
"Name": "Vrhovina",
"PostCode": "35212",
"Location": {
"Latitude": 45.2297,
"Longitude": 18.1147
}
},
{
"Name": "Zadubravlje",
"PostCode": "35212",
"Location": {
"Latitude": 45.1636,
"Longitude": 18.1544
}
}
],
"PostCode": "35212"
},
{
"Name": "Donji Andrijevci",
"Places": [
{
"Name": "Čajkovci",
"PostCode": "35214",
"Location": {
"Latitude": 45.195,
"Longitude": 18.3647
}
},
{
"Name": "Divoševci",
"PostCode": "35214",
"Location": {
"Latitude": 45.1572,
"Longitude": 18.3411
}
},
{
"Name": "Donji Andrijevci",
"PostCode": "35214",
"Location": {
"Latitude": 45.1883,
"Longitude": 18.2997
}
},
{
"Name": "Kupina",
"PostCode": "35214",
"Location": {
"Latitude": 45.1375,
"Longitude": 18.3386
}
},
{
"Name": "Mala Kopanica",
"PostCode": "35214",
"Location": {
"Latitude": 45.1464,
"Longitude": 18.37
}
},
{
"Name": "Novi Grad",
"PostCode": "35214",
"Location": {
"Latitude": 45.1665,
"Longitude": 18.3192
}
},
{
"Name": "Novo Topolje",
"PostCode": "35214",
"Location": {
"Latitude": 45.2083,
"Longitude": 18.2408
}
},
{
"Name": "Prnjavor",
"PostCode": "35214",
"Location": {
"Latitude": 45.1264,
"Longitude": 18.3428
}
},
{
"Name": "Sapci",
"PostCode": "35214",
"Location": {
"Latitude": 45.1792,
"Longitude": 18.2067
}
},
{
"Name": "Sredanci",
"PostCode": "35214",
"Location": {
"Latitude": 45.155,
"Longitude": 18.285
}
},
{
"Name": "Stari Perkovci",
"PostCode": "35214",
"Location": {
"Latitude": 45.2175,
"Longitude": 18.3486
}
},
{
"Name": "Staro Topolje",
"PostCode": "35214",
"Location": {
"Latitude": 45.19,
"Longitude": 18.2478
}
},
{
"Name": "Stružani",
"PostCode": "35214",
"Location": {
"Latitude": 45.1406,
"Longitude": 18.3047
}
},
{
"Name": "Svilaj",
"PostCode": "35214",
"Location": {
"Latitude": 45.1244,
"Longitude": 18.2978
}
},
{
"Name": "Velika Kopanica",
"PostCode": "35214",
"Location": {
"Latitude": 45.1561,
"Longitude": 18.3931
}
},
{
"Name": "Vrpolje",
"PostCode": "35214",
"Location": {
"Latitude": 45.2106,
"Longitude": 18.4056
}
},
{
"Name": "Zoljani",
"PostCode": "35214",
"Location": {
"Latitude": 45.1319,
"Longitude": 18.32
}
}
],
"PostCode": "35214"
},
{
"Name": "Slavonski Šamac",
"Places": [
{
"Name": "Kruševica",
"PostCode": "35220",
"Location": {
"Latitude": 45.0775,
"Longitude": 18.4828
}
},
{
"Name": "Slavonski Šamac",
"PostCode": "35220",
"Location": {
"Latitude": 45.0667,
"Longitude": 18.4889
}
}
],
"PostCode": "35220"
},
{
"Name": "Gundinci",
"Places": [
{
"Name": "Beravci",
"PostCode": "35222",
"Location": {
"Latitude": 45.1514,
"Longitude": 18.4303
}
},
{
"Name": "Gundinci",
"PostCode": "35222",
"Location": {
"Latitude": 45.1583,
"Longitude": 18.4914
}
},
{
"Name": "Jaruge",
"PostCode": "35222",
"Location": {
"Latitude": 45.1158,
"Longitude": 18.4203
}
},
{
"Name": "Sikirevci",
"PostCode": "35222",
"Location": {
"Latitude": 45.1089,
"Longitude": 18.4644
}
}
],
"PostCode": "35222"
},
{
"Name": "Oriovac",
"Places": [
{
"Name": "Bečic",
"PostCode": "35250",
"Location": {
"Latitude": 45.1919,
"Longitude": 17.7075
}
},
{
"Name": "Ciglenik",
"PostCode": "35250",
"Location": {
"Latitude": 45.1833,
"Longitude": 17.7
}
},
{
"Name": "Kujnik",
"PostCode": "35250",
"Location": {
"Latitude": 45.1714,
"Longitude": 17.7339
}
},
{
"Name": "Lužani",
"PostCode": "35250",
"Location": {
"Latitude": 45.1681,
"Longitude": 17.7069
}
},
{
"Name": "Malino",
"PostCode": "35250",
"Location": {
"Latitude": 45.1717,
"Longitude": 17.7231
}
},
{
"Name": "Oriovac",
"PostCode": "35250",
"Location": {
"Latitude": 45.1661,
"Longitude": 17.76
}
},
{
"Name": "Pričac",
"PostCode": "35250",
"Location": {
"Latitude": 45.1361,
"Longitude": 17.6742
}
},
{
"Name": "Radovanje",
"PostCode": "35250",
"Location": {
"Latitude": 45.1592,
"Longitude": 17.7764
}
},
{
"Name": "Slavonski Kobaš",
"PostCode": "35250",
"Location": {
"Latitude": 45.1064,
"Longitude": 17.7456
}
},
{
"Name": "Živike",
"PostCode": "35250",
"Location": {
"Latitude": 45.1514,
"Longitude": 17.6756
}
}
],
"PostCode": "35250"
},
{
"Name": "Sibinj",
"Places": [
{
"Name": "Bartolovci",
"PostCode": "35252",
"Location": {
"Latitude": 45.1828,
"Longitude": 17.9308
}
},
{
"Name": "Brčino",
"PostCode": "35252",
"Location": {
"Latitude": 45.2586,
"Longitude": 17.8969
}
},
{
"Name": "Brđani",
"PostCode": "35252",
"Location": {
"Latitude": 45.2442,
"Longitude": 18.1081
}
},
{
"Name": "Brodski Stupnik",
"PostCode": "35252",
"Location": {
"Latitude": 45.1678,
"Longitude": 17.8036
}
},
{
"Name": "Čelikovići",
"PostCode": "35252",
"Location": {
"Latitude": 45.2403,
"Longitude": 17.8883
}
},
{
"Name": "Gornji Andrijevci",
"PostCode": "35252",
"Location": {
"Latitude": 45.1836,
"Longitude": 17.8828
}
},
{
"Name": "Grgurevići",
"PostCode": "35252",
"Location": {
"Latitude": 45.2358,
"Longitude": 17.8811
}
},
{
"Name": "Grižići",
"PostCode": "35252",
"Location": {
"Latitude": 45.2236,
"Longitude": 17.8531
}
},
{
"Name": "Gromačnik",
"PostCode": "35252",
"Location": {
"Latitude": 45.1794,
"Longitude": 17.9575
}
},
{
"Name": "Jakačina Mala",
"PostCode": "35252",
"Location": {
"Latitude": 45.2256,
"Longitude": 17.8722
}
},
{
"Name": "Krajačići",
"PostCode": "35252",
"Location": {
"Latitude": 45.2058,
"Longitude": 17.8453
}
},
{
"Name": "Lovčić",
"PostCode": "35252",
"Location": {
"Latitude": 45.2047,
"Longitude": 17.8022
}
},
{
"Name": "Ravan",
"PostCode": "35252",
"Location": {
"Latitude": 45.2511,
"Longitude": 17.8797
}
},
{
"Name": "Sibinj",
"PostCode": "35252",
"Location": {
"Latitude": 45.1917,
"Longitude": 17.9081
}
},
{
"Name": "Slobodnica",
"PostCode": "35252",
"Location": {
"Latitude": 45.1622,
"Longitude": 17.9328
}
},
{
"Name": "Stari Slatinik",
"PostCode": "35252",
"Location": {
"Latitude": 45.1786,
"Longitude": 17.8472
}
},
{
"Name": "Završje",
"PostCode": "35252",
"Location": {
"Latitude": 45.1939,
"Longitude": 17.925
}
}
],
"PostCode": "35252"
},
{
"Name": "Nova Gradiška",
"Places": [
{
"Name": "Baćin Dol",
"PostCode": "35400",
"Location": {
"Latitude": 45.3092,
"Longitude": 17.4328
}
},
{
"Name": "Banićevac",
"PostCode": "35400",
"Location": {
"Latitude": 45.3333,
"Longitude": 17.4667
}
},
{
"Name": "Bukovica",
"PostCode": "35400",
"Location": {
"Latitude": 45.2466,
"Longitude": 17.3752
}
},
{
"Name": "Cernik",
"PostCode": "35400",
"Location": {
"Latitude": 45.2886,
"Longitude": 17.3819
}
},
{
"Name": "Davor",
"PostCode": "35400",
"Location": {
"Latitude": 45.1153,
"Longitude": 17.5164
}
},
{
"Name": "Dolina",
"PostCode": "35400",
"Location": {
"Latitude": 45.1431,
"Longitude": 17.3875
}
},
{
"Name": "Donji Bogićevci",
"PostCode": "35400",
"Location": {
"Latitude": 45.2283,
"Longitude": 17.2583
}
},
{
"Name": "Dragalić",
"PostCode": "35400",
"Location": {
"Latitude": 45.2442,
"Longitude": 17.2886
}
},
{
"Name": "Giletinci",
"PostCode": "35400",
"Location": {
"Latitude": 45.3103,
"Longitude": 17.3647
}
},
{
"Name": "Golobrdac",
"PostCode": "35400",
"Location": {
"Latitude": 45.2466,
"Longitude": 17.3752
}
},
{
"Name": "Gorice",
"PostCode": "35400",
"Location": {
"Latitude": 45.2158,
"Longitude": 17.2958
}
},
{
"Name": "Kovačevac",
"PostCode": "35400",
"Location": {
"Latitude": 45.2667,
"Longitude": 17.3667
}
},
{
"Name": "Ljupina",
"PostCode": "35400",
"Location": {
"Latitude": 45.2175,
"Longitude": 17.3828
}
},
{
"Name": "Mačkovac",
"PostCode": "35400",
"Location": {
"Latitude": 45.1536,
"Longitude": 17.3378
}
},
{
"Name": "Mašić",
"PostCode": "35400",
"Location": {
"Latitude": 45.2664,
"Longitude": 17.3289
}
},
{
"Name": "Medari",
"PostCode": "35400",
"Location": {
"Latitude": 45.2672,
"Longitude": 17.29
}
},
{
"Name": "Nova Gradiška",
"PostCode": "35400",
"Location": {
"Latitude": 45.255,
"Longitude": 17.3831
}
},
{
"Name": "Opatovac",
"PostCode": "35400",
"Location": {
"Latitude": 45.3333,
"Longitude": 17.4347
}
},
{
"Name": "Opršinac",
"PostCode": "35400",
"Location": {
"Latitude": 45.2466,
"Longitude": 17.3752
}
},
{
"Name": "Orubica",
"PostCode": "35400",
"Location": {
"Latitude": 45.1478,
"Longitude": 17.4589
}
},
{
"Name": "Podvrško",
"PostCode": "35400",
"Location": {
"Latitude": 45.3628,
"Longitude": 17.4275
}
},
{
"Name": "Poljane",
"PostCode": "35400",
"Location": {
"Latitude": 45.2389,
"Longitude": 17.3114
}
},
{
"Name": "Prvča",
"PostCode": "35400",
"Location": {
"Latitude": 45.2436,
"Longitude": 17.3592
}
},
{
"Name": "Rešetari",
"PostCode": "35400",
"Location": {
"Latitude": 45.2623,
"Longitude": 17.4235
}
},
{
"Name": "Šagovina Cernička",
"PostCode": "35400",
"Location": {
"Latitude": 45.3161,
"Longitude": 17.3239
}
},
{
"Name": "Savski Bok",
"PostCode": "35400",
"Location": {
"Latitude": 45.2466,
"Longitude": 17.3752
}
},
{
"Name": "Sičice",
"PostCode": "35400",
"Location": {
"Latitude": 45.1836,
"Longitude": 17.3886
}
},
{
"Name": "Sinlije",
"PostCode": "35400",
"Location": {
"Latitude": 45.2466,
"Longitude": 17.3752
}
},
{
"Name": "Šumetlica",
"PostCode": "35400",
"Location": {
"Latitude": 45.3208,
"Longitude": 17.3958
}
},
{
"Name": "Visoka Greda",
"PostCode": "35400",
"Location": {
"Latitude": 45.2006,
"Longitude": 17.3314
}
},
{
"Name": "Vrbje",
"PostCode": "35400",
"Location": {
"Latitude": 45.1875,
"Longitude": 17.4192
}
}
],
"PostCode": "35400"
},
{
"Name": "Nova Kapela",
"Places": [
{
"Name": "Batrina",
"PostCode": "35410",
"Location": {
"Latitude": 45.1894,
"Longitude": 17.6664
}
},
{
"Name": "Bili Brig",
"PostCode": "35410",
"Location": {
"Latitude": 45.2106,
"Longitude": 17.6147
}
},
{
"Name": "Donji Lipovac",
"PostCode": "35410",
"Location": {
"Latitude": 45.2206,
"Longitude": 17.6544
}
},
{
"Name": "Dragovci",
"PostCode": "35410",
"Location": {
"Latitude": 45.2189,
"Longitude": 17.705
}
},
{
"Name": "Gornji Lipovac",
"PostCode": "35410",
"Location": {
"Latitude": 45.2564,
"Longitude": 17.6628
}
},
{
"Name": "Magić Mala",
"PostCode": "35410",
"Location": {
"Latitude": 45.1739,
"Longitude": 17.6086
}
},
{
"Name": "Nova Kapela",
"PostCode": "35410",
"Location": {
"Latitude": 45.1989,
"Longitude": 17.6392
}
},
{
"Name": "Pavlovci",
"PostCode": "35410",
"Location": {
"Latitude": 45.2486,
"Longitude": 17.6847
}
},
{
"Name": "Seoce",
"PostCode": "35410",
"Location": {
"Latitude": 45.1736,
"Longitude": 17.6444
}
},
{
"Name": "Siče",
"PostCode": "35410",
"Location": {
"Latitude": 45.1608,
"Longitude": 17.6206
}
},
{
"Name": "Srednji Lipovac",
"PostCode": "35410",
"Location": {
"Latitude": 45.25,
"Longitude": 17.64
}
},
{
"Name": "Stara Kapela",
"PostCode": "35410",
"Location": {
"Latitude": 45.2364,
"Longitude": 17.6878
}
}
],
"PostCode": "35410"
},
{
"Name": "Staro Petrovo Selo",
"Places": [
{
"Name": "Adžamovci",
"PostCode": "35420",
"Location": {
"Latitude": 45.2478,
"Longitude": 17.465
}
},
{
"Name": "Blažević Dol",
"PostCode": "35420",
"Location": {
"Latitude": 45.2327,
"Longitude": 17.5024
}
},
{
"Name": "Bodovaljci",
"PostCode": "35420",
"Location": {
"Latitude": 45.1983,
"Longitude": 17.4439
}
},
{
"Name": "Brđani",
"PostCode": "35420",
"Location": {
"Latitude": 45.2544,
"Longitude": 17.4756
}
},
{
"Name": "Donji Crnogovci",
"PostCode": "35420",
"Location": {
"Latitude": 45.2053,
"Longitude": 17.4814
}
},
{
"Name": "Drežnik",
"PostCode": "35420",
"Location": {
"Latitude": 45.2944,
"Longitude": 17.4656
}
},
{
"Name": "Godinjak",
"PostCode": "35420",
"Location": {
"Latitude": 45.2369,
"Longitude": 17.4958
}
},
{
"Name": "Gornji Crnogovci",
"PostCode": "35420",
"Location": {
"Latitude": 45.2136,
"Longitude": 17.4922
}
},
{
"Name": "Gunjavci",
"PostCode": "35420",
"Location": {
"Latitude": 45.2756,
"Longitude": 17.4664
}
},
{
"Name": "Komarnica",
"PostCode": "35420",
"Location": {
"Latitude": 45.1839,
"Longitude": 17.5681
}
},
{
"Name": "Laze",
"PostCode": "35420",
"Location": {
"Latitude": 45.2053,
"Longitude": 17.4683
}
},
{
"Name": "Oštri Vrh",
"PostCode": "35420",
"Location": {
"Latitude": 45.2444,
"Longitude": 17.5231
}
},
{
"Name": "Starci",
"PostCode": "35420",
"Location": {
"Latitude": 45.2467,
"Longitude": 17.5494
}
},
{
"Name": "Staro Petrovo Selo",
"PostCode": "35420",
"Location": {
"Latitude": 45.2308,
"Longitude": 17.5203
}
},
{
"Name": "Štivica",
"PostCode": "35420",
"Location": {
"Latitude": 45.1839,
"Longitude": 17.5408
}
},
{
"Name": "Tisovac",
"PostCode": "35420",
"Location": {
"Latitude": 45.2581,
"Longitude": 17.5128
}
},
{
"Name": "Vladisovo",
"PostCode": "35420",
"Location": {
"Latitude": 45.2594,
"Longitude": 17.5353
}
},
{
"Name": "Vrbova",
"PostCode": "35420",
"Location": {
"Latitude": 45.2186,
"Longitude": 17.5778
}
},
{
"Name": "Zapolje",
"PostCode": "35420",
"Location": {
"Latitude": 45.2317,
"Longitude": 17.4617
}
}
],
"PostCode": "35420"
},
{
"Name": "Okučani",
"Places": [
{
"Name": "Benkovac",
"PostCode": "35430",
"Location": {
"Latitude": 45.3083,
"Longitude": 17.2031
}
},
{
"Name": "Bijela Stijena",
"PostCode": "35430",
"Location": {
"Latitude": 45.3433,
"Longitude": 17.1929
}
},
{
"Name": "Bobare",
"PostCode": "35430",
"Location": {
"Latitude": 45.2619,
"Longitude": 17.2171
}
},
{
"Name": "Bodegraj",
"PostCode": "35430",
"Location": {
"Latitude": 45.2619,
"Longitude": 17.2171
}
},
{
"Name": "Cage",
"PostCode": "35430",
"Location": {
"Latitude": 45.2906,
"Longitude": 17.2108
}
},
{
"Name": "Čaprginci",
"PostCode": "35430",
"Location": {
"Latitude": 45.3167,
"Longitude": 17.2167
}
},
{
"Name": "Čovac",
"PostCode": "35430",
"Location": {
"Latitude": 45.2356,
"Longitude": 17.1714
}
},
{
"Name": "Donji Rogolji",
"PostCode": "35430",
"Location": {
"Latitude": 45.3594,
"Longitude": 17.2189
}
},
{
"Name": "Donji Varoš",
"PostCode": "35430",
"Location": {
"Latitude": 45.1553,
"Longitude": 17.2525
}
},
{
"Name": "Dubovac",
"PostCode": "35430",
"Location": {
"Latitude": 45.2411,
"Longitude": 17.205
}
},
{
"Name": "Gornji Bogićevci",
"PostCode": "35430",
"Location": {
"Latitude": 45.2594,
"Longitude": 17.2361
}
},
{
"Name": "Gornji Rogolji",
"PostCode": "35430",
"Location": {
"Latitude": 45.3667,
"Longitude": 17.2167
}
},
{
"Name": "Gornji Varoš",
"PostCode": "35430",
"Location": {
"Latitude": 45.1533,
"Longitude": 17.2133
}
},
{
"Name": "Gređani",
"PostCode": "35430",
"Location": {
"Latitude": 45.2106,
"Longitude": 17.1775
}
},
{
"Name": "Kosovac",
"PostCode": "35430",
"Location": {
"Latitude": 45.2619,
"Longitude": 17.2171
}
},
{
"Name": "Lađevac",
"PostCode": "35430",
"Location": {
"Latitude": 45.2719,
"Longitude": 17.1731
}
},
{
"Name": "Lještani",
"PostCode": "35430",
"Location": {
"Latitude": 45.2619,
"Longitude": 17.2171
}
},
{
"Name": "Novi Varoš",
"PostCode": "35430",
"Location": {
"Latitude": 45.1947,
"Longitude": 17.2158
}
},
{
"Name": "Okučani",
"PostCode": "35430",
"Location": {
"Latitude": 45.2603,
"Longitude": 17.1992
}
},
{
"Name": "Pivare",
"PostCode": "35430",
"Location": {
"Latitude": 45.1947,
"Longitude": 17.2589
}
},
{
"Name": "Ratkovac",
"PostCode": "35430",
"Location": {
"Latitude": 45.2619,
"Longitude": 17.2171
}
},
{
"Name": "Šagovina Mašićka",
"PostCode": "35430",
"Location": {
"Latitude": 45.2619,
"Longitude": 17.2171
}
},
{
"Name": "Širinci",
"PostCode": "35430",
"Location": {
"Latitude": 45.3242,
"Longitude": 17.2544
}
},
{
"Name": "Smrtić",
"PostCode": "35430",
"Location": {
"Latitude": 45.2814,
"Longitude": 17.2567
}
},
{
"Name": "Stara Gradiška",
"PostCode": "35430",
"Location": {
"Latitude": 45.1486,
"Longitude": 17.2467
}
},
{
"Name": "Trnakovac",
"PostCode": "35430",
"Location": {
"Latitude": 45.3239,
"Longitude": 17.2039
}
},
{
"Name": "Trnava",
"PostCode": "35430",
"Location": {
"Latitude": 45.2736,
"Longitude": 17.2869
}
},
{
"Name": "Uskoci",
"PostCode": "35430",
"Location": {
"Latitude": 45.2619,
"Longitude": 17.2171
}
},
{
"Name": "Vrbovljani",
"PostCode": "35430",
"Location": {
"Latitude": 45.2489,
"Longitude": 17.1656
}
},
{
"Name": "Žuberkovac",
"PostCode": "35430",
"Location": {
"Latitude": 45.2619,
"Longitude": 17.2171
}
}
],
"PostCode": "35430"
}
]
}
]
},
{
"Name": "Dubrovačko-Neretvanska",
"Code": "03",
"Provinces": [
{
"Communities": [
{
"Name": "Dubrovnik",
"Places": [
{
"Name": "Dubrovnik",
"PostCode": "20000",
"Location": {
"Latitude": 42.6481,
"Longitude": 18.0922
}
}
],
"PostCode": "20000"
},
{
"Name": "Mlini",
"Places": [
{
"Name": "Bosanka",
"PostCode": "20207",
"Location": {
"Latitude": 42.6458,
"Longitude": 18.1258
}
},
{
"Name": "Brašina",
"PostCode": "20207",
"Location": {
"Latitude": 42.6267,
"Longitude": 18.1983
}
},
{
"Name": "Buići",
"PostCode": "20207",
"Location": {
"Latitude": 42.6411,
"Longitude": 18.1956
}
},
{
"Name": "Čelopeci",
"PostCode": "20207",
"Location": {
"Latitude": 42.6347,
"Longitude": 18.1769
}
},
{
"Name": "Čibača",
"PostCode": "20207",
"Location": {
"Latitude": 42.6289,
"Longitude": 18.1711
}
},
{
"Name": "Donji Brgat",
"PostCode": "20207",
"Location": {
"Latitude": 42.6472,
"Longitude": 18.1661
}
},
{
"Name": "Gornji Brgat",
"PostCode": "20207",
"Location": {
"Latitude": 42.6411,
"Longitude": 18.1558
}
},
{
"Name": "Grbavac",
"PostCode": "20207",
"Location": {
"Latitude": 42.6522,
"Longitude": 18.1789
}
},
{
"Name": "Kupari",
"PostCode": "20207",
"Location": {
"Latitude": 42.6203,
"Longitude": 18.1914
}
},
{
"Name": "Makoše",
"PostCode": "20207",
"Location": {
"Latitude": 42.65,
"Longitude": 18.1897
}
},
{
"Name": "Mandaljena",
"PostCode": "20207",
"Location": {
"Latitude": 42.6375,
"Longitude": 18.1894
}
},
{
"Name": "Martinovići",
"PostCode": "20207",
"Location": {
"Latitude": 42.6506,
"Longitude": 18.1839
}
},
{
"Name": "Mlini",
"PostCode": "20207",
"Location": {
"Latitude": 42.6231,
"Longitude": 18.2072
}
},
{
"Name": "Petrača",
"PostCode": "20207",
"Location": {
"Latitude": 42.6325,
"Longitude": 18.1931
}
},
{
"Name": "Plat",
"PostCode": "20207",
"Location": {
"Latitude": 42.6086,
"Longitude": 18.2256
}
},
{
"Name": "Soline",
"PostCode": "20207",
"Location": {
"Latitude": 42.6147,
"Longitude": 18.2222
}
},
{
"Name": "Srebreno",
"PostCode": "20207",
"Location": {
"Latitude": 42.6233,
"Longitude": 18.1961
}
},
{
"Name": "Zavrelje",
"PostCode": "20207",
"Location": {
"Latitude": 42.6228,
"Longitude": 18.2125
}
}
],
"PostCode": "20207"
},
{
"Name": "Cavtat",
"Places": [
{
"Name": "Brotnice",
"PostCode": "20210",
"Location": {
"Latitude": 42.5944,
"Longitude": 18.2983
}
},
{
"Name": "Cavtat",
"PostCode": "20210",
"Location": {
"Latitude": 42.5811,
"Longitude": 18.2181
}
},
{
"Name": "Duba Konavoska",
"PostCode": "20210",
"Location": {
"Latitude": 42.6028,
"Longitude": 18.3417
}
},
{
"Name": "Jasenice",
"PostCode": "20210",
"Location": {
"Latitude": 42.5928,
"Longitude": 18.2692
}
},
{
"Name": "Šilješki",
"PostCode": "20210",
"Location": {
"Latitude": 42.5898,
"Longitude": 18.2761
}
},
{
"Name": "Stravča",
"PostCode": "20210",
"Location": {
"Latitude": 42.6006,
"Longitude": 18.3142
}
},
{
"Name": "Uskoplje",
"PostCode": "20210",
"Location": {
"Latitude": 42.5806,
"Longitude": 18.2522
}
},
{
"Name": "Zvekovica",
"PostCode": "20210",
"Location": {
"Latitude": 42.5767,
"Longitude": 18.2392
}
}
],
"PostCode": "20210"
},
{
"Name": "Gruda",
"Places": [
{
"Name": "Čilipi",
"PostCode": "20215",
"Location": {
"Latitude": 42.5497,
"Longitude": 18.2847
}
},
{
"Name": "Drvenik",
"PostCode": "20215",
"Location": {
"Latitude": 42.5678,
"Longitude": 18.3069
}
},
{
"Name": "Dubravka",
"PostCode": "20215",
"Location": {
"Latitude": 42.5353,
"Longitude": 18.4244
}
},
{
"Name": "Dunave",
"PostCode": "20215",
"Location": {
"Latitude": 42.5411,
"Longitude": 18.4058
}
},
{
"Name": "Đurinići",
"PostCode": "20215",
"Location": {
"Latitude": 42.5268,
"Longitude": 18.364
}
},
{
"Name": "Gabrili",
"PostCode": "20215",
"Location": {
"Latitude": 42.5742,
"Longitude": 18.2903
}
},
{
"Name": "Gruda",
"PostCode": "20215",
"Location": {
"Latitude": 42.5178,
"Longitude": 18.3744
}
},
{
"Name": "Komaji",
"PostCode": "20215",
"Location": {
"Latitude": 42.5356,
"Longitude": 18.3083
}
},
{
"Name": "Kuna Konavoska",
"PostCode": "20215",
"Location": {
"Latitude": 42.5594,
"Longitude": 18.3619
}
},
{
"Name": "Ljuta",
"PostCode": "20215",
"Location": {
"Latitude": 42.5383,
"Longitude": 18.3781
}
},
{
"Name": "Lovorno",
"PostCode": "20215",
"Location": {
"Latitude": 42.5461,
"Longitude": 18.3606
}
},
{
"Name": "Mihanići",
"PostCode": "20215",
"Location": {
"Latitude": 42.5633,
"Longitude": 18.3275
}
},
{
"Name": "Mikulići",
"PostCode": "20215",
"Location": {
"Latitude": 42.4808,
"Longitude": 18.4114
}
},
{
"Name": "Močići",
"PostCode": "20215",
"Location": {
"Latitude": 42.5617,
"Longitude": 18.2511
}
},
{
"Name": "Molunat",
"PostCode": "20215",
"Location": {
"Latitude": 42.45,
"Longitude": 18.4372
}
},
{
"Name": "Palje Brdo",
"PostCode": "20215",
"Location": {
"Latitude": 42.5133,
"Longitude": 18.4111
}
},
{
"Name": "Pločice",
"PostCode": "20215",
"Location": {
"Latitude": 42.4933,
"Longitude": 18.4114
}
},
{
"Name": "Poljice",
"PostCode": "20215",
"Location": {
"Latitude": 42.4961,
"Longitude": 18.3797
}
},
{
"Name": "Popovići",
"PostCode": "20215",
"Location": {
"Latitude": 42.5228,
"Longitude": 18.3186
}
},
{
"Name": "Pridvorje",
"PostCode": "20215",
"Location": {
"Latitude": 42.5514,
"Longitude": 18.3469
}
},
{
"Name": "Radovčići",
"PostCode": "20215",
"Location": {
"Latitude": 42.5125,
"Longitude": 18.3453
}
},
{
"Name": "Vitaljina",
"PostCode": "20215",
"Location": {
"Latitude": 42.4539,
"Longitude": 18.4714
}
},
{
"Name": "Vodovađa",
"PostCode": "20215",
"Location": {
"Latitude": 42.5268,
"Longitude": 18.364
}
},
{
"Name": "Zastolje",
"PostCode": "20215",
"Location": {
"Latitude": 42.5242,
"Longitude": 18.4003
}
}
],
"PostCode": "20215"
},
{
"Name": "Koločep",
"Places": [
{
"Name": "Koločep",
"PostCode": "20221",
"Location": {
"Latitude": 42.6761,
"Longitude": 18.0097
}
}
],
"PostCode": "20221"
},
{
"Name": "Lopud",
"Places": [
{
"Name": "Lopud",
"PostCode": "20222",
"Location": {
"Latitude": 42.6928,
"Longitude": 17.9469
}
}
],
"PostCode": "20222"
},
{
"Name": "Šipanska Luka",
"Places": [
{
"Name": "Šipanska Luka",
"PostCode": "20223",
"Location": {
"Latitude": 42.7289,
"Longitude": 17.8672
}
},
{
"Name": "Suđurađ",
"PostCode": "20223",
"Location": {
"Latitude": 42.7289,
"Longitude": 17.8672
}
}
],
"PostCode": "20223"
},
{
"Name": "Babino Polje",
"Places": [
{
"Name": "Babino Polje",
"PostCode": "20225",
"Location": {
"Latitude": 42.7333,
"Longitude": 17.5619
}
},
{
"Name": "Blato",
"PostCode": "20225",
"Location": {
"Latitude": 42.7625,
"Longitude": 17.4822
}
},
{
"Name": "Kozarica",
"PostCode": "20225",
"Location": {
"Latitude": 42.7764,
"Longitude": 17.4642
}
},
{
"Name": "Ropa",
"PostCode": "20225",
"Location": {
"Latitude": 42.7528,
"Longitude": 17.4603
}
},
{
"Name": "Sobra",
"PostCode": "20225",
"Location": {
"Latitude": 42.7372,
"Longitude": 17.6003
}
}
],
"PostCode": "20225"
},
{
"Name": "Goveđari",
"Places": [
{
"Name": "Goveđari",
"PostCode": "20226",
"Location": {
"Latitude": 42.7833,
"Longitude": 17.3667
}
},
{
"Name": "Korita",
"PostCode": "20226",
"Location": {
"Latitude": 42.7128,
"Longitude": 17.7081
}
},
{
"Name": "Maranovići",
"PostCode": "20226",
"Location": {
"Latitude": 42.7156,
"Longitude": 17.67
}
},
{
"Name": "Okuklje",
"PostCode": "20226",
"Location": {
"Latitude": 42.7283,
"Longitude": 17.6692
}
},
{
"Name": "Polače",
"PostCode": "20226",
"Location": {
"Latitude": 42.7856,
"Longitude": 17.378
}
},
{
"Name": "Pomena",
"PostCode": "20226",
"Location": {
"Latitude": 42.7871,
"Longitude": 17.3449
}
},
{
"Name": "Prožura",
"PostCode": "20226",
"Location": {
"Latitude": 42.7286,
"Longitude": 17.6494
}
},
{
"Name": "Prožurska Luka",
"PostCode": "20226",
"Location": {
"Latitude": 42.7298,
"Longitude": 17.6469
}
},
{
"Name": "Saplunara",
"PostCode": "20226",
"Location": {
"Latitude": 42.7464,
"Longitude": 17.5541
}
}
],
"PostCode": "20226"
},
{
"Name": "Ston",
"Places": [
{
"Name": "Boljenovići",
"PostCode": "20230",
"Location": {
"Latitude": 42.8481,
"Longitude": 17.6247
}
},
{
"Name": "Broce",
"PostCode": "20230",
"Location": {
"Latitude": 42.8206,
"Longitude": 17.7156
}
},
{
"Name": "Čepikuće",
"PostCode": "20230",
"Location": {
"Latitude": 42.8581,
"Longitude": 17.8347
}
},
{
"Name": "Česvinica",
"PostCode": "20230",
"Location": {
"Latitude": 42.8514,
"Longitude": 17.6669
}
},
{
"Name": "Doli",
"PostCode": "20230",
"Location": {
"Latitude": 42.8197,
"Longitude": 17.7803
}
},
{
"Name": "Duba Stonska",
"PostCode": "20230",
"Location": {
"Latitude": 42.8739,
"Longitude": 17.6417
}
},
{
"Name": "Hodilje",
"PostCode": "20230",
"Location": {
"Latitude": 42.8569,
"Longitude": 17.6894
}
},
{
"Name": "Imotica",
"PostCode": "20230",
"Location": {
"Latitude": 42.9139,
"Longitude": 17.6861
}
},
{
"Name": "Lisac",
"PostCode": "20230",
"Location": {
"Latitude": 42.8478,
"Longitude": 17.8128
}
},
{
"Name": "Luka",
"PostCode": "20230",
"Location": {
"Latitude": 42.8664,
"Longitude": 17.6756
}
},
{
"Name": "Mali Ston",
"PostCode": "20230",
"Location": {
"Latitude": 42.8467,
"Longitude": 17.7036
}
},
{
"Name": "Metohija",
"PostCode": "20230",
"Location": {
"Latitude": 42.8411,
"Longitude": 17.6336
}
},
{
"Name": "Ošlje",
"PostCode": "20230",
"Location": {
"Latitude": 42.8864,
"Longitude": 17.7358
}
},
{
"Name": "Podimoć",
"PostCode": "20230",
"Location": {
"Latitude": 42.8344,
"Longitude": 17.8286
}
},
{
"Name": "Smokovljani",
"PostCode": "20230",
"Location": {
"Latitude": 42.8653,
"Longitude": 17.7714
}
},
{
"Name": "Sparagovići",
"PostCode": "20230",
"Location": {
"Latitude": 42.855,
"Longitude": 17.6133
}
},
{
"Name": "Štedrica",
"PostCode": "20230",
"Location": {
"Latitude": 42.8925,
"Longitude": 17.6839
}
},
{
"Name": "Ston",
"PostCode": "20230",
"Location": {
"Latitude": 42.8386,
"Longitude": 17.6964
}
},
{
"Name": "Stupa",
"PostCode": "20230",
"Location": {
"Latitude": 42.8969,
"Longitude": 17.7247
}
},
{
"Name": "Točionik",
"PostCode": "20230",
"Location": {
"Latitude": 42.8725,
"Longitude": 17.8117
}
},
{
"Name": "Topolo",
"PostCode": "20230",
"Location": {
"Latitude": 42.9097,
"Longitude": 17.7047
}
},
{
"Name": "Trnovica",
"PostCode": "20230",
"Location": {
"Latitude": 42.8897,
"Longitude": 17.8375
}
},
{
"Name": "Visočani",
"PostCode": "20230",
"Location": {
"Latitude": 42.8542,
"Longitude": 17.7961
}
},
{
"Name": "Zabrđe",
"PostCode": "20230",
"Location": {
"Latitude": 42.8606,
"Longitude": 17.5867
}
},
{
"Name": "Zamaslina",
"PostCode": "20230",
"Location": {
"Latitude": 42.8319,
"Longitude": 17.7303
}
},
{
"Name": "Zaton Doli",
"PostCode": "20230",
"Location": {
"Latitude": 42.8331,
"Longitude": 17.7511
}
}
],
"PostCode": "20230"
},
{
"Name": "Slano",
"Places": [
{
"Name": "Banići",
"PostCode": "20232",
"Location": {
"Latitude": 42.7983,
"Longitude": 17.8575
}
},
{
"Name": "Brsečine",
"PostCode": "20232",
"Location": {
"Latitude": 42.7306,
"Longitude": 17.9598
}
},
{
"Name": "Dubravica",
"PostCode": "20232",
"Location": {
"Latitude": 42.7448,
"Longitude": 17.9393
}
},
{
"Name": "Gromača",
"PostCode": "20232",
"Location": {
"Latitude": 42.7283,
"Longitude": 18.0153
}
},
{
"Name": "Kliševo",
"PostCode": "20232",
"Location": {
"Latitude": 42.7272,
"Longitude": 18.0025
}
},
{
"Name": "Kručica",
"PostCode": "20232",
"Location": {
"Latitude": 42.7894,
"Longitude": 17.855
}
},
{
"Name": "Ljubač",
"PostCode": "20232",
"Location": {
"Latitude": 42.7231,
"Longitude": 18.0242
}
},
{
"Name": "Majkovi",
"PostCode": "20232",
"Location": {
"Latitude": 42.769,
"Longitude": 17.9266
}
},
{
"Name": "Mravinjac",
"PostCode": "20232",
"Location": {
"Latitude": 42.7512,
"Longitude": 17.9613
}
},
{
"Name": "Mravnica",
"PostCode": "20232",
"Location": {
"Latitude": 42.8186,
"Longitude": 17.8572
}
},
{
"Name": "Mrčevo",
"PostCode": "20232",
"Location": {
"Latitude": 42.7401,
"Longitude": 17.9808
}
},
{
"Name": "Podgora",
"PostCode": "20232",
"Location": {
"Latitude": 42.8486,
"Longitude": 17.8364
}
},
{
"Name": "Slano",
"PostCode": "20232",
"Location": {
"Latitude": 42.7861,
"Longitude": 17.8919
}
},
{
"Name": "Trnova",
"PostCode": "20232",
"Location": {
"Latitude": 42.8106,
"Longitude": 17.865
}
}
],
"PostCode": "20232"
},
{
"Name": "Zaton Veliki",
"Places": [
{
"Name": "Orašac",
"PostCode": "20235",
"Location": {
"Latitude": 42.7019,
"Longitude": 18.0078
}
},
{
"Name": "Trsteno",
"PostCode": "20235",
"Location": {
"Latitude": 42.715,
"Longitude": 17.9773
}
},
{
"Name": "Zaton",
"PostCode": "20235",
"Location": {
"Latitude": 42.6908,
"Longitude": 18.0381
}
}
],
"PostCode": "20235"
},
{
"Name": "Mokošica",
"Places": [
{
"Name": "Čajkovica",
"PostCode": "20236",
"Location": {
"Latitude": 42.6661,
"Longitude": 18.1403
}
},
{
"Name": "Čajkovići",
"PostCode": "20236",
"Location": {
"Latitude": 42.67,
"Longitude": 18.1158
}
},
{
"Name": "Donje Obuljeno",
"PostCode": "20236",
"Location": {
"Latitude": 42.6737,
"Longitude": 18.1053
}
},
{
"Name": "Gornje Obuljeno",
"PostCode": "20236",
"Location": {
"Latitude": 42.6782,
"Longitude": 18.1071
}
},
{
"Name": "Knežica",
"PostCode": "20236",
"Location": {
"Latitude": 42.6561,
"Longitude": 18.1414
}
},
{
"Name": "Komolac",
"PostCode": "20236",
"Location": {
"Latitude": 42.6706,
"Longitude": 18.1358
}
},
{
"Name": "Lozica",
"PostCode": "20236",
"Location": {
"Latitude": 42.6735,
"Longitude": 18.0688
}
},
{
"Name": "Mokošica",
"PostCode": "20236",
"Location": {
"Latitude": 42.6756,
"Longitude": 18.0903
}
},
{
"Name": "Nova Mokošica",
"PostCode": "20236",
"Location": {
"Latitude": 42.6734,
"Longitude": 18.1089
}
},
{
"Name": "Osojnik",
"PostCode": "20236",
"Location": {
"Latitude": 42.7108,
"Longitude": 18.0672
}
},
{
"Name": "Petrovo Selo",
"PostCode": "20236",
"Location": {
"Latitude": 42.6828,
"Longitude": 18.0883
}
},
{
"Name": "Pobrežje",
"PostCode": "20236",
"Location": {
"Latitude": 42.6811,
"Longitude": 18.0736
}
},
{
"Name": "Prijevor",
"PostCode": "20236",
"Location": {
"Latitude": 42.6731,
"Longitude": 18.1239
}
},
{
"Name": "Rožat",
"PostCode": "20236",
"Location": {
"Latitude": 42.6739,
"Longitude": 18.1308
}
},
{
"Name": "Šumet",
"PostCode": "20236",
"Location": {
"Latitude": 42.6461,
"Longitude": 18.1475
}
},
{
"Name": "Sustjepan",
"PostCode": "20236",
"Location": {
"Latitude": 42.67,
"Longitude": 18.0975
}
}
],
"PostCode": "20236"
},
{
"Name": "Trpanj",
"Places": [
{
"Name": "Donja Banda",
"PostCode": "20240",
"Location": {
"Latitude": 43.0024,
"Longitude": 17.2489
}
},
{
"Name": "Donja Vrućica",
"PostCode": "20240",
"Location": {
"Latitude": 43.0053,
"Longitude": 17.2217
}
},
{
"Name": "Duba Pelješka",
"PostCode": "20240",
"Location": {
"Latitude": 43.0183,
"Longitude": 17.1692
}
},
{
"Name": "Gornja Vrućica",
"PostCode": "20240",
"Location": {
"Latitude": 42.9972,
"Longitude": 17.2717
}
},
{
"Name": "Oskorušno",
"PostCode": "20240",
"Location": {
"Latitude": 42.9836,
"Longitude": 17.3069
}
},
{
"Name": "Trpanj",
"PostCode": "20240",
"Location": {
"Latitude": 43.0075,
"Longitude": 17.275
}
}
],
"PostCode": "20240"
},
{
"Name": "Potomje",
"Places": [
{
"Name": "Kuna Pelješka",
"PostCode": "20244",
"Location": {
"Latitude": 42.9667,
"Longitude": 17.35
}
},
{
"Name": "Pijavičino",
"PostCode": "20244",
"Location": {
"Latitude": 42.9403,
"Longitude": 17.3701
}
},
{
"Name": "Potomje",
"PostCode": "20244",
"Location": {
"Latitude": 42.9425,
"Longitude": 17.3383
}
},
{
"Name": "Trstenik",
"PostCode": "20244",
"Location": {
"Latitude": 42.9183,
"Longitude": 17.3978
}
}
],
"PostCode": "20244"
},
{
"Name": "Janjina",
"Places": [
{
"Name": "Brijesta",
"PostCode": "20246",
"Location": {
"Latitude": 42.9061,
"Longitude": 17.5353
}
},
{
"Name": "Dančanje",
"PostCode": "20246",
"Location": {
"Latitude": 42.8747,
"Longitude": 17.5636
}
},
{
"Name": "Drače",
"PostCode": "20246",
"Location": {
"Latitude": 42.9325,
"Longitude": 17.4486
}
},
{
"Name": "Dubrava",
"PostCode": "20246",
"Location": {
"Latitude": 42.8878,
"Longitude": 17.4992
}
},
{
"Name": "Janjina",
"PostCode": "20246",
"Location": {
"Latitude": 42.9253,
"Longitude": 17.4283
}
},
{
"Name": "Osobjava",
"PostCode": "20246",
"Location": {
"Latitude": 42.965,
"Longitude": 17.4
}
},
{
"Name": "Popova Luka",
"PostCode": "20246",
"Location": {
"Latitude": 42.9133,
"Longitude": 17.4283
}
},
{
"Name": "Putniković",
"PostCode": "20246",
"Location": {
"Latitude": 42.8767,
"Longitude": 17.5283
}
},
{
"Name": "Sreser",
"PostCode": "20246",
"Location": {
"Latitude": 42.9486,
"Longitude": 17.4422
}
},
{
"Name": "Tomislavovac",
"PostCode": "20246",
"Location": {
"Latitude": 42.8642,
"Longitude": 17.5222
}
},
{
"Name": "Žuljana",
"PostCode": "20246",
"Location": {
"Latitude": 42.8936,
"Longitude": 17.4561
}
}
],
"PostCode": "20246"
},
{
"Name": "Orebić",
"Places": [
{
"Name": "Kučište",
"PostCode": "20250",
"Location": {
"Latitude": 42.9783,
"Longitude": 17.1378
}
},
{
"Name": "Lovište",
"PostCode": "20250",
"Location": {
"Latitude": 43.0217,
"Longitude": 17.0353
}
},
{
"Name": "Nakovanj",
"PostCode": "20250",
"Location": {
"Latitude": 43.0,
"Longitude": 17.0833
}
},
{
"Name": "Orebić",
"PostCode": "20250",
"Location": {
"Latitude": 42.9856,
"Longitude": 17.1747
}
},
{
"Name": "Podgorje",
"PostCode": "20250",
"Location": {
"Latitude": 42.9871,
"Longitude": 17.1358
}
},
{
"Name": "Podobuče",
"PostCode": "20250",
"Location": {
"Latitude": 42.9486,
"Longitude": 17.2883
}
},
{
"Name": "Stanković",
"PostCode": "20250",
"Location": {
"Latitude": 42.9871,
"Longitude": 17.1358
}
},
{
"Name": "Viganj",
"PostCode": "20250",
"Location": {
"Latitude": 42.9886,
"Longitude": 17.0953
}
}
],
"PostCode": "20250"
},
{
"Name": "Korčula",
"Places": [
{
"Name": "Korčula",
"PostCode": "20260",
"Location": {
"Latitude": 42.9604,
"Longitude": 17.1352
}
},
{
"Name": "Lumbarda",
"PostCode": "20260",
"Location": {
"Latitude": 42.9228,
"Longitude": 17.1672
}
},
{
"Name": "Račišće",
"PostCode": "20260",
"Location": {
"Latitude": 42.9764,
"Longitude": 17.0167
}
},
{
"Name": "Žrnovo",
"PostCode": "20260",
"Location": {
"Latitude": 42.9511,
"Longitude": 17.1142
}
}
],
"PostCode": "20260"
},
{
"Name": "Vela Luka",
"Places": [
{
"Name": "Potirna",
"PostCode": "20270",
"Location": {
"Latitude": 42.9331,
"Longitude": 16.6899
}
},
{
"Name": "Vela Luka",
"PostCode": "20270",
"Location": {
"Latitude": 42.9633,
"Longitude": 16.7225
}
}
],
"PostCode": "20270"
},
{
"Name": "Blato",
"Places": [
{
"Name": "Blato",
"PostCode": "20271",
"Location": {
"Latitude": 42.9408,
"Longitude": 16.7917
}
},
{
"Name": "Smokvica",
"PostCode": "20271",
"Location": {
"Latitude": 42.9306,
"Longitude": 16.8964
}
}
],
"PostCode": "20271"
},
{
"Name": "Pupnat",
"Places": [
{
"Name": "Čara",
"PostCode": "20274",
"Location": {
"Latitude": 42.9383,
"Longitude": 16.9347
}
},
{
"Name": "Pupnat",
"PostCode": "20274",
"Location": {
"Latitude": 42.9536,
"Longitude": 17.0369
}
}
],
"PostCode": "20274"
},
{
"Name": "Lastovo",
"Places": [
{
"Name": "Glavat",
"PostCode": "20290",
"Location": {
"Latitude": 42.757,
"Longitude": 16.8634
}
},
{
"Name": "Lastovo",
"PostCode": "20290",
"Location": {
"Latitude": 42.7681,
"Longitude": 16.9008
}
},
{
"Name": "Pasadur",
"PostCode": "20290",
"Location": {
"Latitude": 42.766,
"Longitude": 16.8226
}
},
{
"Name": "Skrivena Luka",
"PostCode": "20290",
"Location": {
"Latitude": 42.74,
"Longitude": 16.8897
}
},
{
"Name": "Sušac",
"PostCode": "20290",
"Location": {
"Latitude": 42.757,
"Longitude": 16.8634
}
},
{
"Name": "Uble",
"PostCode": "20290",
"Location": {
"Latitude": 42.7397,
"Longitude": 16.83
}
},
{
"Name": "Zaklopatica",
"PostCode": "20290",
"Location": {
"Latitude": 42.7715,
"Longitude": 16.8736
}
}
],
"PostCode": "20290"
},
{
"Name": "Ploče",
"Places": [
{
"Name": "Baćina",
"PostCode": "20340",
"Location": {
"Latitude": 43.0811,
"Longitude": 17.3869
}
},
{
"Name": "Banja",
"PostCode": "20340",
"Location": {
"Latitude": 43.0486,
"Longitude": 17.5086
}
},
{
"Name": "Desne",
"PostCode": "20340",
"Location": {
"Latitude": 43.0617,
"Longitude": 17.5294
}
},
{
"Name": "Komin",
"PostCode": "20340",
"Location": {
"Latitude": 43.0408,
"Longitude": 17.5369
}
},
{
"Name": "Peračko Blato",
"PostCode": "20340",
"Location": {
"Latitude": 43.0767,
"Longitude": 17.4394
}
},
{
"Name": "Plina Jezero",
"PostCode": "20340",
"Location": {
"Latitude": 43.0691,
"Longitude": 17.4674
}
},
{
"Name": "Ploče",
"PostCode": "20340",
"Location": {
"Latitude": 43.0561,
"Longitude": 17.4328
}
},
{
"Name": "Rogotin",
"PostCode": "20340",
"Location": {
"Latitude": 43.0492,
"Longitude": 17.4792
}
},
{
"Name": "Šarić Struga",
"PostCode": "20340",
"Location": {
"Latitude": 43.0691,
"Longitude": 17.4674
}
},
{
"Name": "Staševica",
"PostCode": "20340",
"Location": {
"Latitude": 43.1389,
"Longitude": 17.4256
}
}
],
"PostCode": "20340"
},
{
"Name": "Metković",
"Places": [
{
"Name": "Badžula",
"PostCode": "20350",
"Location": {
"Latitude": 42.965,
"Longitude": 17.6111
}
},
{
"Name": "Bijeli Vir",
"PostCode": "20350",
"Location": {
"Latitude": 43.0114,
"Longitude": 17.6547
}
},
{
"Name": "Borovci",
"PostCode": "20350",
"Location": {
"Latitude": 43.0992,
"Longitude": 17.5358
}
},
{
"Name": "Brečići",
"PostCode": "20350",
"Location": {
"Latitude": 43.1258,
"Longitude": 17.4881
}
},
{
"Name": "Dobranje",
"PostCode": "20350",
"Location": {
"Latitude": 42.9842,
"Longitude": 17.6978
}
},
{
"Name": "Dubrave",
"PostCode": "20350",
"Location": {
"Latitude": 43.1311,
"Longitude": 17.4803
}
},
{
"Name": "Dubravica",
"PostCode": "20350",
"Location": {
"Latitude": 43.0244,
"Longitude": 17.6544
}
},
{
"Name": "Glušci",
"PostCode": "20350",
"Location": {
"Latitude": 43.0178,
"Longitude": 17.6783
}
},
{
"Name": "Kobiljača",
"PostCode": "20350",
"Location": {
"Latitude": 43.1342,
"Longitude": 17.4797
}
},
{
"Name": "Krvavac",
"PostCode": "20350",
"Location": {
"Latitude": 43.0219,
"Longitude": 17.5839
}
},
{
"Name": "Krvavac II",
"PostCode": "20350",
"Location": {
"Latitude": 43.0619,
"Longitude": 17.5743
}
},
{
"Name": "Kula Norinska",
"PostCode": "20350",
"Location": {
"Latitude": 43.0311,
"Longitude": 17.605
}
},
{
"Name": "Mali Prolog",
"PostCode": "20350",
"Location": {
"Latitude": 43.1428,
"Longitude": 17.4847
}
},
{
"Name": "Matijevići",
"PostCode": "20350",
"Location": {
"Latitude": 43.0392,
"Longitude": 17.6036
}
},
{
"Name": "Metković",
"PostCode": "20350",
"Location": {
"Latitude": 43.0542,
"Longitude": 17.6483
}
},
{
"Name": "Mislina",
"PostCode": "20350",
"Location": {
"Latitude": 42.9822,
"Longitude": 17.6072
}
},
{
"Name": "Mlinište",
"PostCode": "20350",
"Location": {
"Latitude": 42.9925,
"Longitude": 17.6158
}
},
{
"Name": "Momići",
"PostCode": "20350",
"Location": {
"Latitude": 43.0481,
"Longitude": 17.5981
}
},
{
"Name": "Nova Sela",
"PostCode": "20350",
"Location": {
"Latitude": 43.1017,
"Longitude": 17.5594
}
},
{
"Name": "Otrić-Seoci",
"PostCode": "20350",
"Location": {
"Latitude": 43.1586,
"Longitude": 17.4508
}
},
{
"Name": "Podrujnica",
"PostCode": "20350",
"Location": {
"Latitude": 43.0458,
"Longitude": 17.5975
}
},
{
"Name": "Pozla Gora",
"PostCode": "20350",
"Location": {
"Latitude": 43.1353,
"Longitude": 17.5158
}
},
{
"Name": "Prud",
"PostCode": "20350",
"Location": {
"Latitude": 43.0619,
"Longitude": 17.5743
}
},
{
"Name": "Vid",
"PostCode": "20350",
"Location": {
"Latitude": 43.0978,
"Longitude": 17.5922
}
},
{
"Name": "Vidonje",
"PostCode": "20350",
"Location": {
"Latitude": 43.0803,
"Longitude": 17.4672
}
}
],
"PostCode": "20350"
},
{
"Name": "Opuzen",
"Places": [
{
"Name": "Blace",
"PostCode": "20355",
"Location": {
"Latitude": 43.0011,
"Longitude": 17.4806
}
},
{
"Name": "Buk-Vlaka",
"PostCode": "20355",
"Location": {
"Latitude": 42.9769,
"Longitude": 17.5285
}
},
{
"Name": "Duba",
"PostCode": "20355",
"Location": {
"Latitude": 42.9781,
"Longitude": 17.495
}
},
{
"Name": "Duboka",
"PostCode": "20355",
"Location": {
"Latitude": 42.9456,
"Longitude": 17.5436
}
},
{
"Name": "Klek",
"PostCode": "20355",
"Location": {
"Latitude": 42.9447,
"Longitude": 17.5639
}
},
{
"Name": "Komarna",
"PostCode": "20355",
"Location": {
"Latitude": 42.945,
"Longitude": 17.5339
}
},
{
"Name": "Kremena",
"PostCode": "20355",
"Location": {
"Latitude": 42.9708,
"Longitude": 17.5036
}
},
{
"Name": "Lovorje",
"PostCode": "20355",
"Location": {
"Latitude": 42.9778,
"Longitude": 17.5272
}
},
{
"Name": "Lučina",
"PostCode": "20355",
"Location": {
"Latitude": 42.9769,
"Longitude": 17.5285
}
},
{
"Name": "Mihalj",
"PostCode": "20355",
"Location": {
"Latitude": 42.9906,
"Longitude": 17.4978
}
},
{
"Name": "Opuzen",
"PostCode": "20355",
"Location": {
"Latitude": 43.0153,
"Longitude": 17.5656
}
},
{
"Name": "Otok",
"PostCode": "20355",
"Location": {
"Latitude": 42.9944,
"Longitude": 17.4933
}
},
{
"Name": "Pižinovac",
"PostCode": "20355",
"Location": {
"Latitude": 42.9769,
"Longitude": 17.5285
}
},
{
"Name": "Podgradina",
"PostCode": "20355",
"Location": {
"Latitude": 43.0083,
"Longitude": 17.5542
}
},
{
"Name": "Pržinovac",
"PostCode": "20355",
"Location": {
"Latitude": 42.9769,
"Longitude": 17.5285
}
},
{
"Name": "Raba",
"PostCode": "20355",
"Location": {
"Latitude": 42.9728,
"Longitude": 17.5158
}
},
{
"Name": "Slivno Ravno",
"PostCode": "20355",
"Location": {
"Latitude": 42.96,
"Longitude": 17.5453
}
},
{
"Name": "Trn",
"PostCode": "20355",
"Location": {
"Latitude": 42.9769,
"Longitude": 17.5285
}
},
{
"Name": "Tuštevac",
"PostCode": "20355",
"Location": {
"Latitude": 42.9769,
"Longitude": 17.5285
}
},
{
"Name": "Vlaka",
"PostCode": "20355",
"Location": {
"Latitude": 42.9992,
"Longitude": 17.5242
}
},
{
"Name": "Zavala",
"PostCode": "20355",
"Location": {
"Latitude": 42.9503,
"Longitude": 17.5836
}
}
],
"PostCode": "20355"
}
]
}
]
},
{
"Name": "Istarska",
"Code": "04",
"Provinces": [
{
"Communities": [
{
"Name": "Pazin",
"Places": [
{
"Name": "Bazgalji",
"PostCode": "52000",
"Location": {
"Latitude": 45.2624,
"Longitude": 13.934
}
},
{
"Name": "Beram",
"PostCode": "52000",
"Location": {
"Latitude": 45.2517,
"Longitude": 13.8997
}
},
{
"Name": "Bertoši",
"PostCode": "52000",
"Location": {
"Latitude": 45.2624,
"Longitude": 13.934
}
},
{
"Name": "Borut",
"PostCode": "52000",
"Location": {
"Latitude": 45.3069,
"Longitude": 14.0528
}
},
{
"Name": "Brajkovići",
"PostCode": "52000",
"Location": {
"Latitude": 45.2578,
"Longitude": 13.8594
}
},
{
"Name": "Brčići",
"PostCode": "52000",
"Location": {
"Latitude": 45.2624,
"Longitude": 13.934
}
},
{
"Name": "Brečevići",
"PostCode": "52000",
"Location": {
"Latitude": 45.2269,
"Longitude": 13.8114
}
},
{
"Name": "Butoniga",
"PostCode": "52000",
"Location": {
"Latitude": 45.2825,
"Longitude": 13.9644
}
},
{
"Name": "Cerovlje",
"PostCode": "52000",
"Location": {
"Latitude": 45.2781,
"Longitude": 14.0122
}
},
{
"Name": "Ćusi",
"PostCode": "52000",
"Location": {
"Latitude": 45.2624,
"Longitude": 13.934
}
},
{
"Name": "Draguć",
"PostCode": "52000",
"Location": {
"Latitude": 45.3314,
"Longitude": 14.0069
}
},
{
"Name": "Duričići",
"PostCode": "52000",
"Location": {
"Latitude": 45.2624,
"Longitude": 13.934
}
},
{
"Name": "Gologorica",
"PostCode": "52000",
"Location": {
"Latitude": 45.2578,
"Longitude": 14.0342
}
},
{
"Name": "Gologorički Dol",
"PostCode": "52000",
"Location": {
"Latitude": 45.2624,
"Longitude": 13.934
}
},
{
"Name": "Gračišće",
"PostCode": "52000",
"Location": {
"Latitude": 45.2189,
"Longitude": 14.0106
}
},
{
"Name": "Gradinje",
"PostCode": "52000",
"Location": {
"Latitude": 45.3792,
"Longitude": 13.86
}
},
{
"Name": "Grdoselo",
"PostCode": "52000",
"Location": {
"Latitude": 45.2811,
"Longitude": 13.9411
}
},
{
"Name": "Grimalda",
"PostCode": "52000",
"Location": {
"Latitude": 45.3164,
"Longitude": 13.9808
}
},
{
"Name": "Grobnik",
"PostCode": "52000",
"Location": {
"Latitude": 45.2339,
"Longitude": 14.0972
}
},
{
"Name": "Heki",
"PostCode": "52000",
"Location": {
"Latitude": 45.2164,
"Longitude": 13.8897
}
},
{
"Name": "Jakačići",
"PostCode": "52000",
"Location": {
"Latitude": 45.2624,
"Longitude": 13.934
}
},
{
"Name": "Jakovici",
"PostCode": "52000",
"Location": {
"Latitude": 45.2624,
"Longitude": 13.934
}
},
{
"Name": "Ježenj",
"PostCode": "52000",
"Location": {
"Latitude": 45.2225,
"Longitude": 13.8614
}
},
{
"Name": "Kašćerga",
"PostCode": "52000",
"Location": {
"Latitude": 45.3022,
"Longitude": 13.9011
}
},
{
"Name": "Korelići",
"PostCode": "52000",
"Location": {
"Latitude": 45.3375,
"Longitude": 13.9822
}
},
{
"Name": "Kringa",
"PostCode": "52000",
"Location": {
"Latitude": 45.1822,
"Longitude": 13.8333
}
},
{
"Name": "Kršikla",
"PostCode": "52000",
"Location": {
"Latitude": 45.3047,
"Longitude": 13.9431
}
},
{
"Name": "Kukurini",
"PostCode": "52000",
"Location": {
"Latitude": 45.2624,
"Longitude": 13.934
}
},
{
"Name": "Lindar",
"PostCode": "52000",
"Location": {
"Latitude": 45.2331,
"Longitude": 13.9625
}
},
{
"Name": "Lovrin",
"PostCode": "52000",
"Location": {
"Latitude": 45.2624,
"Longitude": 13.934
}
},
{
"Name": "Mandalenčići",
"PostCode": "52000",
"Location": {
"Latitude": 45.2624,
"Longitude": 13.934
}
},
{
"Name": "Montovani",
"PostCode": "52000",
"Location": {
"Latitude": 45.2624,
"Longitude": 13.934
}
},
{
"Name": "Muntrilj",
"PostCode": "52000",
"Location": {
"Latitude": 45.2417,
"Longitude": 13.8069
}
},
{
"Name": "Novaki Pazinski",
"PostCode": "52000",
"Location": {
"Latitude": 45.2667,
"Longitude": 13.9922
}
},
{
"Name": "Orič",
"PostCode": "52000",
"Location": {
"Latitude": 45.2624,
"Longitude": 13.934
}
},
{
"Name": "Oslići",
"PostCode": "52000",
"Location": {
"Latitude": 45.2624,
"Longitude": 13.934
}
},
{
"Name": "Pagubice",
"PostCode": "52000",
"Location": {
"Latitude": 45.2978,
"Longitude": 13.9903
}
},
{
"Name": "Pazin",
"PostCode": "52000",
"Location": {
"Latitude": 45.2403,
"Longitude": 13.9367
}
},
{
"Name": "Pićan",
"PostCode": "52000",
"Location": {
"Latitude": 45.2061,
"Longitude": 14.0428
}
},
{
"Name": "Previž",
"PostCode": "52000",
"Location": {
"Latitude": 45.3008,
"Longitude": 14.0308
}
},
{
"Name": "Radetići",
"PostCode": "52000",
"Location": {
"Latitude": 45.1658,
"Longitude": 13.8064
}
},
{
"Name": "Škopljak",
"PostCode": "52000",
"Location": {
"Latitude": 45.2336,
"Longitude": 14.0306
}
},
{
"Name": "Sveta Katarina",
"PostCode": "52000",
"Location": {
"Latitude": 45.2624,
"Longitude": 13.934
}
},
{
"Name": "Tinjan",
"PostCode": "52000",
"Location": {
"Latitude": 45.2181,
"Longitude": 13.8394
}
},
{
"Name": "Trviž",
"PostCode": "52000",
"Location": {
"Latitude": 45.2647,
"Longitude": 13.875
}
},
{
"Name": "Vela Traba",
"PostCode": "52000",
"Location": {
"Latitude": 45.2478,
"Longitude": 13.8708
}
},
{
"Name": "Zabrežani",
"PostCode": "52000",
"Location": {
"Latitude": 45.2624,
"Longitude": 13.934
}
},
{
"Name": "Zamask",
"PostCode": "52000",
"Location": {
"Latitude": 45.3289,
"Longitude": 13.88
}
},
{
"Name": "Zarečje",
"PostCode": "52000",
"Location": {
"Latitude": 45.2544,
"Longitude": 13.9608
}
},
{
"Name": "Žužići",
"PostCode": "52000",
"Location": {
"Latitude": 45.2322,
"Longitude": 13.79
}
}
],
"PostCode": "52000"
},
{
"Name": "Pula (Pola)",
"Places": [
{
"Name": "Banjole",
"PostCode": "52100",
"Location": {
"Latitude": 44.825,
"Longitude": 13.8661
}
},
{
"Name": "Fažana - Fasana",
"PostCode": "52100",
"Location": {
"Latitude": 44.8768,
"Longitude": 13.8833
}
},
{
"Name": "Gajana - Gaiano",
"PostCode": "52100",
"Location": {
"Latitude": 45.0064,
"Longitude": 13.8322
}
},
{
"Name": "Galižana - Gallesano",
"PostCode": "52100",
"Location": {
"Latitude": 44.9317,
"Longitude": 13.8686
}
},
{
"Name": "Jadreški - Giadreschi",
"PostCode": "52100",
"Location": {
"Latitude": 44.8689,
"Longitude": 13.9161
}
},
{
"Name": "Ližnjan - Lisignano",
"PostCode": "52100",
"Location": {
"Latitude": 44.8768,
"Longitude": 13.8833
}
},
{
"Name": "Medulin",
"PostCode": "52100",
"Location": {
"Latitude": 44.8225,
"Longitude": 13.935
}
},
{
"Name": "Muntić - Monticchio",
"PostCode": "52100",
"Location": {
"Latitude": 44.9258,
"Longitude": 13.9469
}
},
{
"Name": "Peroj - Peroi",
"PostCode": "52100",
"Location": {
"Latitude": 44.9519,
"Longitude": 13.7969
}
},
{
"Name": "Pješčana uvala",
"PostCode": "52100",
"Location": {
"Latitude": 44.8369,
"Longitude": 13.8482
}
},
{
"Name": "Pomer",
"PostCode": "52100",
"Location": {
"Latitude": 44.8239,
"Longitude": 13.8958
}
},
{
"Name": "Premantura",
"PostCode": "52100",
"Location": {
"Latitude": 44.8006,
"Longitude": 13.9086
}
},
{
"Name": "Pula - Pola",
"PostCode": "52100",
"Location": {
"Latitude": 44.8768,
"Longitude": 13.8833
}
},
{
"Name": "Šišan - Sissano",
"PostCode": "52100",
"Location": {
"Latitude": 44.8522,
"Longitude": 13.9425
}
},
{
"Name": "Valbandon",
"PostCode": "52100",
"Location": {
"Latitude": 44.9188,
"Longitude": 13.8134
}
},
{
"Name": "Valbonaša",
"PostCode": "52100",
"Location": {
"Latitude": 44.8768,
"Longitude": 13.8833
}
},
{
"Name": "Valtura - Altura",
"PostCode": "52100",
"Location": {
"Latitude": 44.9053,
"Longitude": 13.9578
}
},
{
"Name": "Vinkuran",
"PostCode": "52100",
"Location": {
"Latitude": 44.8361,
"Longitude": 13.8622
}
},
{
"Name": "Vintijan",
"PostCode": "52100",
"Location": {
"Latitude": 44.8461,
"Longitude": 13.8594
}
},
{
"Name": "Vodnjan - Dignano",
"PostCode": "52100",
"Location": {
"Latitude": 44.8768,
"Longitude": 13.8833
}
}
],
"PostCode": "52100"
},
{
"Name": "Barban",
"Places": [
{
"Name": "Barban",
"PostCode": "52207",
"Location": {
"Latitude": 45.0644,
"Longitude": 14.0136
}
},
{
"Name": "Belavići",
"PostCode": "52207",
"Location": {
"Latitude": 45.0161,
"Longitude": 13.9731
}
},
{
"Name": "Bičići",
"PostCode": "52207",
"Location": {
"Latitude": 45.0242,
"Longitude": 13.9314
}
},
{
"Name": "Borinići",
"PostCode": "52207",
"Location": {
"Latitude": 45.0283,
"Longitude": 13.9803
}
},
{
"Name": "Bratulići",
"PostCode": "52207",
"Location": {
"Latitude": 45.0161,
"Longitude": 13.9731
}
},
{
"Name": "Cokuni",
"PostCode": "52207",
"Location": {
"Latitude": 45.0161,
"Longitude": 13.9731
}
},
{
"Name": "Divšići",
"PostCode": "52207",
"Location": {
"Latitude": 44.9911,
"Longitude": 13.9283
}
},
{
"Name": "Draguzeti",
"PostCode": "52207",
"Location": {
"Latitude": 45.0161,
"Longitude": 13.9731
}
},
{
"Name": "Filipana",
"PostCode": "52207",
"Location": {
"Latitude": 44.9967,
"Longitude": 13.9536
}
},
{
"Name": "Glavani",
"PostCode": "52207",
"Location": {
"Latitude": 45.0192,
"Longitude": 13.9553
}
},
{
"Name": "Grandići",
"PostCode": "52207",
"Location": {
"Latitude": 45.0647,
"Longitude": 13.9736
}
},
{
"Name": "Hrboki",
"PostCode": "52207",
"Location": {
"Latitude": 45.0289,
"Longitude": 14.0194
}
},
{
"Name": "Hreljići",
"PostCode": "52207",
"Location": {
"Latitude": 45.0125,
"Longitude": 13.9833
}
},
{
"Name": "Jurićev Kal",
"PostCode": "52207",
"Location": {
"Latitude": 45.1003,
"Longitude": 13.9947
}
},
{
"Name": "Kavran",
"PostCode": "52207",
"Location": {
"Latitude": 44.9,
"Longitude": 14.0
}
},
{
"Name": "Koromani",
"PostCode": "52207",
"Location": {
"Latitude": 45.0964,
"Longitude": 13.9956
}
},
{
"Name": "Kožljani",
"PostCode": "52207",
"Location": {
"Latitude": 45.0161,
"Longitude": 13.9731
}
},
{
"Name": "Krnica",
"PostCode": "52207",
"Location": {
"Latitude": 44.9727,
"Longitude": 14.0175
}
},
{
"Name": "Kujići",
"PostCode": "52207",
"Location": {
"Latitude": 45.012,
"Longitude": 13.9868
}
},
{
"Name": "Loborika",
"PostCode": "52207",
"Location": {
"Latitude": 44.9153,
"Longitude": 13.9056
}
},
{
"Name": "Mali Vareški",
"PostCode": "52207",
"Location": {
"Latitude": 44.95,
"Longitude": 14.0167
}
},
{
"Name": "Manjadvorci",
"PostCode": "52207",
"Location": {
"Latitude": 45.0075,
"Longitude": 13.9736
}
},
{
"Name": "Marčana",
"PostCode": "52207",
"Location": {
"Latitude": 44.9553,
"Longitude": 13.9539
}
},
{
"Name": "Melnica",
"PostCode": "52207",
"Location": {
"Latitude": 45.0708,
"Longitude": 14.0167
}
},
{
"Name": "Mutvoran",
"PostCode": "52207",
"Location": {
"Latitude": 44.9589,
"Longitude": 13.9844
}
},
{
"Name": "Orbanići",
"PostCode": "52207",
"Location": {
"Latitude": 45.0036,
"Longitude": 13.9172
}
},
{
"Name": "Orihi",
"PostCode": "52207",
"Location": {
"Latitude": 45.0675,
"Longitude": 13.9453
}
},
{
"Name": "Pavićini",
"PostCode": "52207",
"Location": {
"Latitude": 44.9286,
"Longitude": 14.0006
}
},
{
"Name": "Peruški",
"PostCode": "52207",
"Location": {
"Latitude": 44.9472,
"Longitude": 14.0122
}
},
{
"Name": "Petehi",
"PostCode": "52207",
"Location": {
"Latitude": 45.0786,
"Longitude": 13.9636
}
},
{
"Name": "Pinezići",
"PostCode": "52207",
"Location": {
"Latitude": 44.965,
"Longitude": 13.935
}
},
{
"Name": "Prhati",
"PostCode": "52207",
"Location": {
"Latitude": 45.2847,
"Longitude": 13.7864
}
},
{
"Name": "Prodol",
"PostCode": "52207",
"Location": {
"Latitude": 45.0003,
"Longitude": 13.9701
}
},
{
"Name": "Puntera",
"PostCode": "52207",
"Location": {
"Latitude": 45.0506,
"Longitude": 14.0206
}
},
{
"Name": "Rajki",
"PostCode": "52207",
"Location": {
"Latitude": 45.0869,
"Longitude": 13.9606
}
},
{
"Name": "Rakalj",
"PostCode": "52207",
"Location": {
"Latitude": 44.9833,
"Longitude": 14.05
}
},
{
"Name": "Rebići",
"PostCode": "52207",
"Location": {
"Latitude": 45.0153,
"Longitude": 14.0242
}
},
{
"Name": "Rojnići",
"PostCode": "52207",
"Location": {
"Latitude": 45.0897,
"Longitude": 13.9592
}
},
{
"Name": "Šajini",
"PostCode": "52207",
"Location": {
"Latitude": 45.0319,
"Longitude": 13.9431
}
},
{
"Name": "Šarići",
"PostCode": "52207",
"Location": {
"Latitude": 44.9831,
"Longitude": 13.9369
}
},
{
"Name": "Šegotići",
"PostCode": "52207",
"Location": {
"Latitude": 44.9397,
"Longitude": 14.0011
}
},
{
"Name": "Vadreš",
"PostCode": "52207",
"Location": {
"Latitude": 45.0161,
"Longitude": 13.9731
}
},
{
"Name": "Veliki Vareški",
"PostCode": "52207",
"Location": {
"Latitude": 44.9394,
"Longitude": 13.9908
}
},
{
"Name": "Želiski",
"PostCode": "52207",
"Location": {
"Latitude": 45.0481,
"Longitude": 13.9769
}
}
],
"PostCode": "52207"
},
{
"Name": "Rovinj (Rovigno)",
"Places": [
{
"Name": "Bale - Valle",
"PostCode": "52210",
"Location": {
"Latitude": 45.0406,
"Longitude": 13.7836
}
},
{
"Name": "Golaš",
"PostCode": "52210",
"Location": {
"Latitude": 45.0808,
"Longitude": 13.7686
}
},
{
"Name": "Krmed",
"PostCode": "52210",
"Location": {
"Latitude": 45.0819,
"Longitude": 13.825
}
},
{
"Name": "Rovinj - Rovigno",
"PostCode": "52210",
"Location": {
"Latitude": 45.0774,
"Longitude": 13.7732
}
},
{
"Name": "Rovinjsko Selo",
"PostCode": "52210",
"Location": {
"Latitude": 45.1064,
"Longitude": 13.7156
}
}
],
"PostCode": "52210"
},
{
"Name": "Labin",
"Places": [
{
"Name": "Barbići",
"PostCode": "52220",
"Location": {
"Latitude": 45.0869,
"Longitude": 14.0531
}
},
{
"Name": "Bartići",
"PostCode": "52220",
"Location": {
"Latitude": 45.1006,
"Longitude": 14.0574
}
},
{
"Name": "Breg",
"PostCode": "52220",
"Location": {
"Latitude": 45.4478,
"Longitude": 13.7083
}
},
{
"Name": "Brgod",
"PostCode": "52220",
"Location": {
"Latitude": 45.1006,
"Longitude": 14.0574
}
},
{
"Name": "Brovinje",
"PostCode": "52220",
"Location": {
"Latitude": 44.9697,
"Longitude": 14.1008
}
},
{
"Name": "Cere",
"PostCode": "52220",
"Location": {
"Latitude": 45.1114,
"Longitude": 13.9531
}
},
{
"Name": "Crni",
"PostCode": "52220",
"Location": {
"Latitude": 45.3814,
"Longitude": 13.6294
}
},
{
"Name": "Drenje",
"PostCode": "52220",
"Location": {
"Latitude": 45.0189,
"Longitude": 14.1486
}
},
{
"Name": "Duga Luka",
"PostCode": "52220",
"Location": {
"Latitude": 45.1006,
"Longitude": 14.0574
}
},
{
"Name": "Eržišće",
"PostCode": "52220",
"Location": {
"Latitude": 45.1006,
"Longitude": 14.0574
}
},
{
"Name": "Frančići",
"PostCode": "52220",
"Location": {
"Latitude": 45.1006,
"Longitude": 14.0574
}
},
{
"Name": "Gondolići",
"PostCode": "52220",
"Location": {
"Latitude": 45.1006,
"Longitude": 14.0574
}
},
{
"Name": "Gora Glušići",
"PostCode": "52220",
"Location": {
"Latitude": 45.1006,
"Longitude": 14.0574
}
},
{
"Name": "Jurazini",
"PostCode": "52220",
"Location": {
"Latitude": 45.1006,
"Longitude": 14.0574
}
},
{
"Name": "Kapelica",
"PostCode": "52220",
"Location": {
"Latitude": 45.1006,
"Longitude": 14.0574
}
},
{
"Name": "Koromačno",
"PostCode": "52220",
"Location": {
"Latitude": 44.9806,
"Longitude": 14.1222
}
},
{
"Name": "Kraj Drage",
"PostCode": "52220",
"Location": {
"Latitude": 45.1006,
"Longitude": 14.0574
}
},
{
"Name": "Kranjci",
"PostCode": "52220",
"Location": {
"Latitude": 45.1006,
"Longitude": 14.0574
}
},
{
"Name": "Krapan",
"PostCode": "52220",
"Location": {
"Latitude": 45.0883,
"Longitude": 14.0964
}
},
{
"Name": "Kunj",
"PostCode": "52220",
"Location": {
"Latitude": 45.0817,
"Longitude": 14.0453
}
},
{
"Name": "Labin",
"PostCode": "52220",
"Location": {
"Latitude": 45.095,
"Longitude": 14.1197
}
},
{
"Name": "Letajac",
"PostCode": "52220",
"Location": {
"Latitude": 45.1006,
"Longitude": 14.0574
}
},
{
"Name": "Mali Golji",
"PostCode": "52220",
"Location": {
"Latitude": 45.1006,
"Longitude": 14.0574
}
},
{
"Name": "Mali Turini",
"PostCode": "52220",
"Location": {
"Latitude": 45.0942,
"Longitude": 14.0419
}
},
{
"Name": "Marceljani",
"PostCode": "52220",
"Location": {
"Latitude": 45.1006,
"Longitude": 14.0574
}
},
{
"Name": "Marići",
"PostCode": "52220",
"Location": {
"Latitude": 45.1122,
"Longitude": 13.8547
}
},
{
"Name": "Markoci",
"PostCode": "52220",
"Location": {
"Latitude": 45.1006,
"Longitude": 14.0574
}
},
{
"Name": "Most-Raša",
"PostCode": "52220",
"Location": {
"Latitude": 45.1006,
"Longitude": 14.0574
}
},
{
"Name": "Nedešćina",
"PostCode": "52220",
"Location": {
"Latitude": 45.14,
"Longitude": 14.1119
}
},
{
"Name": "Paradiž",
"PostCode": "52220",
"Location": {
"Latitude": 45.1006,
"Longitude": 14.0574
}
},
{
"Name": "Plomin",
"PostCode": "52220",
"Location": {
"Latitude": 45.1367,
"Longitude": 14.1811
}
},
{
"Name": "Plomin Luka",
"PostCode": "52220",
"Location": {
"Latitude": 45.1353,
"Longitude": 14.173
}
},
{
"Name": "Polje",
"PostCode": "52220",
"Location": {
"Latitude": 45.1906,
"Longitude": 14.1308
}
},
{
"Name": "Presika",
"PostCode": "52220",
"Location": {
"Latitude": 45.2964,
"Longitude": 13.6256
}
},
{
"Name": "Rabac",
"PostCode": "52220",
"Location": {
"Latitude": 45.0794,
"Longitude": 14.1575
}
},
{
"Name": "Raša",
"PostCode": "52220",
"Location": {
"Latitude": 45.0803,
"Longitude": 14.0789
}
},
{
"Name": "Ravni",
"PostCode": "52220",
"Location": {
"Latitude": 44.9964,
"Longitude": 14.1642
}
},
{
"Name": "Ripenda Kosi",
"PostCode": "52220",
"Location": {
"Latitude": 45.1006,
"Longitude": 14.0574
}
},
{
"Name": "Ripenda Kras",
"PostCode": "52220",
"Location": {
"Latitude": 45.1006,
"Longitude": 14.0574
}
},
{
"Name": "Ripenda Verbanci",
"PostCode": "52220",
"Location": {
"Latitude": 45.1006,
"Longitude": 14.0574
}
},
{
"Name": "Rogočana",
"PostCode": "52220",
"Location": {
"Latitude": 45.1006,
"Longitude": 14.0574
}
},
{
"Name": "Ružići",
"PostCode": "52220",
"Location": {
"Latitude": 45.1456,
"Longitude": 14.0628
}
},
{
"Name": "Salakovci",
"PostCode": "52220",
"Location": {
"Latitude": 45.0564,
"Longitude": 14.091
}
},
{
"Name": "Santalezi",
"PostCode": "52220",
"Location": {
"Latitude": 45.1361,
"Longitude": 14.0978
}
},
{
"Name": "Skitača",
"PostCode": "52220",
"Location": {
"Latitude": 44.9817,
"Longitude": 14.1444
}
},
{
"Name": "Skvaranska",
"PostCode": "52220",
"Location": {
"Latitude": 44.9875,
"Longitude": 14.16
}
},
{
"Name": "Snašići",
"PostCode": "52220",
"Location": {
"Latitude": 45.1006,
"Longitude": 14.0574
}
},
{
"Name": "Stanišovi",
"PostCode": "52220",
"Location": {
"Latitude": 45.0147,
"Longitude": 14.0919
}
},
{
"Name": "Stepčići",
"PostCode": "52220",
"Location": {
"Latitude": 45.1006,
"Longitude": 14.0574
}
},
{
"Name": "Štrmac",
"PostCode": "52220",
"Location": {
"Latitude": 45.1178,
"Longitude": 14.13
}
},
{
"Name": "Šumber",
"PostCode": "52220",
"Location": {
"Latitude": 45.1672,
"Longitude": 14.0775
}
},
{
"Name": "Sveta Marina",
"PostCode": "52220",
"Location": {
"Latitude": 45.1006,
"Longitude": 14.0574
}
},
{
"Name": "Sveti Bartul",
"PostCode": "52220",
"Location": {
"Latitude": 45.1006,
"Longitude": 14.0574
}
},
{
"Name": "Sveti Lovreč Labinski",
"PostCode": "52220",
"Location": {
"Latitude": 44.9854,
"Longitude": 14.1017
}
},
{
"Name": "Sveti Martin",
"PostCode": "52220",
"Location": {
"Latitude": 45.1275,
"Longitude": 14.0511
}
},
{
"Name": "Topid",
"PostCode": "52220",
"Location": {
"Latitude": 45.1006,
"Longitude": 14.0574
}
},
{
"Name": "Trget",
"PostCode": "52220",
"Location": {
"Latitude": 45.0225,
"Longitude": 14.0561
}
},
{
"Name": "Trgetari",
"PostCode": "52220",
"Location": {
"Latitude": 45.0164,
"Longitude": 14.065
}
},
{
"Name": "Veli Golji",
"PostCode": "52220",
"Location": {
"Latitude": 45.0975,
"Longitude": 14.0742
}
},
{
"Name": "Veli Turini",
"PostCode": "52220",
"Location": {
"Latitude": 45.1,
"Longitude": 14.0364
}
},
{
"Name": "Vinež",
"PostCode": "52220",
"Location": {
"Latitude": 45.0981,
"Longitude": 14.1069
}
},
{
"Name": "Viškovići",
"PostCode": "52220",
"Location": {
"Latitude": 44.9883,
"Longitude": 14.1131
}
},
{
"Name": "Vozilići",
"PostCode": "52220",
"Location": {
"Latitude": 45.1567,
"Longitude": 14.1658
}
},
{
"Name": "Vrećari",
"PostCode": "52220",
"Location": {
"Latitude": 45.1006,
"Longitude": 14.0574
}
},
{
"Name": "Zagorje",
"PostCode": "52220",
"Location": {
"Latitude": 45.1006,
"Longitude": 14.0574
}
},
{
"Name": "Županići",
"PostCode": "52220",
"Location": {
"Latitude": 45.1006,
"Longitude": 14.0574
}
}
],
"PostCode": "52220"
},
{
"Name": "Podpićan",
"Places": [
{
"Name": "Blaškovići",
"PostCode": "52333",
"Location": {
"Latitude": 45.2331,
"Longitude": 14.1264
}
},
{
"Name": "Boljevići",
"PostCode": "52333",
"Location": {
"Latitude": 45.2331,
"Longitude": 14.1264
}
},
{
"Name": "Čambarelići",
"PostCode": "52333",
"Location": {
"Latitude": 45.2331,
"Longitude": 14.1264
}
},