[
{
"Name": "Zagrebačka",
"Provinces": [
{
"Communities": [
{
"Name": "Zagreb",
"Places": [
{
"Name": "Sljeme",
"PostCode": "10000",
"LatLong": "45.7333,15.9667"
},
{
"Name": "Zagreb-dio",
"PostCode": "10000",
"LatLong": "45.7333,15.9667"
},
{
"Name": "Zagreb-Trešnjevka",
"PostCode": "10110",
"LatLong": "45.7769,16.068"
}
]
},
{
"Name": "Zagreb-Sloboština",
"Places": [
{
"Name": "Buzin",
"PostCode": "10010",
"LatLong": "45.75,16"
},
{
"Name": "Veliko Polje",
"PostCode": "10010",
"LatLong": "45.75,16"
},
{
"Name": "Zagreb-dio",
"PostCode": "10010",
"LatLong": "45.75,16"
}
]
},
{
"Name": "Zagreb-Novi Zagreb",
"Places": [
{
"Name": "Botinec",
"PostCode": "10020",
"LatLong": "45.75,15.95"
},
{
"Name": "Donji Čehi",
"PostCode": "10020",
"LatLong": "45.7333,15.9667"
},
{
"Name": "Gornji Čehi",
"PostCode": "10020",
"LatLong": "45.75,15.9667"
},
{
"Name": "Hrašće Turopoljsko",
"PostCode": "10020",
"LatLong": "45.7333,16"
},
{
"Name": "Mala Mlaka",
"PostCode": "10020",
"LatLong": "45.7333,15.9667"
},
{
"Name": "Odra",
"PostCode": "10020",
"LatLong": "45.7333,16"
},
{
"Name": "Odranski Obrež",
"PostCode": "10020",
"LatLong": "45.7167,15.9333"
},
{
"Name": "Strmec",
"PostCode": "10020",
"LatLong": "45.7,15.9167"
},
{
"Name": "Zagreb-dio",
"PostCode": "10020",
"LatLong": "45.7312,15.9625"
}
]
},
{
"Name": "Zagreb-Dubrava",
"Places": [
{
"Name": "Zagreb-dio",
"PostCode": "10040",
"LatLong": "45.7333,15.9667"
}
]
},
{
"Name": "Zagreb-Susedgrad",
"Places": [
{
"Name": "Zagreb-dio",
"PostCode": "10090",
"LatLong": "45.7333,15.9667"
}
]
},
{
"Name": "Lučko",
"Places": [
{
"Name": "Ježdovec",
"PostCode": "10250",
"LatLong": "45.7833,15.85"
},
{
"Name": "Lučko",
"PostCode": "10250",
"LatLong": "45.7611,15.8703"
}
]
},
{
"Name": "Hrvatski Leskovac",
"Places": [
{
"Name": "Demerje",
"PostCode": "10251",
"LatLong": "45.7419,15.9075"
},
{
"Name": "Hrvatski Leskovac",
"PostCode": "10251",
"LatLong": "45.7419,15.9075"
}
]
},
{
"Name": "Donji Dragonožec",
"Places": [
{
"Name": "Bukovčak",
"PostCode": "10253",
"LatLong": "45.6538,15.9504"
},
{
"Name": "Donji Dragonožec",
"PostCode": "10253",
"LatLong": "45.6619,15.9469"
},
{
"Name": "Donji Trupci",
"PostCode": "10253",
"LatLong": "45.6538,15.9504"
},
{
"Name": "Gornji Dragonožec",
"PostCode": "10253",
"LatLong": "45.65,15.95"
},
{
"Name": "Gornji Trupci",
"PostCode": "10253",
"LatLong": "45.6538,15.9504"
},
{
"Name": "Gudci",
"PostCode": "10253",
"LatLong": "45.6569,15.9886"
},
{
"Name": "Havidić Selo",
"PostCode": "10253",
"LatLong": "45.6538,15.9504"
},
{
"Name": "Lipnica",
"PostCode": "10253",
"LatLong": "45.6333,15.9167"
},
{
"Name": "Markuševec Turopoljski",
"PostCode": "10253",
"LatLong": "45.6667,15.95"
}
]
},
{
"Name": "Gornji Stupnik",
"Places": [
{
"Name": "Donji Stupnik",
"PostCode": "10255",
"LatLong": "45.7417,15.8917"
},
{
"Name": "Gornji Stupnik",
"PostCode": "10255",
"LatLong": "45.7667,15.85"
},
{
"Name": "Obrež Stupnički",
"PostCode": "10255",
"LatLong": "45.7167,15.9333"
}
]
},
{
"Name": "Brezovica",
"Places": [
{
"Name": "Brebernica",
"PostCode": "10257",
"LatLong": "45.6667,15.8833"
},
{
"Name": "Brezovica",
"PostCode": "10257",
"LatLong": "45.7333,15.8833"
},
{
"Name": "Desprim",
"PostCode": "10257",
"LatLong": "45.7111,15.8861"
},
{
"Name": "Drežnik Brezovički",
"PostCode": "10257",
"LatLong": "45.7111,15.8861"
},
{
"Name": "Goli Breg",
"PostCode": "10257",
"LatLong": "45.7333,15.9"
},
{
"Name": "Graničari",
"PostCode": "10257",
"LatLong": "45.7111,15.8861"
},
{
"Name": "Hudi Bitek",
"PostCode": "10257",
"LatLong": "45.7167,15.8833"
},
{
"Name": "Kupinečki Kraljevec",
"PostCode": "10257",
"LatLong": "45.6833,15.85"
},
{
"Name": "Stavjak",
"PostCode": "10257",
"LatLong": "45.7111,15.8861"
},
{
"Name": "Zadvorsko",
"PostCode": "10257",
"LatLong": "45.7333,15.9167"
}
]
},
{
"Name": "Zaprešić",
"Places": [
{
"Name": "Ivanec Bistranski",
"PostCode": "10290",
"LatLong": "45.8469,15.8314"
},
{
"Name": "Lužnica",
"PostCode": "10290",
"LatLong": "45.8517,15.8196"
},
{
"Name": "Šibice",
"PostCode": "10290",
"LatLong": "45.8517,15.8196"
},
{
"Name": "Zaprešić",
"PostCode": "10290",
"LatLong": "45.8564,15.8078"
}
]
},
{
"Name": "Prigorje Brdovečko",
"Places": [
{
"Name": "Brdovec",
"PostCode": "10291",
"LatLong": "45.8678,15.7833"
},
{
"Name": "Drenje Brdovečko",
"PostCode": "10291",
"LatLong": "45.8741,15.7517"
},
{
"Name": "Javorje",
"PostCode": "10291",
"LatLong": "45.8667,15.7667"
},
{
"Name": "Prigorje Brdovečko",
"PostCode": "10291",
"LatLong": "45.8794,15.7381"
},
{
"Name": "Prudnice",
"PostCode": "10291",
"LatLong": "45.8741,15.7517"
},
{
"Name": "Savski Marof",
"PostCode": "10291",
"LatLong": "45.8642,15.7219"
},
{
"Name": "Trstenik Pušćanski",
"PostCode": "10291",
"LatLong": "45.9,15.75"
},
{
"Name": "Zdenci Brdovečki",
"PostCode": "10291",
"LatLong": "45.8667,15.75"
}
]
},
{
"Name": "Šenkovec",
"Places": [
{
"Name": "Donji Laduč",
"PostCode": "10292",
"LatLong": "45.8833,15.7333"
},
{
"Name": "Gornji Laduč",
"PostCode": "10292",
"LatLong": "45.8833,15.7333"
},
{
"Name": "Harmica",
"PostCode": "10292",
"LatLong": "45.8833,15.7"
},
{
"Name": "Ključ Brdovečki",
"PostCode": "10292",
"LatLong": "45.8667,15.7"
},
{
"Name": "Šenkovec",
"PostCode": "10292",
"LatLong": "45.8889,15.7003"
},
{
"Name": "Vukovo Selo",
"PostCode": "10292",
"LatLong": "45.8811,15.7134"
}
]
},
{
"Name": "Dubravica",
"Places": [
{
"Name": "Bela Gorica",
"PostCode": "10293",
"LatLong": "45.9333,15.7167"
},
{
"Name": "Bobovec Rozganski",
"PostCode": "10293",
"LatLong": "45.95,15.7278"
},
{
"Name": "Donji Čemehovec",
"PostCode": "10293",
"LatLong": "45.95,15.7278"
},
{
"Name": "Dubravica",
"PostCode": "10293",
"LatLong": "45.95,15.7333"
},
{
"Name": "Kraj Gornji -južni dio",
"PostCode": "10293",
"LatLong": "45.95,15.7278"
},
{
"Name": "Kraj Gornji -sjeverni dio",
"PostCode": "10293",
"LatLong": "45.95,15.7278"
},
{
"Name": "Lugarski Breg",
"PostCode": "10293",
"LatLong": "45.95,15.7278"
},
{
"Name": "Lukavec Sutlanski",
"PostCode": "10293",
"LatLong": "45.9667,15.7333"
},
{
"Name": "Pologi",
"PostCode": "10293",
"LatLong": "45.95,15.7278"
},
{
"Name": "Prosinec",
"PostCode": "10293",
"LatLong": "45.95,15.7278"
},
{
"Name": "Rozga",
"PostCode": "10293",
"LatLong": "45.95,15.7278"
},
{
"Name": "Vučilčevo",
"PostCode": "10293",
"LatLong": "45.95,15.7278"
}
]
},
{
"Name": "Donja Pušća",
"Places": [
{
"Name": "Bregovljana",
"PostCode": "10294",
"LatLong": "45.9183,15.7872"
},
{
"Name": "Celine Pušćanske",
"PostCode": "10294",
"LatLong": "45.9183,15.7872"
},
{
"Name": "Donja Pušća",
"PostCode": "10294",
"LatLong": "45.9167,15.7778"
},
{
"Name": "Dubrava Pušćanska",
"PostCode": "10294",
"LatLong": "45.9183,15.7872"
},
{
"Name": "Gornja Pušća",
"PostCode": "10294",
"LatLong": "45.9333,15.7833"
},
{
"Name": "Hrebine",
"PostCode": "10294",
"LatLong": "45.9183,15.7872"
},
{
"Name": "Hruševec Pušćanski",
"PostCode": "10294",
"LatLong": "45.9183,15.7872"
},
{
"Name": "Marija Magdalena",
"PostCode": "10294",
"LatLong": "45.9183,15.7872"
},
{
"Name": "Pojatno",
"PostCode": "10294",
"LatLong": "45.905,15.8006"
},
{
"Name": "Žlebec Gorički",
"PostCode": "10294",
"LatLong": "45.9183,15.7872"
},
{
"Name": "Žlebec Pušćanski",
"PostCode": "10294",
"LatLong": "45.9183,15.7872"
}
]
},
{
"Name": "Kupljenovo",
"Places": [
{
"Name": "Hruševec Kupljenski",
"PostCode": "10295",
"LatLong": "45.9333,15.8167"
},
{
"Name": "Kupljenovo",
"PostCode": "10295",
"LatLong": "45.9333,15.8167"
},
{
"Name": "Merenje",
"PostCode": "10295",
"LatLong": "45.9333,15.8167"
}
]
},
{
"Name": "Luka",
"Places": [
{
"Name": "Krajska Vas",
"PostCode": "10296",
"LatLong": "45.9667,15.8167"
},
{
"Name": "Luka",
"PostCode": "10296",
"LatLong": "45.9667,15.8167"
},
{
"Name": "Pluska",
"PostCode": "10296",
"LatLong": "45.9667,15.8167"
},
{
"Name": "Vadina",
"PostCode": "10296",
"LatLong": "45.9667,15.8167"
},
{
"Name": "Žejinci",
"PostCode": "10296",
"LatLong": "45.9667,15.8167"
}
]
},
{
"Name": "Jakovlje",
"Places": [
{
"Name": "Igrišće",
"PostCode": "10297",
"LatLong": "45.9667,15.8667"
},
{
"Name": "Jakovlje",
"PostCode": "10297",
"LatLong": "45.9514,15.8561"
},
{
"Name": "Kraljev Vrh",
"PostCode": "10297",
"LatLong": "45.95,15.9167"
}
]
},
{
"Name": "Donja Bistra",
"Places": [
{
"Name": "Bukovje Bistransko",
"PostCode": "10298",
"LatLong": "45.8833,15.85"
},
{
"Name": "Donja Bistra",
"PostCode": "10298",
"LatLong": "45.9078,15.8544"
},
{
"Name": "Gornja Bistra",
"PostCode": "10298",
"LatLong": "45.9167,15.9"
},
{
"Name": "Jablanovec",
"PostCode": "10298",
"LatLong": "45.8758,15.8536"
},
{
"Name": "Novaki Bistranski",
"PostCode": "10298",
"LatLong": "45.8833,15.8667"
},
{
"Name": "Oborovo Bistransko",
"PostCode": "10298",
"LatLong": "45.8945,15.868"
},
{
"Name": "Poljanica Bistranska",
"PostCode": "10298",
"LatLong": "45.9,15.8833"
}
]
},
{
"Name": "Marija Gorica",
"Places": [
{
"Name": "Hrastina Brdovečka",
"PostCode": "10299",
"LatLong": "45.9167,15.7333"
},
{
"Name": "Kraj Donji",
"PostCode": "10299",
"LatLong": "45.9167,15.7333"
},
{
"Name": "Križ Brdovečki",
"PostCode": "10299",
"LatLong": "45.9167,15.7333"
},
{
"Name": "Marija Gorica",
"PostCode": "10299",
"LatLong": "45.9167,15.7333"
},
{
"Name": "Oplaznik",
"PostCode": "10299",
"LatLong": "45.9167,15.7333"
}
]
},
{
"Name": "Ivanić-Grad",
"Places": [
{
"Name": "Donji Šarampov",
"PostCode": "10310",
"LatLong": "45.7,16.4167"
},
{
"Name": "Ivanić Grad",
"PostCode": "10310",
"LatLong": "45.7083,16.3969"
},
{
"Name": "Jalševec Breški",
"PostCode": "10310",
"LatLong": "45.7146,16.3909"
},
{
"Name": "Lepšić",
"PostCode": "10310",
"LatLong": "45.7146,16.3909"
},
{
"Name": "Opatinec",
"PostCode": "10310",
"LatLong": "45.7167,16.3833"
},
{
"Name": "Tarno",
"PostCode": "10310",
"LatLong": "45.7333,16.3667"
}
]
},
{
"Name": "Posavski Bregi",
"Places": [
{
"Name": "Greda Breška",
"PostCode": "10311",
"LatLong": "45.6868,16.3426"
},
{
"Name": "Posavski Bregi",
"PostCode": "10311",
"LatLong": "45.6797,16.3536"
},
{
"Name": "Šemovec Breški",
"PostCode": "10311",
"LatLong": "45.6868,16.3426"
},
{
"Name": "Topolje",
"PostCode": "10311",
"LatLong": "45.6508,16.3503"
},
{
"Name": "Trebovec",
"PostCode": "10311",
"LatLong": "45.7167,16.3167"
},
{
"Name": "Zaklepica",
"PostCode": "10311",
"LatLong": "45.7,16.35"
},
{
"Name": "Zelina Breška",
"PostCode": "10311",
"LatLong": "45.6868,16.3426"
}
]
},
{
"Name": "Kloštar Ivanić",
"Places": [
{
"Name": "Bešlinec",
"PostCode": "10312",
"LatLong": "45.7631,16.4506"
},
{
"Name": "Čemernica Lonjska",
"PostCode": "10312",
"LatLong": "45.7667,16.4167"
},
{
"Name": "Donja Obreška",
"PostCode": "10312",
"LatLong": "45.7833,16.45"
},
{
"Name": "Gornja Obreška",
"PostCode": "10312",
"LatLong": "45.7833,16.45"
},
{
"Name": "Kloštar Ivanić",
"PostCode": "10312",
"LatLong": "45.7406,16.4242"
},
{
"Name": "Križci",
"PostCode": "10312",
"LatLong": "45.7667,16.4333"
},
{
"Name": "Lipovec Lonjski",
"PostCode": "10312",
"LatLong": "45.7619,16.4429"
},
{
"Name": "Predavec",
"PostCode": "10312",
"LatLong": "45.75,16.4333"
},
{
"Name": "Šćapovec",
"PostCode": "10312",
"LatLong": "45.75,16.4167"
},
{
"Name": "Sobočani",
"PostCode": "10312",
"LatLong": "45.7322,16.4547"
},
{
"Name": "Stara Marča",
"PostCode": "10312",
"LatLong": "45.7833,16.5"
}
]
},
{
"Name": "Graberje Ivaničko",
"Places": [
{
"Name": "Caginec",
"PostCode": "10313",
"LatLong": "45.7069,16.4746"
},
{
"Name": "Deanovec",
"PostCode": "10313",
"LatLong": "45.6953,16.4819"
},
{
"Name": "Derežani",
"PostCode": "10313",
"LatLong": "45.7,16.4667"
},
{
"Name": "Graberje Ivanićko",
"PostCode": "10313",
"LatLong": "45.7167,16.4833"
},
{
"Name": "Prkos Ivanićki",
"PostCode": "10313",
"LatLong": "45.7136,16.4525"
},
{
"Name": "Šumećani",
"PostCode": "10313",
"LatLong": "45.7089,16.4883"
}
]
},
{
"Name": "Križ",
"Places": [
{
"Name": "Bunjani",
"PostCode": "10314",
"LatLong": "45.7,16.5"
},
{
"Name": "Donji Prnjarovec",
"PostCode": "10314",
"LatLong": "45.6833,16.55"
},
{
"Name": "Gornji Prnjarovec",
"PostCode": "10314",
"LatLong": "45.6833,16.5333"
},
{
"Name": "Johovec",
"PostCode": "10314",
"LatLong": "45.6667,16.4833"
},
{
"Name": "Križ",
"PostCode": "10314",
"LatLong": "45.665,16.5233"
},
{
"Name": "Mala Hrastilnica",
"PostCode": "10314",
"LatLong": "45.65,16.5"
},
{
"Name": "Širinec",
"PostCode": "10314",
"LatLong": "45.6783,16.4994"
},
{
"Name": "Šušnjari",
"PostCode": "10314",
"LatLong": "45.693,16.5327"
},
{
"Name": "Velika Hrastilnica",
"PostCode": "10314",
"LatLong": "45.65,16.4833"
}
]
},
{
"Name": "Novoselec",
"Places": [
{
"Name": "Konšćani",
"PostCode": "10315",
"LatLong": "45.6667,16.55"
},
{
"Name": "Novoselec",
"PostCode": "10315",
"LatLong": "45.6525,16.5364"
},
{
"Name": "Obedišće",
"PostCode": "10315",
"LatLong": "45.6331,16.5553"
},
{
"Name": "Okešinec",
"PostCode": "10315",
"LatLong": "45.6347,16.5339"
},
{
"Name": "Razljev",
"PostCode": "10315",
"LatLong": "45.6442,16.5483"
},
{
"Name": "Rečica Kriška",
"PostCode": "10315",
"LatLong": "45.6617,16.5808"
},
{
"Name": "Vezišće",
"PostCode": "10315",
"LatLong": "45.6167,16.5333"
}
]
},
{
"Name": "Lijevi Dubrovčak",
"Places": [
{
"Name": "Lijevi Dubrovčak",
"PostCode": "10316",
"LatLong": "45.6517,16.3456"
},
{
"Name": "Prerovec",
"PostCode": "10316",
"LatLong": "45.6447,16.3033"
}
]
},
{
"Name": "Vrbovec",
"Places": [
{
"Name": "Banovo",
"PostCode": "10340",
"LatLong": "45.9161,16.4046"
},
{
"Name": "Brčevec",
"PostCode": "10340",
"LatLong": "45.8667,16.4167"
},
{
"Name": "Celine",
"PostCode": "10340",
"LatLong": "45.8931,16.4047"
},
{
"Name": "Cerik",
"PostCode": "10340",
"LatLong": "45.9161,16.4046"
},
{
"Name": "Cerje",
"PostCode": "10340",
"LatLong": "45.9,16.4167"
},
{
"Name": "Dijaneš",
"PostCode": "10340",
"LatLong": "45.9,16.35"
},
{
"Name": "Đivan",
"PostCode": "10340",
"LatLong": "45.9161,16.4046"
},
{
"Name": "Gaj",
"PostCode": "10340",
"LatLong": "45.8989,16.3725"
},
{
"Name": "Gostović",
"PostCode": "10340",
"LatLong": "45.9161,16.4046"
},
{
"Name": "Graberanec",
"PostCode": "10340",
"LatLong": "45.9161,16.4046"
},
{
"Name": "Hruškovica",
"PostCode": "10340",
"LatLong": "45.9333,16.4167"
},
{
"Name": "Konak",
"PostCode": "10340",
"LatLong": "45.9161,16.4046"
},
{
"Name": "Krkač",
"PostCode": "10340",
"LatLong": "45.9167,16.3333"
},
{
"Name": "Kućari",
"PostCode": "10340",
"LatLong": "45.9161,16.4046"
},
{
"Name": "Lazarevac",
"PostCode": "10340",
"LatLong": "45.9161,16.4046"
},
{
"Name": "Lovrečka Varoš",
"PostCode": "10340",
"LatLong": "45.9167,16.4167"
},
{
"Name": "Lovrečka Velika",
"PostCode": "10340",
"LatLong": "45.9161,16.4046"
},
{
"Name": "Luka",
"PostCode": "10340",
"LatLong": "45.8783,16.3817"
},
{
"Name": "Lukovo",
"PostCode": "10340",
"LatLong": "45.9167,16.4"
},
{
"Name": "Marenić",
"PostCode": "10340",
"LatLong": "45.9161,16.4046"
},
{
"Name": "Martinska Ves",
"PostCode": "10340",
"LatLong": "45.9161,16.4046"
},
{
"Name": "Naselje Stjepana Radića",
"PostCode": "10340",
"LatLong": "45.9161,16.4046"
},
{
"Name": "Novo Selo",
"PostCode": "10340",
"LatLong": "46.3308,16.4325"
},
{
"Name": "Podolec",
"PostCode": "10340",
"LatLong": "45.9161,16.4046"
},
{
"Name": "Poljana",
"PostCode": "10340",
"LatLong": "45.85,16.45"
},
{
"Name": "Poljanski Lug",
"PostCode": "10340",
"LatLong": "45.8333,16.4167"
},
{
"Name": "Prilesje",
"PostCode": "10340",
"LatLong": "45.85,16.4167"
},
{
"Name": "Savska Cesta",
"PostCode": "10340",
"LatLong": "45.9161,16.4046"
},
{
"Name": "Topolovec",
"PostCode": "10340",
"LatLong": "45.9,16.4"
},
{
"Name": "Vrbovec",
"PostCode": "10340",
"LatLong": "45.8833,16.4217"
},
{
"Name": "Vrbovečki Pavlovec",
"PostCode": "10340",
"LatLong": "45.9061,16.4314"
}
]
},
{
"Name": "Lonjica",
"Places": [
{
"Name": "Dulepska",
"PostCode": "10341",
"LatLong": "45.8723,16.3374"
},
{
"Name": "Greda",
"PostCode": "10341",
"LatLong": "45.8667,16.35"
},
{
"Name": "Lonjica",
"PostCode": "10341",
"LatLong": "45.855,16.33"
},
{
"Name": "Negovec",
"PostCode": "10341",
"LatLong": "45.8833,16.3167"
},
{
"Name": "Peskovec",
"PostCode": "10341",
"LatLong": "45.8731,16.3236"
},
{
"Name": "Pirakovec",
"PostCode": "10341",
"LatLong": "45.8833,16.3667"
}
]
},
{
"Name": "Dubrava",
"Places": [
{
"Name": "Bađinec",
"PostCode": "10342",
"LatLong": "45.8144,16.5614"
},
{
"Name": "Brezje",
"PostCode": "10342",
"LatLong": "45.8333,16.5333"
},
{
"Name": "Donji Marinkovac",
"PostCode": "10342",
"LatLong": "45.7833,16.5"
},
{
"Name": "Donji Vukašinac",
"PostCode": "10342",
"LatLong": "45.8219,16.5336"
},
{
"Name": "Dubrava",
"PostCode": "10342",
"LatLong": "45.8381,16.5439"
},
{
"Name": "Dubravski Markovac",
"PostCode": "10342",
"LatLong": "45.85,16.5167"
},
{
"Name": "Gornji Marinkovac",
"PostCode": "10342",
"LatLong": "45.8,16.5"
},
{
"Name": "Gornji Vukašinac",
"PostCode": "10342",
"LatLong": "45.8219,16.5336"
},
{
"Name": "Graberec",
"PostCode": "10342",
"LatLong": "45.8,16.55"
},
{
"Name": "Koritna",
"PostCode": "10342",
"LatLong": "45.8642,16.5019"
},
{
"Name": "Kostanj",
"PostCode": "10342",
"LatLong": "45.8333,16.5833"
},
{
"Name": "Ladina",
"PostCode": "10342",
"LatLong": "45.85,16.5167"
},
{
"Name": "Mostari",
"PostCode": "10342",
"LatLong": "45.7831,16.5036"
},
{
"Name": "Novaki",
"PostCode": "10342",
"LatLong": "45.8333,16.5667"
},
{
"Name": "Paruževac",
"PostCode": "10342",
"LatLong": "45.8333,16.5"
},
{
"Name": "Pehardovac",
"PostCode": "10342",
"LatLong": "45.8219,16.5336"
},
{
"Name": "Podlužan",
"PostCode": "10342",
"LatLong": "45.8167,16.5667"
},
{
"Name": "Radulec",
"PostCode": "10342",
"LatLong": "45.8219,16.5336"
},
{
"Name": "Svinjarec",
"PostCode": "10342",
"LatLong": "45.8,16.5667"
},
{
"Name": "Zetkan",
"PostCode": "10342",
"LatLong": "45.8167,16.55"
},
{
"Name": "Zgališće",
"PostCode": "10342",
"LatLong": "45.8219,16.5336"
},
{
"Name": "Žukovec",
"PostCode": "10342",
"LatLong": "45.8219,16.5336"
},
{
"Name": "Zvekovac",
"PostCode": "10342",
"LatLong": "45.8228,16.5103"
}
]
},
{
"Name": "Nova Kapela",
"Places": [
{
"Name": "Fuka",
"PostCode": "10343",
"LatLong": "45.8833,16.5333"
},
{
"Name": "Habjanovac",
"PostCode": "10343",
"LatLong": "45.8667,16.55"
},
{
"Name": "Haganj",
"PostCode": "10343",
"LatLong": "45.91,16.5819"
},
{
"Name": "Nova Kapela",
"PostCode": "10343",
"LatLong": "45.1989,17.6392"
},
{
"Name": "Stara Kapela",
"PostCode": "10343",
"LatLong": "45.2364,17.6878"
},
{
"Name": "Stari Glog",
"PostCode": "10343",
"LatLong": "45.9,16.55"
},
{
"Name": "Žabnica",
"PostCode": "10343",
"LatLong": "45.6659,16.9237"
}
]
},
{
"Name": "Farkaševac",
"Places": [
{
"Name": "Bolč",
"PostCode": "10344",
"LatLong": "45.8872,16.6789"
},
{
"Name": "Brezine",
"PostCode": "10344",
"LatLong": "45.4567,17.0364"
},
{
"Name": "Donji Markovac",
"PostCode": "10344",
"LatLong": "45.85,16.6667"
},
{
"Name": "Farkaševac",
"PostCode": "10344",
"LatLong": "45.8794,16.6408"
},
{
"Name": "Ivančani",
"PostCode": "10344",
"LatLong": "45.8667,16.6167"
},
{
"Name": "Kabal",
"PostCode": "10344",
"LatLong": "45.8594,16.6406"
},
{
"Name": "Mački",
"PostCode": "10344",
"LatLong": "45.65,15.9167"
},
{
"Name": "Majur",
"PostCode": "10344",
"LatLong": "45.9167,16.7"
},
{
"Name": "Prašćevac",
"PostCode": "10344",
"LatLong": "45.9167,16.65"
},
{
"Name": "Zvonik",
"PostCode": "10344",
"LatLong": "45.9,16.65"
}
]
},
{
"Name": "Gradec",
"Places": [
{
"Name": "Buzadovac",
"PostCode": "10345",
"LatLong": "45.95,16.5667"
},
{
"Name": "Cugovec",
"PostCode": "10345",
"LatLong": "45.9117,16.5189"
},
{
"Name": "Festinec",
"PostCode": "10345",
"LatLong": "45.95,16.5167"
},
{
"Name": "Grabrić",
"PostCode": "10345",
"LatLong": "45.9475,16.4879"
},
{
"Name": "Gradec",
"PostCode": "10345",
"LatLong": "45.9111,16.4828"
},
{
"Name": "Gradečki Pavlovec",
"PostCode": "10345",
"LatLong": "45.9,16.4833"
},
{
"Name": "Lubena",
"PostCode": "10345",
"LatLong": "45.9475,16.4879"
},
{
"Name": "Mali Brezovec",
"PostCode": "10345",
"LatLong": "45.9475,16.4879"
},
{
"Name": "Podjales",
"PostCode": "10345",
"LatLong": "45.9333,16.5"
},
{
"Name": "Pokasin",
"PostCode": "10345",
"LatLong": "45.9667,16.5167"
},
{
"Name": "Potočec",
"PostCode": "10345",
"LatLong": "45.8833,16.4667"
},
{
"Name": "Remetinec",
"PostCode": "10345",
"LatLong": "46.1853,16.3278"
},
{
"Name": "Repinec",
"PostCode": "10345",
"LatLong": "45.9475,16.4879"
},
{
"Name": "Salajci",
"PostCode": "10345",
"LatLong": "45.9475,16.4879"
},
{
"Name": "Tučenik",
"PostCode": "10345",
"LatLong": "45.9475,16.4879"
},
{
"Name": "Veliki Brezovec",
"PostCode": "10345",
"LatLong": "45.9475,16.4879"
},
{
"Name": "Zabrđe",
"PostCode": "10345",
"LatLong": "45.8833,16.5"
}
]
},
{
"Name": "Preseka",
"Places": [
{
"Name": "Gornjaki",
"PostCode": "10346",
"LatLong": "45.947,16.2259"
},
{
"Name": "Kamenica",
"PostCode": "10346",
"LatLong": "46.2453,16.0331"
},
{
"Name": "Kraljev Vrh",
"PostCode": "10346",
"LatLong": "45.95,15.9167"
},
{
"Name": "Krušljevac",
"PostCode": "10346",
"LatLong": "45.9833,16.3833"
},
{
"Name": "Ledina",
"PostCode": "10346",
"LatLong": "46,16.3833"
},
{
"Name": "Pogančec",
"PostCode": "10346",
"LatLong": "45.95,16.3833"
},
{
"Name": "Preseka",
"PostCode": "10346",
"LatLong": "45.9667,16.3833"
},
{
"Name": "Slatina",
"PostCode": "10346",
"LatLong": "45.4747,16.0256"
},
{
"Name": "Strmec",
"PostCode": "10346",
"LatLong": "45.9667,15.9167"
},
{
"Name": "Vinkovec /dio/",
"PostCode": "10346",
"LatLong": "45.947,16.2259"
},
{
"Name": "Žabnjak",
"PostCode": "10346",
"LatLong": "45.9833,16.4"
},
{
"Name": "Žunci",
"PostCode": "10346",
"LatLong": "45.95,16.4333"
}
]
},
{
"Name": "Rakovec",
"Places": [
{
"Name": "Baničevec",
"PostCode": "10347",
"LatLong": "45.9167,16.2833"
},
{
"Name": "Brezani",
"PostCode": "10347",
"LatLong": "45.9167,16.3333"
},
{
"Name": "Dropčevec",
"PostCode": "10347",
"LatLong": "45.8893,16.2376"
},
{
"Name": "Dvorišće",
"PostCode": "10347",
"LatLong": "45.9503,16.3367"
},
{
"Name": "Goli Vrh",
"PostCode": "10347",
"LatLong": "45.6886,15.7164"
},
{
"Name": "Hruškovec",
"PostCode": "10347",
"LatLong": "45.9333,16.3333"
},
{
"Name": "Hudovo",
"PostCode": "10347",
"LatLong": "45.9333,16.35"
},
{
"Name": "Kolenica",
"PostCode": "10347",
"LatLong": "45.8893,16.2376"
},
{
"Name": "Lipnica",
"PostCode": "10347",
"LatLong": "45.6333,15.9167"
},
{
"Name": "Mlaka",
"PostCode": "10347",
"LatLong": "45.9167,16.2833"
},
{
"Name": "Rakovec",
"PostCode": "10347",
"LatLong": "45.9303,16.3225"
},
{
"Name": "Samoborec",
"PostCode": "10347",
"LatLong": "45.8942,16.3167"
},
{
"Name": "Šelovec",
"PostCode": "10347",
"LatLong": "45.9803,16.2639"
},
{
"Name": "Valetić",
"PostCode": "10347",
"LatLong": "45.9667,16.3333"
},
{
"Name": "Vrhovec",
"PostCode": "10347",
"LatLong": "45.9,16.3"
}
]
},
{
"Name": "Sesvete",
"Places": [
{
"Name": "Budenec",
"PostCode": "10360",
"LatLong": "45.8586,16.1289"
},
{
"Name": "Dobrodol",
"PostCode": "10360",
"LatLong": "45.85,16.1"
},
{
"Name": "Goranec",
"PostCode": "10360",
"LatLong": "45.8281,16.1162"
},
{
"Name": "Kućanec",
"PostCode": "10360",
"LatLong": "45.8586,16.1289"
},
{
"Name": "Markovo Polje",
"PostCode": "10360",
"LatLong": "45.8586,16.1289"
},
{
"Name": "Popovec",
"PostCode": "10360",
"LatLong": "45.8536,16.1406"
},
{
"Name": "Šašinovec",
"PostCode": "10360",
"LatLong": "45.85,16.1667"
},
{
"Name": "Sesvete",
"PostCode": "10360",
"LatLong": "45.8311,16.1164"
},
{
"Name": "Šimunčevec",
"PostCode": "10360",
"LatLong": "45.8586,16.1289"
},
{
"Name": "Soblinec",
"PostCode": "10360",
"LatLong": "45.8586,16.1289"
},
{
"Name": "Vuger Selo",
"PostCode": "10360",
"LatLong": "45.8586,16.1289"
},
{
"Name": "Vugrovec Donji",
"PostCode": "10360",
"LatLong": "45.8586,16.1289"
},
{
"Name": "Vugrovec Gornji",
"PostCode": "10360",
"LatLong": "45.8586,16.1289"
},
{
"Name": "Žerjavinec",
"PostCode": "10360",
"LatLong": "45.8667,16.1667"
}
]
},
{
"Name": "Sesvete-Kraljevec",
"Places": [
{
"Name": "Cerje",
"PostCode": "10361",
"LatLong": "45.8333,16.2"
},
{
"Name": "Čista Mlaka",
"PostCode": "10361",
"LatLong": "45.7644,16.1961"
},
{
"Name": "Drenčec",
"PostCode": "10361",
"LatLong": "45.7942,16.1962"
},
{
"Name": "Dumovec",
"PostCode": "10361",
"LatLong": "45.8167,16.1667"
},
{
"Name": "Glavničica",
"PostCode": "10361",
"LatLong": "45.8508,16.2142"
},
{
"Name": "Novaki Nartski",
"PostCode": "10361",
"LatLong": "45.7942,16.1962"
},
{
"Name": "Otok Nartski",
"PostCode": "10361",
"LatLong": "45.7942,16.1962"
},
{
"Name": "Otok Svibovski",
"PostCode": "10361",
"LatLong": "45.7942,16.1962"
},
{
"Name": "Sop",
"PostCode": "10361",
"LatLong": "45.7333,16.2167"
},
{
"Name": "Struga Nartska",
"PostCode": "10361",
"LatLong": "45.7942,16.1962"
},
{
"Name": "Svibje",
"PostCode": "10361",
"LatLong": "45.7942,16.1962"
},
{
"Name": "Trstenik Nartski",
"PostCode": "10361",
"LatLong": "45.7667,16.1833"
}
]
},
{
"Name": "Kašina",
"Places": [
{
"Name": "Blaguša",
"PostCode": "10362",
"LatLong": "45.9286,16.1281"
},
{
"Name": "Đurđekovec",
"PostCode": "10362",
"LatLong": "45.8833,16.1303"
},
{
"Name": "Gajec",
"PostCode": "10362",
"LatLong": "45.9091,16.095"
},
{
"Name": "Kašina",
"PostCode": "10362",
"LatLong": "45.9167,16"
},
{
"Name": "Kašinska Sopnica",
"PostCode": "10362",
"LatLong": "45.9091,16.095"
},
{
"Name": "Kučilovina",
"PostCode": "10362",
"LatLong": "45.9167,16.0833"
},
{
"Name": "Paruževina",
"PostCode": "10362",
"LatLong": "45.9091,16.095"
},
{
"Name": "Planina Donja",
"PostCode": "10362",
"LatLong": "45.9091,16.095"
},
{
"Name": "Planina Gornja",
"PostCode": "10362",
"LatLong": "45.9091,16.095"
},
{
"Name": "Prekvršje",
"PostCode": "10362",
"LatLong": "45.9091,16.095"
},
{
"Name": "Prepuštovec",
"PostCode": "10362",
"LatLong": "45.9,16.1333"
},
{
"Name": "Vurnovec",
"PostCode": "10362",
"LatLong": "45.9091,16.095"
}
]
},
{
"Name": "Belovar",
"Places": [
{
"Name": "Adamovec",
"PostCode": "10363",
"LatLong": "45.9039,16.1719"
},
{
"Name": "Belovar",
"PostCode": "10363",
"LatLong": "45.8828,16.1836"
},
{
"Name": "Glavnica Donja",
"PostCode": "10363",
"LatLong": "45.9403,16.1497"
},
{
"Name": "Glavnica Gornja",
"PostCode": "10363",
"LatLong": "45.9381,16.1403"
},
{
"Name": "Jasenovec",
"PostCode": "10363",
"LatLong": "45.9136,16.1687"
},
{
"Name": "Lužan",
"PostCode": "10363",
"LatLong": "45.8833,16.2"
},
{
"Name": "Moravče",
"PostCode": "10363",
"LatLong": "45.9333,16.1667"
}
]
},
{
"Name": "Dugo Selo",
"Places": [
{
"Name": "Andrilovec",
"PostCode": "10370",
"LatLong": "45.8,16.3"
},
{
"Name": "Božjakovina",
"PostCode": "10370",
"LatLong": "45.8167,16.3167"
},
{
"Name": "Brckovljani",
"PostCode": "10370",
"LatLong": "45.8333,16.3"
},
{
"Name": "Črnec Dugoselski",
"PostCode": "10370",
"LatLong": "45.7893,16.2907"
},
{
"Name": "Črnec Rugvički",
"PostCode": "10370",
"LatLong": "45.7667,16.2667"
},
{
"Name": "Donja Greda",
"PostCode": "10370",
"LatLong": "45.75,16.2833"
},
{
"Name": "Donje Dvorišće",
"PostCode": "10370",
"LatLong": "45.7893,16.2907"
},
{
"Name": "Dragošička",
"PostCode": "10370",
"LatLong": "45.75,16.2333"
},
{
"Name": "Dugo Selo",
"PostCode": "10370",
"LatLong": "45.8061,16.2444"
},
{
"Name": "Gornja Greda",
"PostCode": "10370",
"LatLong": "45.8167,16.3333"
},
{
"Name": "Gornje Dvorišće",
"PostCode": "10370",
"LatLong": "45.7893,16.2907"
},
{
"Name": "Gračec",
"PostCode": "10370",
"LatLong": "45.8333,16.3167"
},
{
"Name": "Hrebinec",
"PostCode": "10370",
"LatLong": "45.7893,16.2907"
},
{
"Name": "Jalševec Nartski",
"PostCode": "10370",
"LatLong": "45.7893,16.2907"
},
{
"Name": "Ježevo",
"PostCode": "10370",
"LatLong": "45.7333,16.3"
},
{
"Name": "Kopčevec",
"PostCode": "10370",
"LatLong": "45.7893,16.2907"
},
{
"Name": "Kozinščak",
"PostCode": "10370",
"LatLong": "45.8167,16.25"
},
{
"Name": "Kusanovec",
"PostCode": "10370",
"LatLong": "45.8167,16.35"
},
{
"Name": "Leprovica",
"PostCode": "10370",
"LatLong": "45.7667,16.2833"
},
{
"Name": "Lukarišće",
"PostCode": "10370",
"LatLong": "45.7893,16.2907"
},
{
"Name": "Lupoglav",
"PostCode": "10370",
"LatLong": "45.7964,16.3464"
},
{
"Name": "Mala Ostrna",
"PostCode": "10370",
"LatLong": "45.7833,16.3"
},
{
"Name": "Nart Savski",
"PostCode": "10370",
"LatLong": "45.7667,16.2"
},
{
"Name": "Obedišće Ježevsko",
"PostCode": "10370",
"LatLong": "45.75,16.3"
},
{
"Name": "Okunšćak",
"PostCode": "10370",
"LatLong": "45.75,16.2167"
},
{
"Name": "Prečec",
"PostCode": "10370",
"LatLong": "45.7667,16.3667"
},
{
"Name": "Prikraj",
"PostCode": "10370",
"LatLong": "45.8333,16.3333"
},
{
"Name": "Prozorje",
"PostCode": "10370",
"LatLong": "45.7893,16.2907"
},
{
"Name": "Puhovo",
"PostCode": "10370",
"LatLong": "45.7833,16.25"
},
{
"Name": "Rugvica",
"PostCode": "10370",
"LatLong": "45.7361,16.2331"
},
{
"Name": "Štakorovec",
"PostCode": "10370",
"LatLong": "45.8667,16.2833"
},
{
"Name": "Stančić",
"PostCode": "10370",
"LatLong": "45.85,16.2833"
},
{
"Name": "Tedrovec",
"PostCode": "10370",
"LatLong": "45.75,16.3667"
},
{
"Name": "Velika Ostrna",
"PostCode": "10370",
"LatLong": "45.7833,16.3"
}
]
},
{
"Name": "Oborovo",
"Places": [
{
"Name": "Novaki Oborovski",
"PostCode": "10372",
"LatLong": "45.7167,16.2167"
},
{
"Name": "Oborovo",
"PostCode": "10372",
"LatLong": "45.6828,16.2569"
},
{
"Name": "Prečno",
"PostCode": "10372",
"LatLong": "45.665,16.2961"
},
{
"Name": "Preseka Oborovska",
"PostCode": "10372",
"LatLong": "45.7,16.2333"
},
{
"Name": "Prevlaka",
"PostCode": "10372",
"LatLong": "45.675,16.2769"
}
]
},
{
"Name": "Ivanja Reka",
"Places": [
{
"Name": "Hruščica",
"PostCode": "10373",
"LatLong": "45.7833,16.15"
},
{
"Name": "Ivanja Reka",
"PostCode": "10373",
"LatLong": "45.8022,16.1189"
}
]
},
{
"Name": "Sveti Ivan Zelina",
"Places": [
{
"Name": "Berislavec",
"PostCode": "10380",
"LatLong": "45.9781,16.2475"
},
{
"Name": "Biškupec Zelinski",
"PostCode": "10380",
"LatLong": "45.9619,16.2425"
},
{
"Name": "Blaževdol",
"PostCode": "10380",
"LatLong": "45.9333,16.2333"
},
{
"Name": "Breg Mokrički",
"PostCode": "10380",
"LatLong": "45.9781,16.2475"
},
{
"Name": "Bukevje",
"PostCode": "10380",
"LatLong": "45.7167,16.2167"
},
{
"Name": "Bukovec Zelinski",
"PostCode": "10380",
"LatLong": "45.9,16.2167"
},
{
"Name": "Črečan",
"PostCode": "10380",
"LatLong": "46.3986,16.3492"
},
{
"Name": "Donja Topličica",
"PostCode": "10380",
"LatLong": "45.9667,16.25"
},
{
"Name": "Donje Orešje",
"PostCode": "10380",
"LatLong": "46,16.25"
},
{
"Name": "Donje Psarjevo",
"PostCode": "10380",
"LatLong": "45.95,16.2333"
},
{
"Name": "Gornja Topličica",
"PostCode": "10380",
"LatLong": "45.9833,16.2333"
},
{
"Name": "Gornje Orešje",
"PostCode": "10380",
"LatLong": "46.0158,16.2236"
},
{
"Name": "Gornje Psarjevo",
"PostCode": "10380",
"LatLong": "45.95,16.2333"
},
{
"Name": "Hrastje",
"PostCode": "10380",
"LatLong": "45.9772,16.2744"
},
{
"Name": "Kalinje",
"PostCode": "10380",
"LatLong": "45.9781,16.2475"
},
{
"Name": "Kladešćica",
"PostCode": "10380",
"LatLong": "45.9781,16.2475"
},
{
"Name": "Kreča Ves",
"PostCode": "10380",
"LatLong": "45.9781,16.2475"
},
{
"Name": "Marinovec Zelinski",
"PostCode": "10380",
"LatLong": "45.9781,16.2475"
},
{
"Name": "Novakovec Bisački",
"PostCode": "10380",
"LatLong": "45.9781,16.2475"
},
{
"Name": "Novo Mjesto",
"PostCode": "10380",
"LatLong": "45.95,16.2833"
},
{
"Name": "Obrež Zelinski",
"PostCode": "10380",
"LatLong": "45.9781,16.2475"
},
{
"Name": "Prepolno",
"PostCode": "10380",
"LatLong": "45.9781,16.2475"
},
{
"Name": "Pretoki",
"PostCode": "10380",
"LatLong": "45.9781,16.2475"
},
{
"Name": "Šalovec",
"PostCode": "10380",
"LatLong": "45.9803,16.2639"
},
{
"Name": "Selnica Psarjevačka",
"PostCode": "10380",
"LatLong": "45.9781,16.2475"
},
{
"Name": "Šulinec",
"PostCode": "10380",
"LatLong": "45.9667,16.25"
},
{
"Name": "Sveti Ivan Zelina",
"PostCode": "10380",
"LatLong": "45.9561,16.2461"
},
{
"Name": "Velika Gora",
"PostCode": "10380",
"LatLong": "45.9781,16.2475"
},
{
"Name": "Žitomir",
"PostCode": "10380",
"LatLong": "46.0214,16.2078"
}
]
},
{
"Name": "Bedenica",
"Places": [
{
"Name": "Bedenica",
"PostCode": "10381",
"LatLong": "46.0333,16.2428"
},
{
"Name": "Beloslavec",
"PostCode": "10381",
"LatLong": "46.0292,16.2448"
},
{
"Name": "Bosna",
"PostCode": "10381",
"LatLong": "46.04,16.2392"
},
{
"Name": "Omamno",
"PostCode": "10381",
"LatLong": "46.0292,16.2448"
},
{
"Name": "Otrčkovec",
"PostCode": "10381",
"LatLong": "46.0292,16.2448"
},
{
"Name": "Šurdovec",
"PostCode": "10381",
"LatLong": "46.0292,16.2448"
},
{
"Name": "Turkovčina",
"PostCode": "10381",
"LatLong": "46.0436,16.2472"
},
{
"Name": "Zadrkovec",
"PostCode": "10381",
"LatLong": "46,16.25"
}
]
},
{
"Name": "Donja Zelina",
"Places": [
{
"Name": "Banje Selo",
"PostCode": "10382",
"LatLong": "45.8458,16.2647"
},
{
"Name": "Blaškovec",
"PostCode": "10382",
"LatLong": "45.9,16.1833"
},
{
"Name": "Brezovec Zelinski",
"PostCode": "10382",
"LatLong": "45.8807,16.2313"
},
{
"Name": "Bukevje",
"PostCode": "10382",
"LatLong": "45.7167,16.2167"
},
{
"Name": "Bukovec Zelinski",
"PostCode": "10382",
"LatLong": "45.9,16.2167"
},
{
"Name": "Bunjak",
"PostCode": "10382",
"LatLong": "45.8807,16.2313"
},
{
"Name": "Curkovec",
"PostCode": "10382",
"LatLong": "45.8807,16.2313"
},
{
"Name": "Donja Drenova",
"PostCode": "10382",
"LatLong": "45.8807,16.2313"
},
{
"Name": "Donja Zelina",
"PostCode": "10382",
"LatLong": "45.9208,16.245"
},
{
"Name": "Goričanec",
"PostCode": "10382",
"LatLong": "45.8807,16.2313"
},
{
"Name": "Goričica",
"PostCode": "10382",
"LatLong": "45.8807,16.2313"
},
{
"Name": "Gornja Drenova",
"PostCode": "10382",
"LatLong": "45.8807,16.2313"
},
{
"Name": "Hrnjanec",
"PostCode": "10382",
"LatLong": "45.9167,16.2"
},
{
"Name": "Križevčec",
"PostCode": "10382",
"LatLong": "45.8833,16.25"
},
{
"Name": "Laktec",
"PostCode": "10382",
"LatLong": "45.86,16.2319"
},
{
"Name": "Majkovec",
"PostCode": "10382",
"LatLong": "45.8833,16.2833"
},
{
"Name": "Nespeš",
"PostCode": "10382",
"LatLong": "45.95,16.2"
},
{
"Name": "Paukovec",
"PostCode": "10382",
"LatLong": "45.8897,16.2178"
},
{
"Name": "Suhodol Zelinski",
"PostCode": "10382",
"LatLong": "45.8807,16.2313"
},
{
"Name": "Sveta Helena",
"PostCode": "10382",
"LatLong": "45.9025,16.2664"
},
{
"Name": "Vukovje Zelinsko",
"PostCode": "10382",
"LatLong": "45.8807,16.2313"
}
]
},
{
"Name": "Komin",
"Places": [
{
"Name": "Dubovec Bisaški",
"PostCode": "10383",
"LatLong": "45.9913,16.3087"
},
{
"Name": "Filipovići",
"PostCode": "10383",
"LatLong": "45.9913,16.3087"
},
{
"Name": "Gornji Vinkovec",
"PostCode": "10383",
"LatLong": "45.9913,16.3087"
},
{
"Name": "Keleminovec",
"PostCode": "10383",
"LatLong": "45.9833,16.2833"
},
{
"Name": "Komin",
"PostCode": "10383",
"LatLong": "46.0036,16.2797"
},
{
"Name": "Mokrica Tomaševečka",
"PostCode": "10383",
"LatLong": "45.9913,16.3087"
},
{
"Name": "Polonje",
"PostCode": "10383",
"LatLong": "45.9667,16.3"
},
{
"Name": "Polonje Tomaševečko",
"PostCode": "10383",
"LatLong": "45.9667,16.3"
},
{
"Name": "Radoišće",
"PostCode": "10383",
"LatLong": "46.0186,16.3306"
},
{
"Name": "Salnik",
"PostCode": "10383",
"LatLong": "45.9833,16.3333"
},
{
"Name": "Tomaševec",
"PostCode": "10383",
"LatLong": "46,16.3"
},
{
"Name": "Vinkovec /dio/",
"PostCode": "10383",
"LatLong": "45.9913,16.3087"
},
{
"Name": "Zrinšćina",
"PostCode": "10383",
"LatLong": "46.0083,16.3425"
}
]
},
{
"Name": "Velika Mlaka",
"Places": [
{
"Name": "Velika Mlaka",
"PostCode": "10408",
"LatLong": "45.7364,16.0311"
}
]
},
{
"Name": "Velika Gorica",
"Places": [
{
"Name": "Bapče",
"PostCode": "10410",
"LatLong": "45.7336,16.0952"
},
{
"Name": "Črnkovec",
"PostCode": "10410",
"LatLong": "45.75,16.1167"
},
{
"Name": "Drenje Šćitarjevsko",
"PostCode": "10410",
"LatLong": "45.7336,16.0952"
},
{
"Name": "Gradići",
"PostCode": "10410",
"LatLong": "45.7,16.05"
},
{
"Name": "Kobilić",
"PostCode": "10410",
"LatLong": "45.7333,16.1"
},
{
"Name": "Lazi Turopoljski",
"PostCode": "10410",
"LatLong": "45.7336,16.0952"
},
{
"Name": "Lekneno",
"PostCode": "10410",
"LatLong": "45.75,16.15"
},
{
"Name": "Mala Kosnica",
"PostCode": "10410",
"LatLong": "45.7336,16.0952"
},
{
"Name": "Mičevec",
"PostCode": "10410",
"LatLong": "45.75,16.0667"
},
{
"Name": "Mraclin",
"PostCode": "10410",
"LatLong": "45.6667,16.0956"
},
{
"Name": "Novaki Šćitarjevski",
"PostCode": "10410",
"LatLong": "45.7833,16.1"
},
{
"Name": "Obrezina",
"PostCode": "10410",
"LatLong": "45.7667,16.1"
},
{
"Name": "Okuje",
"PostCode": "10410",
"LatLong": "45.6769,16.0717"
},
{
"Name": "Petina",
"PostCode": "10410",
"LatLong": "45.75,16.0833"
},
{
"Name": "Petrovina Turopoljska",
"PostCode": "10410",
"LatLong": "45.7,16.0333"
},
{
"Name": "Sasi",
"PostCode": "10410",
"LatLong": "45.7336,16.0952"
},
{
"Name": "Šćitarjevo",
"PostCode": "10410",
"LatLong": "45.7644,16.1183"
},
{
"Name": "Selnica",
"PostCode": "10410",
"LatLong": "45.75,16.1"
},
{
"Name": "Strmec Bukevski",
"PostCode": "10410",
"LatLong": "45.75,16.1667"
},
{
"Name": "Trnje",
"PostCode": "10410",
"LatLong": "45.7336,16.0952"
},
{
"Name": "Velika Gorica",
"PostCode": "10410",
"LatLong": "45.7125,16.0756"
},
{
"Name": "Velika Kosnica",
"PostCode": "10410",
"LatLong": "45.7336,16.0952"
},
{
"Name": "Zablatje Posavsko",
"PostCode": "10410",
"LatLong": "45.7336,16.0952"
}
]
},
{
"Name": "Orle",
"Places": [
{
"Name": "Bukevje",
"PostCode": "10411",
"LatLong": "45.7167,16.2167"
},
{
"Name": "Čret Posavski",
"PostCode": "10411",
"LatLong": "45.6759,16.2468"
},
{
"Name": "Drnek",
"PostCode": "10411",
"LatLong": "45.6759,16.2468"
},
{
"Name": "Obed",
"PostCode": "10411",
"LatLong": "45.7308,16.1975"
},
{
"Name": "Orle",
"PostCode": "10411",
"LatLong": "45.6833,16.2333"
},
{
"Name": "Ruča",
"PostCode": "10411",
"LatLong": "45.6411,16.2833"
},
{
"Name": "Sop Bukevski",
"PostCode": "10411",
"LatLong": "45.6759,16.2468"
},
{
"Name": "Stružec Posavski",
"PostCode": "10411",
"LatLong": "45.6759,16.2468"
},
{
"Name": "Suša",
"PostCode": "10411",
"LatLong": "45.6333,16.2833"
},
{
"Name": "Veleševec",
"PostCode": "10411",
"LatLong": "45.65,16.2667"
},
{
"Name": "Vrbovo Posavsko",
"PostCode": "10411",
"LatLong": "45.6759,16.2468"
}
]
},
{
"Name": "Donja Lomnica",
"Places": [
{
"Name": "Donja Lomnica",
"PostCode": "10412",
"LatLong": "45.7119,16.0269"
},
{
"Name": "Gornja Lomnica",
"PostCode": "10412",
"LatLong": "45.7167,16"
},
{
"Name": "Lukavec",
"PostCode": "10412",
"LatLong": "45.7044,15.99"
}
]
},
{
"Name": "Kravarsko",
"Places": [
{
"Name": "Barbarići Kravarski",
"PostCode": "10413",
"LatLong": "45.6,16.0667"
},
{
"Name": "Čakanec",
"PostCode": "10413",
"LatLong": "45.5948,16.0406"
},
{
"Name": "Donji Hruševec",
"PostCode": "10413",
"LatLong": "45.5333,16.0667"
},
{
"Name": "Gladovec Kravarski",
"PostCode": "10413",
"LatLong": "45.5667,16.05"
},
{
"Name": "Gornji Hruševec",
"PostCode": "10413",
"LatLong": "45.5667,16.0167"
},
{
"Name": "Ključić Brdo",
"PostCode": "10413",
"LatLong": "45.6167,16.05"
},
{
"Name": "Kozjača",
"PostCode": "10413",
"LatLong": "45.6,16.0167"
},
{
"Name": "Kravarsko",
"PostCode": "10413",
"LatLong": "45.5833,16.05"
},
{
"Name": "Mala Buna",
"PostCode": "10413",
"LatLong": "45.6333,16.0667"
},
{
"Name": "Novo Brdo",
"PostCode": "10413",
"LatLong": "45.5822,15.995"
},
{
"Name": "Opatija",
"PostCode": "10413",
"LatLong": "45.5667,16"
},
{
"Name": "Podvornica",
"PostCode": "10413",
"LatLong": "45.6167,16.0667"
},
{
"Name": "Pustike",
"PostCode": "10413",
"LatLong": "45.5948,16.0406"
},
{
"Name": "Šiljakovina",
"PostCode": "10413",
"LatLong": "45.6333,16.0167"
},
{
"Name": "Velika Buna",
"PostCode": "10413",
"LatLong": "45.6333,16.0667"
},
{
"Name": "Žitkovčica",
"PostCode": "10413",
"LatLong": "45.5948,16.0406"
}
]
},
{
"Name": "Pokupsko",
"Places": [
{
"Name": "Auguštanovec",
"PostCode": "10414",
"LatLong": "45.5155,15.9961"
},
{
"Name": "Brkiševina",
"PostCode": "10414",
"LatLong": "45.4422,16.0928"
},
{
"Name": "Cerje Pokupsko",
"PostCode": "10414",
"LatLong": "45.5155,15.9961"
},
{
"Name": "Cvetnić Brdo",
"PostCode": "10414",
"LatLong": "45.5155,15.9961"
},
{
"Name": "Gladovec Pokupski",
"PostCode": "10414",
"LatLong": "45.5,16"
},
{
"Name": "Hotnja",
"PostCode": "10414",
"LatLong": "45.5061,16.05"
},
{
"Name": "Lijevi Degoj",
"PostCode": "10414",
"LatLong": "45.4833,15.95"
},
{
"Name": "Lijevi Štefanki",
"PostCode": "10414",
"LatLong": "45.5167,15.9333"
},
{
"Name": "Lukinić Brdo",
"PostCode": "10414",
"LatLong": "45.5667,15.9333"
},
{
"Name": "Opatija",
"PostCode": "10414",
"LatLong": "45.5667,16"
},
{
"Name": "Pokupsko",
"PostCode": "10414",
"LatLong": "45.4872,15.9933"
},
{
"Name": "Roženica",
"PostCode": "10414",
"LatLong": "45.5333,16"
},
{
"Name": "Šestak Brdo",
"PostCode": "10414",
"LatLong": "45.5333,15.9833"
},
{
"Name": "Strezojevo",
"PostCode": "10414",
"LatLong": "45.5333,16.0333"
},
{
"Name": "Zgurić Brdo",
"PostCode": "10414",
"LatLong": "45.5167,15.9833"
}
]
},
{
"Name": "Novo Čiče",
"Places": [
{
"Name": "Donje Podotočje",
"PostCode": "10415",
"LatLong": "45.7,16.1333"
},
{
"Name": "Jagodno",
"PostCode": "10415",
"LatLong": "45.7,16.15"
},
{
"Name": "Lazina Čička",
"PostCode": "10415",
"LatLong": "45.7042,16.1333"
},
{
"Name": "Novo Čiče",
"PostCode": "10415",
"LatLong": "45.7,16.1167"
},
{
"Name": "Poljana Čička",
"PostCode": "10415",
"LatLong": "45.7042,16.1333"
},
{
"Name": "Ribnica",
"PostCode": "10415",
"LatLong": "45.7167,16.1333"
}
]
},
{
"Name": "Buševec",
"Places": [
{
"Name": "Buševec",
"PostCode": "10417",
"LatLong": "45.6344,16.1197"
},
{
"Name": "Novo Selo Lekeničko",
"PostCode": "10417",
"LatLong": "45.636,16.1306"
},
{
"Name": "Ogulinac",
"PostCode": "10417",
"LatLong": "45.6242,16.1286"
},
{
"Name": "Turopolje",
"PostCode": "10417",
"LatLong": "45.6494,16.1436"
}
]
},
{
"Name": "Dubranec",
"Places": [
{
"Name": "Cerovski Vrh",
"PostCode": "10418",
"LatLong": "45.5833,15.95"
},
{
"Name": "Cvetković Brdo",
"PostCode": "10418",
"LatLong": "45.5839,16.0214"
},
{
"Name": "Dubranec",
"PostCode": "10418",
"LatLong": "45.6167,15.9667"
},
{
"Name": "Gustelnica",
"PostCode": "10418",
"LatLong": "45.6031,15.9736"
},
{
"Name": "Jerebić",
"PostCode": "10418",
"LatLong": "45.5839,16.0214"
},
{
"Name": "Petrovec",
"PostCode": "10418",
"LatLong": "45.5,16.2667"
},
{
"Name": "Prvonožina",
"PostCode": "10418",
"LatLong": "45.5839,16.0214"
},
{
"Name": "Vukomerić",
"PostCode": "10418",
"LatLong": "45.6167,15.95"
}
]
},
{
"Name": "Vukovina",
"Places": [
{
"Name": "Gornje Podotočje",
"PostCode": "10419",
"LatLong": "45.6833,16.1333"
},
{
"Name": "Kuče",
"PostCode": "10419",
"LatLong": "45.6769,16.145"
},
{
"Name": "Rakitovec",
"PostCode": "10419",
"LatLong": "45.6667,16.15"
},
{
"Name": "Staro Čiče",
"PostCode": "10419",
"LatLong": "45.7,16.1167"
},
{
"Name": "Vukovina",
"PostCode": "10419",
"LatLong": "45.6833,16.1167"
}
]
},
{
"Name": "Samobor",
"Places": [
{
"Name": "Bobovica",
"PostCode": "10430",
"LatLong": "45.8333,15.7333"
},
{
"Name": "Braslovje",
"PostCode": "10430",
"LatLong": "45.75,15.6667"
},
{
"Name": "Bukovje Podvrško",
"PostCode": "10430",
"LatLong": "45.7863,15.6936"
},
{
"Name": "Celine Samoborske",
"PostCode": "10430",
"LatLong": "45.7863,15.6936"
},
{
"Name": "Cerje Samoborsko",
"PostCode": "10430",
"LatLong": "45.7863,15.6936"
},
{
"Name": "Domaslovec",
"PostCode": "10430",
"LatLong": "45.8,15.75"
},
{
"Name": "Draganje Selo",
"PostCode": "10430",
"LatLong": "45.8,15.65"
},
{
"Name": "Dragonoš",
"PostCode": "10430",
"LatLong": "45.7863,15.6936"
},
{
"Name": "Dubrava Samoborska",
"PostCode": "10430",
"LatLong": "45.7863,15.6936"
},
{
"Name": "Farkaševec Samoborski",
"PostCode": "10430",
"LatLong": "45.7863,15.6936"
},
{
"Name": "Gradna",
"PostCode": "10430",
"LatLong": "45.7863,15.6936"
},
{
"Name": "Gregurić Breg",
"PostCode": "10430",
"LatLong": "45.7833,15.65"
},
{
"Name": "Hrastina Samoborska",
"PostCode": "10430",
"LatLong": "45.7863,15.6936"
},
{
"Name": "Kladje",
"PostCode": "10430",
"LatLong": "45.7833,15.7333"
},
{
"Name": "Kotari",
"PostCode": "10430",
"LatLong": "45.7863,15.6936"
},
{
"Name": "Mala Rakovica",
"PostCode": "10430",
"LatLong": "45.7833,15.7167"
},
{
"Name": "Mali Lipovec",
"PostCode": "10430",
"LatLong": "45.75,15.6167"
},
{
"Name": "Manja Vas",
"PostCode": "10430",
"LatLong": "45.7863,15.6936"
},
{
"Name": "Medsave",
"PostCode": "10430",
"LatLong": "45.8333,15.7667"
},
{
"Name": "Molvice",
"PostCode": "10430",
"LatLong": "45.7667,15.75"
},
{
"Name": "Prekrižje Plešivičko",
"PostCode": "10430",
"LatLong": "45.7863,15.6936"
},
{
"Name": "Rude",
"PostCode": "10430",
"LatLong": "45.7667,15.6667"
},
{
"Name": "Samobor",
"PostCode": "10430",
"LatLong": "45.8031,15.7181"
},
{
"Name": "Samoborski Otok",
"PostCode": "10430",
"LatLong": "45.7863,15.6936"
},
{
"Name": "Savršćak",
"PostCode": "10430",
"LatLong": "45.7863,15.6936"
},
{
"Name": "Šipački Breg",
"PostCode": "10430",
"LatLong": "45.7863,15.6936"
},
{
"Name": "Slani Dol",
"PostCode": "10430",
"LatLong": "45.7833,15.6333"
},
{
"Name": "Slapnica",
"PostCode": "10430",
"LatLong": "45.7667,15.6167"
},
{
"Name": "Slavagora",
"PostCode": "10430",
"LatLong": "45.7863,15.6936"
},
{
"Name": "Smerovišće",
"PostCode": "10430",
"LatLong": "45.7863,15.6936"
},
{
"Name": "Velika Rakovica",
"PostCode": "10430",
"LatLong": "45.7667,15.7167"
},
{
"Name": "Veliki Lipovec",
"PostCode": "10430",
"LatLong": "45.7667,15.6333"
},
{
"Name": "Vratnik Samoborski",
"PostCode": "10430",
"LatLong": "45.7863,15.6936"
},
{
"Name": "Vrbovec Samoborski",
"PostCode": "10430",
"LatLong": "45.8167,15.7667"
},
{
"Name": "Vrhovčak",
"PostCode": "10430",
"LatLong": "45.8,15.7"
}
]
},
{
"Name": "Sveta Nedjelja",
"Places": [
{
"Name": "Brezje Samoborsko",
"PostCode": "10431",
"LatLong": "45.7829,15.791"
},
{
"Name": "Jagnjić Dol",
"PostCode": "10431",
"LatLong": "45.7829,15.791"
},
{
"Name": "Kerestinec",
"PostCode": "10431",
"LatLong": "45.7667,15.8"
},
{
"Name": "Mala Gorica",
"PostCode": "10431",
"LatLong": "45.7667,15.7833"
},
{
"Name": "Novaki Samoborski",
"PostCode": "10431",
"LatLong": "45.8,15.8"
},
{
"Name": "Srebrenjak",
"PostCode": "10431",
"LatLong": "45.7829,15.791"
},
{
"Name": "Sveta Nedjelja",
"PostCode": "10431",
"LatLong": "45.7983,15.7806"
},
{
"Name": "Svetonedjeljski Breg",
"PostCode": "10431",
"LatLong": "45.7829,15.791"
}
]
},
{
"Name": "Bregana",
"Places": [
{
"Name": "Beder",
"PostCode": "10432",
"LatLong": "45.8167,15.6167"
},
{
"Name": "Bregana",
"PostCode": "10432",
"LatLong": "45.8456,15.6853"
},
{
"Name": "Breganica",
"PostCode": "10432",
"LatLong": "45.818,15.6095"
},
{
"Name": "Grdanjci",
"PostCode": "10432",
"LatLong": "45.818,15.6095"
},
{
"Name": "Jarušje",
"PostCode": "10432",
"LatLong": "45.7667,15.5833"
},
{
"Name": "Javorek",
"PostCode": "10432",
"LatLong": "45.8333,15.6167"
},
{
"Name": "Klokočevac Samoborski",
"PostCode": "10432",
"LatLong": "45.818,15.6095"
},
{
"Name": "Kostanjevec Podvrški",
"PostCode": "10432",
"LatLong": "45.8333,15.6"
},
{
"Name": "Kravljak",
"PostCode": "10432",
"LatLong": "45.8167,15.55"
},
{
"Name": "Lug Samoborski",
"PostCode": "10432",
"LatLong": "45.818,15.6095"
},
{
"Name": "Mala Jazbina",
"PostCode": "10432",
"LatLong": "45.818,15.6095"
},
{
"Name": "Noršić Selo",
"PostCode": "10432",
"LatLong": "45.7833,15.5667"
},
{
"Name": "Otruševec",
"PostCode": "10432",
"LatLong": "45.8167,15.6833"
},
{
"Name": "Podvrh",
"PostCode": "10432",
"LatLong": "45.818,15.6095"
},
{
"Name": "Poklek",
"PostCode": "10432",
"LatLong": "45.818,15.6095"
},
{
"Name": "Selce Žumberačko",
"PostCode": "10432",
"LatLong": "45.818,15.6095"
},
{
"Name": "Stojdraga",
"PostCode": "10432",
"LatLong": "45.85,15.5833"
},
{
"Name": "Velika Jazbina",
"PostCode": "10432",
"LatLong": "45.818,15.6095"
},
{
"Name": "Višnjevac Podvrški",
"PostCode": "10432",
"LatLong": "45.818,15.6095"
}
]
},
{
"Name": "Strmec Samoborski",
"Places": [
{
"Name": "Orešje",
"PostCode": "10434",
"LatLong": "45.8167,15.8"
},
{
"Name": "Strmec Samoborski",
"PostCode": "10434",
"LatLong": "45.8167,15.8"
}
]
},
{
"Name": "Sveti Martin pod Okićem",
"Places": [
{
"Name": "Dolec Podokićki",
"PostCode": "10435",
"LatLong": "45.75,15.7417"
},
{
"Name": "Drežnik Podokićki",
"PostCode": "10435",
"LatLong": "45.75,15.7417"
},
{
"Name": "Falašćak",
"PostCode": "10435",
"LatLong": "45.75,15.7417"
},
{
"Name": "Galgovo",
"PostCode": "10435",
"LatLong": "45.7333,15.75"
},
{
"Name": "Klake",
"PostCode": "10435",
"LatLong": "45.75,15.7333"
},
{
"Name": "Konšćica",
"PostCode": "10435",
"LatLong": "45.7667,15.7333"
},
{
"Name": "Podgrađe Podokićko",
"PostCode": "10435",
"LatLong": "45.75,15.7417"
},
{
"Name": "Sveti Martin pod Okićem",
"PostCode": "10435",
"LatLong": "45.75,15.75"
}
]
},
{
"Name": "Rakov Potok",
"Places": [
{
"Name": "Horvati",
"PostCode": "10436",
"LatLong": "45.7175,15.8197"
},
{
"Name": "Kalinovica",
"PostCode": "10436",
"LatLong": "45.7667,15.7833"
},
{
"Name": "Rakov Potok",
"PostCode": "10436",
"LatLong": "45.7381,15.7972"
},
{
"Name": "Žitarka",
"PostCode": "10436",
"LatLong": "45.7407,15.8001"
}
]
},
{
"Name": "Bestovje",
"Places": [
{
"Name": "Bestovje",
"PostCode": "10437",
"LatLong": "45.8083,15.8167"
},
{
"Name": "Rakitje",
"PostCode": "10437",
"LatLong": "45.7939,15.8222"
}
]
},
{
"Name": "Jastrebarsko",
"Places": [
{
"Name": "Beter",
"PostCode": "10450",
"LatLong": "45.7333,15.7167"
},
{
"Name": "Brebrovac",
"PostCode": "10450",
"LatLong": "45.6833,15.55"
},
{
"Name": "Brezari",
"PostCode": "10450",
"LatLong": "45.6835,15.6653"
},
{
"Name": "Breznik Plešivički",
"PostCode": "10450",
"LatLong": "45.6835,15.6653"
},
{
"Name": "Čabdin",
"PostCode": "10450",
"LatLong": "45.65,15.6667"
},
{
"Name": "Čeglje",
"PostCode": "10450",
"LatLong": "45.6167,15.6"
},
{
"Name": "Crna Mlaka",
"PostCode": "10450",
"LatLong": "45.6835,15.6653"
},
{
"Name": "Črnilovec",
"PostCode": "10450",
"LatLong": "45.6835,15.6653"
},
{
"Name": "Cvetković",
"PostCode": "10450",
"LatLong": "45.6514,15.6522"
},
{
"Name": "Domagović",
"PostCode": "10450",
"LatLong": "45.6317,15.6403"
},
{
"Name": "Donja Purgarija",
"PostCode": "10450",
"LatLong": "45.6835,15.6653"
},
{
"Name": "Donja Reka",
"PostCode": "10450",
"LatLong": "45.6835,15.6653"
},
{
"Name": "Donja Zdenčina",
"PostCode": "10450",
"LatLong": "45.6667,15.7667"
},
{
"Name": "Donji Desinec",
"PostCode": "10450",
"LatLong": "45.6822,15.7089"
},
{
"Name": "Dragovanščak",
"PostCode": "10450",
"LatLong": "45.6835,15.6653"
},
{
"Name": "Goli Vrh",
"PostCode": "10450",
"LatLong": "45.6886,15.7164"
},
{
"Name": "Goljak",
"PostCode": "10450",
"LatLong": "45.7036,15.5433"
},
{
"Name": "Gonjeva",
"PostCode": "10450",
"LatLong": "45.6835,15.6653"
},
{
"Name": "Gornja Purgarija",
"PostCode": "10450",
"LatLong": "45.6835,15.6653"
},
{
"Name": "Gornja Reka",
"PostCode": "10450",
"LatLong": "45.6835,15.6653"
},
{
"Name": "Gornja Zdenčina",
"PostCode": "10450",
"LatLong": "45.6833,15.7833"
},
{
"Name": "Gornji Desinec",
"PostCode": "10450",
"LatLong": "45.7,15.7"
},
{
"Name": "Guci Draganički",
"PostCode": "10450",
"LatLong": "45.6835,15.6653"
},
{
"Name": "Hrašća",
"PostCode": "10450",
"LatLong": "45.6835,15.6653"
},
{
"Name": "Hrastje Plešivičko",
"PostCode": "10450",
"LatLong": "45.6835,15.6653"
},
{
"Name": "Izimje",
"PostCode": "10450",
"LatLong": "45.6333,15.6167"
},
{
"Name": "Jastrebarsko",
"PostCode": "10450",
"LatLong": "45.6683,15.6486"
},
{
"Name": "Jurjevčani",
"PostCode": "10450",
"LatLong": "45.6835,15.6653"
},
{
"Name": "Klinča Sela",
"PostCode": "10450",
"LatLong": "45.6903,15.7411"
},
{
"Name": "Kozlikovo",
"PostCode": "10450",
"LatLong": "45.6835,15.6653"
},
{
"Name": "Kupinec",
"PostCode": "10450",
"LatLong": "45.6586,15.7869"
},
{
"Name": "Lokošin Dol",
"PostCode": "10450",
"LatLong": "45.7,15.65"
},
{
"Name": "Malunje",
"PostCode": "10450",
"LatLong": "45.7,15.6167"
},
{
"Name": "Novaki Petrovinski",
"PostCode": "10450",
"LatLong": "45.6835,15.6653"
},
{
"Name": "Novo Selo Okićko",
"PostCode": "10450",
"LatLong": "45.6835,15.6653"
},
{
"Name": "Orešje Okićko",
"PostCode": "10450",
"LatLong": "45.6835,15.6653"
},
{
"Name": "Pavlovčani",
"PostCode": "10450",
"LatLong": "45.6835,15.6653"
},
{
"Name": "Pavučnjak",
"PostCode": "10450",
"LatLong": "45.7167,15.7667"
},
{
"Name": "Petkov Breg",
"PostCode": "10450",
"LatLong": "45.6835,15.6653"
},
{
"Name": "Petrovina",
"PostCode": "10450",
"LatLong": "45.6833,15.5833"
},
{
"Name": "Plešivica",
"PostCode": "10450",
"LatLong": "45.7333,15.6667"
},
{
"Name": "Poljanica Okićka",
"PostCode": "10450",
"LatLong": "45.6835,15.6653"
},
{
"Name": "Prhoć",
"PostCode": "10450",
"LatLong": "45.7,15.7"
},
{
"Name": "Prilipje",
"PostCode": "10450",
"LatLong": "45.6835,15.6653"
},
{
"Name": "Rastoki",
"PostCode": "10450",
"LatLong": "45.6835,15.6653"
},
{
"Name": "Repišće",
"PostCode": "10450",
"LatLong": "45.6835,15.6653"
},
{
"Name": "Slavetić",
"PostCode": "10450",
"LatLong": "45.7,15.55"
},
{
"Name": "Stankovo",
"PostCode": "10450",
"LatLong": "45.7167,15.7"
},
{
"Name": "Tržić",
"PostCode": "10450",
"LatLong": "45.6835,15.6653"
},
{
"Name": "Vlaškovec",
"PostCode": "10450",
"LatLong": "45.6835,15.6653"
},
{
"Name": "Volavje",
"PostCode": "10450",
"LatLong": "45.6556,15.6108"
},
{
"Name": "Vranov Dol",
"PostCode": "10450",
"LatLong": "45.7247,15.6319"
},
{
"Name": "Zdihovo",
"PostCode": "10450",
"LatLong": "45.6833,15.65"
}
]
},
{
"Name": "Pisarovina",
"Places": [
{
"Name": "Bratina",
"PostCode": "10451",
"LatLong": "45.6214,15.8272"
},
{
"Name": "Bregana Pisarovinska",
"PostCode": "10451",
"LatLong": "45.5842,15.8687"
},
{
"Name": "Donja Kupčina",
"PostCode": "10451",
"LatLong": "45.5506,15.8122"
},
{
"Name": "Dvoranci",
"PostCode": "10451",
"LatLong": "45.5667,15.8833"
},
{
"Name": "Gorica Jamnička",
"PostCode": "10451",
"LatLong": "45.6333,15.8833"
},
{
"Name": "Gradec Pokupski",
"PostCode": "10451",
"LatLong": "45.5842,15.8687"
},
{
"Name": "Jamnica Pisarovinska",
"PostCode": "10451",
"LatLong": "45.5975,15.8794"
},
{
"Name": "Lijevo Sredičko",
"PostCode": "10451",
"LatLong": "45.5333,15.8833"
},
{
"Name": "Lučelnica",
"PostCode": "10451",
"LatLong": "45.5833,15.9167"
},
{
"Name": "Pisarovina",
"PostCode": "10451",
"LatLong": "45.5864,15.8592"
},
{
"Name": "Podgorje Jamničko",
"PostCode": "10451",
"LatLong": "45.6,15.8667"
},
{
"Name": "Selsko Brdo",
"PostCode": "10451",
"LatLong": "45.55,15.9"
},
{
"Name": "Topolovec Pisarovinski",
"PostCode": "10451",
"LatLong": "45.5833,15.8667"
},
{
"Name": "Velika Jamnička",
"PostCode": "10451",
"LatLong": "45.605,15.8467"
}
]
},
{
"Name": "Gorica Svetojanska",
"Places": [
{
"Name": "Belčići",
"PostCode": "10453",
"LatLong": "45.7492,15.7196"
},
{
"Name": "Brezovac Žumberački",
"PostCode": "10453",
"LatLong": "45.7492,15.7196"
},
{
"Name": "Bukovac Svetojanski",
"PostCode": "10453",
"LatLong": "45.7492,15.7196"
},
{
"Name": "Celine",
"PostCode": "10453",
"LatLong": "45.8931,16.4047"
},
{
"Name": "Dolanjski Jarak",
"PostCode": "10453",
"LatLong": "45.7492,15.7196"
},
{
"Name": "Draga Svetojanska",
"PostCode": "10453",
"LatLong": "45.7492,15.7196"
},
{
"Name": "Gorica Svetojanska",
"PostCode": "10453",
"LatLong": "45.7189,15.5961"
},
{
"Name": "Grabarak",
"PostCode": "10453",
"LatLong": "45.7492,15.7196"
},
{
"Name": "Ivančići",
"PostCode": "10453",
"LatLong": "45.7167,15.6"
},
{
"Name": "Kupeć Dol",
"PostCode": "10453",
"LatLong": "45.7492,15.7196"
},
{
"Name": "Lanišće",
"PostCode": "10453",
"LatLong": "45.7492,15.7196"
},
{
"Name": "Miladini",
"PostCode": "10453",
"LatLong": "45.7,15.6"
},
{
"Name": "Paljugi",
"PostCode": "10453",
"LatLong": "45.7167,15.5667"
},
{
"Name": "Prodin Dol",
"PostCode": "10453",
"LatLong": "45.7492,15.7196"
},
{
"Name": "Redovje",
"PostCode": "10453",
"LatLong": "45.7492,15.7196"
},
{
"Name": "Špigelski Breg",
"PostCode": "10453",
"LatLong": "45.7492,15.7196"
},
{
"Name": "Srednjak",
"PostCode": "10453",
"LatLong": "45.7492,15.7196"
},
{
"Name": "Tihočaj",
"PostCode": "10453",
"LatLong": "45.75,15.55"
},
{
"Name": "Toplice",
"PostCode": "10453",
"LatLong": "45.7492,15.7196"
}
]
},
{
"Name": "Krašić",
"Places": [
{
"Name": "Brezarić",
"PostCode": "10454",
"LatLong": "45.663,15.5174"
},
{
"Name": "Brlenić",
"PostCode": "10454",
"LatLong": "45.6333,15.5408"
},
{
"Name": "Bukovica Prekriška",
"PostCode": "10454",
"LatLong": "45.663,15.5174"
},
{
"Name": "Careva Draga",
"PostCode": "10454",
"LatLong": "45.663,15.5174"
},
{
"Name": "Dol",
"PostCode": "10454",
"LatLong": "45.6833,15.5167"
},
{
"Name": "Donje Prekrižje",
"PostCode": "10454",
"LatLong": "45.6833,15.4833"
},
{
"Name": "Gornja Kupčina",
"PostCode": "10454",
"LatLong": "45.6167,15.5667"
},
{
"Name": "Gornje Prekrižje",
"PostCode": "10454",
"LatLong": "45.6833,15.4833"
},
{
"Name": "Gračac Slavetički",
"PostCode": "10454",
"LatLong": "45.7333,15.5167"
},
{
"Name": "Hrženik",
"PostCode": "10454",
"LatLong": "45.65,15.5"
},
{
"Name": "Hutin",
"PostCode": "10454",
"LatLong": "45.663,15.5174"
},
{
"Name": "Jezerine",
"PostCode": "10454",
"LatLong": "45.6667,15.4667"
},
{
"Name": "Kostel Pribićki",
"PostCode": "10454",
"LatLong": "45.663,15.5174"
},
{
"Name": "Krašić",
"PostCode": "10454",
"LatLong": "45.6558,15.5178"
},
{
"Name": "Krnežići",
"PostCode": "10454",
"LatLong": "45.663,15.5174"
},
{
"Name": "Krupače",
"PostCode": "10454",
"LatLong": "45.663,15.5174"
},
{
"Name": "Kučer",
"PostCode": "10454",
"LatLong": "45.663,15.5174"
},
{
"Name": "Kurpezova Gorica",
"PostCode": "10454",
"LatLong": "45.663,15.5174"
},
{
"Name": "Mirkopolje",
"PostCode": "10454",
"LatLong": "45.663,15.5174"
},
{
"Name": "Pesak",
"PostCode": "10454",
"LatLong": "45.663,15.5174"
},
{
"Name": "Pribić",
"PostCode": "10454",
"LatLong": "45.6667,15.5333"
},
{
"Name": "Pribić Crkveni",
"PostCode": "10454",
"LatLong": "45.6833,15.5167"
},
{
"Name": "Radina Gorica",
"PostCode": "10454",
"LatLong": "45.663,15.5174"
},
{
"Name": "Rude Pribićke",
"PostCode": "10454",
"LatLong": "45.663,15.5174"
},
{
"Name": "Strmec Pribićki",
"PostCode": "10454",
"LatLong": "45.663,15.5174"
},
{
"Name": "Svrževo",
"PostCode": "10454",
"LatLong": "45.663,15.5174"
},
{
"Name": "Vranjak Žumberački",
"PostCode": "10454",
"LatLong": "45.663,15.5174"
},
{
"Name": "Vukšin Šipak",
"PostCode": "10454",
"LatLong": "45.6,15.5667"
}
]
},
{
"Name": "Kostanjevac",
"Places": [
{
"Name": "Barovka",
"PostCode": "10455",
"LatLong": "45.7081,15.4465"
},
{
"Name": "Begovo Brdo Žumberačko",
"PostCode": "10455",
"LatLong": "45.7081,15.4465"
},
{
"Name": "Čunkova Draga",
"PostCode": "10455",
"LatLong": "45.7081,15.4465"
},
{
"Name": "Donji Oštrc",
"PostCode": "10455",
"LatLong": "45.7,15.4333"
},
{
"Name": "Drašći Vrh",
"PostCode": "10455",
"LatLong": "45.75,15.4833"
},
{
"Name": "Gornji Oštrc",
"PostCode": "10455",
"LatLong": "45.7,15.4333"
},
{
"Name": "Grgetići",
"PostCode": "10455",
"LatLong": "45.7081,15.4465"
},
{
"Name": "Jurkovo Selo",
"PostCode": "10455",
"LatLong": "45.7081,15.4465"
},
{
"Name": "Konjarić Vrh",
"PostCode": "10455",
"LatLong": "45.7081,15.4465"
},
{
"Name": "Kostanjevac",
"PostCode": "10455",
"LatLong": "45.7,15.4667"
},
{
"Name": "Kupčina Žumberačka",
"PostCode": "10455",
"LatLong": "45.7081,15.4465"
},
{
"Name": "Markušići",
"PostCode": "10455",
"LatLong": "45.7081,15.4465"
},
{
"Name": "Medven Draga",
"PostCode": "10455",
"LatLong": "45.7081,15.4465"
},
{
"Name": "Prvinci",
"PostCode": "10455",
"LatLong": "45.7081,15.4465"
},
{
"Name": "Radinovo Brdo",
"PostCode": "10455",
"LatLong": "45.7081,15.4465"
},
{
"Name": "Stupe",
"PostCode": "10455",
"LatLong": "45.7081,15.4465"
},
{
"Name": "Tupčina",
"PostCode": "10455",
"LatLong": "45.7147,15.4386"
},
{
"Name": "Veliki Vrh",
"PostCode": "10455",
"LatLong": "45.6333,15.4"
},
{
"Name": "Vlašić Brdo",
"PostCode": "10455",
"LatLong": "45.7081,15.4465"
},
{
"Name": "Vukovo Brdo",
"PostCode": "10455",
"LatLong": "45.7167,15.4833"
},
{
"Name": "Žamarija",
"PostCode": "10455",
"LatLong": "45.7081,15.4465"
},
{
"Name": "Željezno Žumberačko",
"PostCode": "10455",
"LatLong": "45.7081,15.4465"
},
{
"Name": "Žumberak",
"PostCode": "10455",
"LatLong": "45.75,15.4333"
}
]
},
{
"Name": "Kalje",
"Places": [
{
"Name": "Bratelji",
"PostCode": "10456",
"LatLong": "45.6714,15.2297"
},
{
"Name": "Budinjak",
"PostCode": "10456",
"LatLong": "45.7892,15.4908"
},
{
"Name": "Cerovica",
"PostCode": "10456",
"LatLong": "44.9933,14.1547"
},
{
"Name": "Čučići",
"PostCode": "10456",
"LatLong": "45.6714,15.2297"
},
{
"Name": "Dane",
"PostCode": "10456",
"LatLong": "45.47,14.0406"
},
{
"Name": "Glušinja",
"PostCode": "10456",
"LatLong": "45.6714,15.2297"
},
{
"Name": "Golubići",
"PostCode": "10456",
"LatLong": "45.6714,15.2297"
},
{
"Name": "Gornja Vas",
"PostCode": "10456",
"LatLong": "45.6714,15.2297"
},
{
"Name": "Grgetići",
"PostCode": "10456",
"LatLong": "45.6714,15.2297"
},
{
"Name": "Grič",
"PostCode": "10456",
"LatLong": "45.6714,15.2297"
},
{
"Name": "Hartje",
"PostCode": "10456",
"LatLong": "45.75,15.45"
},
{
"Name": "Javor",
"PostCode": "10456",
"LatLong": "45.6714,15.2297"
},
{
"Name": "Kalje",
"PostCode": "10456",
"LatLong": "45.7667,15.4833"
},
{
"Name": "Mrzlo Polje Žumberačko",
"PostCode": "10456",
"LatLong": "45.7833,15.4833"
},
{
"Name": "Novo Selo Žumberačko",
"PostCode": "10456",
"LatLong": "45.6714,15.2297"
},
{
"Name": "Osredek Žumberački",
"PostCode": "10456",
"LatLong": "45.6714,15.2297"
},
{
"Name": "Osunja",
"PostCode": "10456",
"LatLong": "45.6714,15.2297"
},
{
"Name": "Pećno",
"PostCode": "10456",
"LatLong": "45.75,15.5167"
},
{
"Name": "Petričko Selo",
"PostCode": "10456",
"LatLong": "45.7664,15.4572"
},
{
"Name": "Šimraki",
"PostCode": "10456",
"LatLong": "45.7833,15.5333"
},
{
"Name": "Sječevac",
"PostCode": "10456",
"LatLong": "45.6714,15.2297"
},
{
"Name": "Staničići Žumberački",
"PostCode": "10456",
"LatLong": "45.6714,15.2297"
},
{
"Name": "Tisovac Žumberački",
"PostCode": "10456",
"LatLong": "45.6714,15.2297"
},
{
"Name": "Tomaševci",
"PostCode": "10456",
"LatLong": "45.7667,15.4333"
},
{
"Name": "Višći Vrh",
"PostCode": "10456",
"LatLong": "45.7667,15.4833"
}
]
},
{
"Name": "Sošice",
"Places": [
{
"Name": "Cernik",
"PostCode": "10457",
"LatLong": "45.735,15.3848"
},
{
"Name": "Jezernice",
"PostCode": "10457",
"LatLong": "45.7333,15.3667"
},
{
"Name": "Kordići Žumberački",
"PostCode": "10457",
"LatLong": "45.735,15.3848"
},
{
"Name": "Plavci",
"PostCode": "10457",
"LatLong": "45.735,15.3848"
},
{
"Name": "Reštovo Žumberačko",
"PostCode": "10457",
"LatLong": "45.74,15.3892"
},
{
"Name": "Sopote",
"PostCode": "10457",
"LatLong": "45.735,15.3848"
},
{
"Name": "Sošice",
"PostCode": "10457",
"LatLong": "45.75,15.3833"
},
{
"Name": "Stari Grad Žumberački",
"PostCode": "10457",
"LatLong": "45.735,15.3848"
},
{
"Name": "Visoće",
"PostCode": "10457",
"LatLong": "45.7167,15.4"
}
]
}
]
}
]
},
{
"Name": "Dubrovačko-Neretvanska",
"Provinces": [
{
"Communities": [
{
"Name": "Dubrovnik",
"Places": [
{
"Name": "Dubrovnik",
"PostCode": "20000",
"LatLong": "42.6506,18.0914"
}
]
},
{
"Name": "Topolo",
"Places": [
{
"Name": "Imotica",
"PostCode": "20205",
"LatLong": "42.9139,17.6861"
},
{
"Name": "Ošlje",
"PostCode": "20205",
"LatLong": "42.8897,17.7356"
},
{
"Name": "Štedrica",
"PostCode": "20205",
"LatLong": "42.8925,17.6839"
},
{
"Name": "Stupa",
"PostCode": "20205",
"LatLong": "42.8969,17.7247"
},
{
"Name": "Topolo",
"PostCode": "20205",
"LatLong": "42.9097,17.7047"
}
]
},
{
"Name": "Mlini",
"Places": [
{
"Name": "Bosanka",
"PostCode": "20207",
"LatLong": "42.6458,18.1258"
},
{
"Name": "Brašina",
"PostCode": "20207",
"LatLong": "42.6267,18.1983"
},
{
"Name": "Brgat Donji",
"PostCode": "20207",
"LatLong": "42.6472,18.1661"
},
{
"Name": "Brgat Gornji",
"PostCode": "20207",
"LatLong": "42.6411,18.1558"
},
{
"Name": "Buići",
"PostCode": "20207",
"LatLong": "42.6411,18.1956"
},
{
"Name": "Čelopeci",
"PostCode": "20207",
"LatLong": "42.6347,18.1769"
},
{
"Name": "Čibača",
"PostCode": "20207",
"LatLong": "42.6289,18.1711"
},
{
"Name": "Grbavac",
"PostCode": "20207",
"LatLong": "42.6522,18.1789"
},
{
"Name": "Kupari",
"PostCode": "20207",
"LatLong": "42.6203,18.1914"
},
{
"Name": "Makoše",
"PostCode": "20207",
"LatLong": "42.65,18.1897"
},
{
"Name": "Martinovići",
"PostCode": "20207",
"LatLong": "42.6506,18.1839"
},
{
"Name": "Mlini",
"PostCode": "20207",
"LatLong": "42.6231,18.2072"
},
{
"Name": "Petrača",
"PostCode": "20207",
"LatLong": "42.6325,18.1931"
},
{
"Name": "Plat",
"PostCode": "20207",
"LatLong": "42.6086,18.2256"
},
{
"Name": "Soline",
"PostCode": "20207",
"LatLong": "42.6147,18.2222"
},
{
"Name": "Srebreno",
"PostCode": "20207",
"LatLong": "42.6233,18.1961"
},
{
"Name": "Zavrelje",
"PostCode": "20207",
"LatLong": "42.6228,18.2125"
}
]
},
{
"Name": "Cavtat",
"Places": [
{
"Name": "Brotnice",
"PostCode": "20210",
"LatLong": "42.5944,18.2983"
},
{
"Name": "Cavtat",
"PostCode": "20210",
"LatLong": "42.5811,18.2181"
},
{
"Name": "Duba Konavoska",
"PostCode": "20210",
"LatLong": "42.6028,18.3417"
},
{
"Name": "Jasenice",
"PostCode": "20210",
"LatLong": "42.5836,18.2112"
},
{
"Name": "Šilješki",
"PostCode": "20210",
"LatLong": "42.5898,18.2761"
},
{
"Name": "Stravča",
"PostCode": "20210",
"LatLong": "42.6006,18.3142"
},
{
"Name": "Uskoplje",
"PostCode": "20210",
"LatLong": "42.5806,18.2522"
},
{
"Name": "Zvekovica",
"PostCode": "20210",
"LatLong": "42.5767,18.2392"
}
]
},
{
"Name": "Čilipi",
"Places": [
{
"Name": "Čilipi",
"PostCode": "20213",
"LatLong": "42.5531,18.2761"
},
{
"Name": "Gabrili",
"PostCode": "20213",
"LatLong": "42.5742,18.2903"
},
{
"Name": "Komaji",
"PostCode": "20213",
"LatLong": "42.5356,18.3083"
},
{
"Name": "Močići",
"PostCode": "20213",
"LatLong": "42.5617,18.2511"
}
]
},
{
"Name": "Gruda",
"Places": [
{
"Name": "Gruda",
"PostCode": "20215",
"LatLong": "42.5178,18.3744"
},
{
"Name": "Poljice",
"PostCode": "20215",
"LatLong": "42.4961,18.3797"
},
{
"Name": "Popovići",
"PostCode": "20215",
"LatLong": "42.5228,18.3186"
},
{
"Name": "Radovčići",
"PostCode": "20215",
"LatLong": "42.5125,18.3453"
}
]
},
{
"Name": "Dubravka",
"Places": [
{
"Name": "Dubravka",
"PostCode": "20216",
"LatLong": "42.5353,18.4244"
},
{
"Name": "Dunave",
"PostCode": "20216",
"LatLong": "42.5411,18.4058"
},
{
"Name": "Vodovađa",
"PostCode": "20216",
"LatLong": "42.515,18.4253"
},
{
"Name": "Zastolje",
"PostCode": "20216",
"LatLong": "42.5242,18.4003"
}
]
},
{
"Name": "Pridvorje",
"Places": [
{
"Name": "Drvenik",
"PostCode": "20217",
"LatLong": "42.5678,18.3069"
},
{
"Name": "Kuna Konavoska",
"PostCode": "20217",
"LatLong": "42.5594,18.3619"
},
{
"Name": "Ljuta",
"PostCode": "20217",
"LatLong": "42.5383,18.3781"
},
{
"Name": "Lovorno",
"PostCode": "20217",
"LatLong": "42.5461,18.3606"
},
{
"Name": "Mihanići",
"PostCode": "20217",
"LatLong": "42.5633,18.3275"
},
{
"Name": "Pridvorje",
"PostCode": "20217",
"LatLong": "42.5514,18.3469"
}
]
},
{
"Name": "Pločice",
"Places": [
{
"Name": "Đurinići",
"PostCode": "20218",
"LatLong": "42.4719,18.4425"
},
{
"Name": "Mikulići",
"PostCode": "20218",
"LatLong": "42.4808,18.4114"
},
{
"Name": "Molunat",
"PostCode": "20218",
"LatLong": "42.45,18.4372"
},
{
"Name": "Palje Brdo",
"PostCode": "20218",
"LatLong": "42.5133,18.4111"
},
{
"Name": "Pločice",
"PostCode": "20218",
"LatLong": "42.4933,18.4114"
},
{
"Name": "Vitaljina",
"PostCode": "20218",
"LatLong": "42.4539,18.4714"
}
]
},
{
"Name": "Koločep",
"Places": [
{
"Name": "Koločep",
"PostCode": "20221",
"LatLong": "42.6761,18.0097"
}
]
},
{
"Name": "Lopud",
"Places": [
{
"Name": "Lopud",
"PostCode": "20222",
"LatLong": "42.6928,17.9469"
}
]
},
{
"Name": "Šipanjska Luka",
"Places": [
{
"Name": "Šipanjska Luka",
"PostCode": "20223",
"LatLong": "42.7289,17.8672"
},
{
"Name": "Suđurađ",
"PostCode": "20223",
"LatLong": "42.7119,17.9106"
}
]
},
{
"Name": "Maranovići",
"Places": [
{
"Name": "Korita",
"PostCode": "20224",
"LatLong": "42.7128,17.7081"
},
{
"Name": "Maranovići",
"PostCode": "20224",
"LatLong": "42.7156,17.67"
},
{
"Name": "Okuklje",
"PostCode": "20224",
"LatLong": "42.7283,17.6692"
},
{
"Name": "Prožura",
"PostCode": "20224",
"LatLong": "42.7286,17.6494"
},
{
"Name": "Prožurska Luka",
"PostCode": "20224",
"LatLong": "42.7213,17.6742"
},
{
"Name": "Saplunara",
"PostCode": "20224",
"LatLong": "42.7213,17.6742"
}
]
},
{
"Name": "Babino Polje",
"Places": [
{
"Name": "Babino Polje",
"PostCode": "20225",
"LatLong": "42.7333,17.5619"
},
{
"Name": "Blato",
"PostCode": "20225",
"LatLong": "42.7625,17.4822"
},
{
"Name": "Kozarica",
"PostCode": "20225",
"LatLong": "42.7764,17.4642"
},
{
"Name": "Ropa",
"PostCode": "20225",
"LatLong": "42.7528,17.4603"
},
{
"Name": "Sobra",
"PostCode": "20225",
"LatLong": "42.7372,17.6003"
}
]
},
{
"Name": "Goveđari",
"Places": [
{
"Name": "Babine Kuće",
"PostCode": "20226",
"LatLong": "42.8931,17.486"
},
{
"Name": "Goveđari",
"PostCode": "20226",
"LatLong": "42.7833,17.3667"
},
{
"Name": "Njivice",
"PostCode": "20226",
"LatLong": "43.3075,17.1569"
},
{
"Name": "Polače",
"PostCode": "20226",
"LatLong": "42.7836,17.3797"
},
{
"Name": "Pomena",
"PostCode": "20226",
"LatLong": "42.8931,17.486"
},
{
"Name": "Pristanište",
"PostCode": "20226",
"LatLong": "42.8931,17.486"
},
{
"Name": "Soline",
"PostCode": "20226",
"LatLong": "42.6981,18.0406"
},
{
"Name": "Tatinica",
"PostCode": "20226",
"LatLong": "42.8931,17.486"
},
{
"Name": "Velika Loza",
"PostCode": "20226",
"LatLong": "42.8931,17.486"
}
]
},
{
"Name": "Ston",
"Places": [
{
"Name": "Boljenovići",
"PostCode": "20230",
"LatLong": "42.8481,17.6247"
},
{
"Name": "Broce",
"PostCode": "20230",
"LatLong": "42.8206,17.7156"
},
{
"Name": "Česvinica",
"PostCode": "20230",
"LatLong": "42.8514,17.6669"
},
{
"Name": "Duba Stonska",
"PostCode": "20230",
"LatLong": "42.8739,17.6417"
},
{
"Name": "Hodilje",
"PostCode": "20230",
"LatLong": "42.8569,17.6894"
},
{
"Name": "Luka",
"PostCode": "20230",
"LatLong": "42.8664,17.6756"
},
{
"Name": "Mali Ston",
"PostCode": "20230",
"LatLong": "42.8467,17.7036"
},
{
"Name": "Metohija",
"PostCode": "20230",
"LatLong": "42.8411,17.6336"
},
{
"Name": "Sparagovići",
"PostCode": "20230",
"LatLong": "42.855,17.6133"
},
{
"Name": "Ston",
"PostCode": "20230",
"LatLong": "42.8386,17.6964"
},
{
"Name": "Zabrđe",
"PostCode": "20230",
"LatLong": "42.8606,17.5867"
}
]
},
{
"Name": "Doli",
"Places": [
{
"Name": "Čepikuće",
"PostCode": "20231",
"LatLong": "42.8581,17.8347"
},
{
"Name": "Doli",
"PostCode": "20231",
"LatLong": "42.8197,17.7803"
},
{
"Name": "Lisac",
"PostCode": "20231",
"LatLong": "42.8478,17.8128"
},
{
"Name": "Podimoć",
"PostCode": "20231",
"LatLong": "42.8344,17.8286"
},
{
"Name": "Smokovljani",
"PostCode": "20231",
"LatLong": "42.8581,17.7956"
},
{
"Name": "Točionik",
"PostCode": "20231",
"LatLong": "42.8725,17.8117"
},
{
"Name": "Trnovica",
"PostCode": "20231",
"LatLong": "42.8897,17.8375"
},
{
"Name": "Visočani",
"PostCode": "20231",
"LatLong": "42.8542,17.7961"
},
{
"Name": "Zaton Doli",
"PostCode": "20231",
"LatLong": "42.8331,17.7511"
}
]
},
{
"Name": "Slano",
"Places": [
{
"Name": "Banići",
"PostCode": "20232",
"LatLong": "42.7983,17.8575"
},
{
"Name": "Majkovi",
"PostCode": "20232",
"LatLong": "42.8124,17.8616"
},
{
"Name": "Mravnica",
"PostCode": "20232",
"LatLong": "42.8186,17.8572"
},
{
"Name": "Podgora",
"PostCode": "20232",
"LatLong": "42.8486,17.8364"
},
{
"Name": "Slano",
"PostCode": "20232",
"LatLong": "42.7861,17.8919"
},
{
"Name": "Trnova",
"PostCode": "20232",
"LatLong": "42.8106,17.865"
}
]
},
{
"Name": "Trsteno",
"Places": [
{
"Name": "Trsteno",
"PostCode": "20233",
"LatLong": "42.7172,17.9803"
}
]
},
{
"Name": "Orašac",
"Places": [
{
"Name": "Brsećine",
"PostCode": "20234",
"LatLong": "42.7342,17.9583"
},
{
"Name": "Dubravica",
"PostCode": "20234",
"LatLong": "42.7461,17.9428"
},
{
"Name": "Gromača",
"PostCode": "20234",
"LatLong": "42.7283,18.0153"
},
{
"Name": "Kliševo",
"PostCode": "20234",
"LatLong": "42.7272,18.0025"
},
{
"Name": "Ljubač",
"PostCode": "20234",
"LatLong": "42.7231,18.0242"
},
{
"Name": "Mravinjac",
"PostCode": "20234",
"LatLong": "42.7525,17.9583"
},
{
"Name": "Mrčevo",
"PostCode": "20234",
"LatLong": "42.7333,17.9833"
},
{
"Name": "Orašac",
"PostCode": "20234",
"LatLong": "42.7019,18.0078"
}
]
},
{
"Name": "Zaton Veliki",
"Places": [
{
"Name": "Zaton",
"PostCode": "20235",
"LatLong": "42.6908,18.0381"
}
]
},
{
"Name": "Mokošica",
"Places": [
{
"Name": "Čajkovica",
"PostCode": "20236",
"LatLong": "42.6661,18.1403"
},
{
"Name": "Čajkovići",
"PostCode": "20236",
"LatLong": "42.67,18.1158"
},
{
"Name": "Donje Obuljeno",
"PostCode": "20236",
"LatLong": "42.673,18.1127"
},
{
"Name": "Gornje Obuljeno",
"PostCode": "20236",
"LatLong": "42.673,18.1127"
},
{
"Name": "Knežica",
"PostCode": "20236",
"LatLong": "42.6561,18.1414"
},
{
"Name": "Komolac",
"PostCode": "20236",
"LatLong": "42.6706,18.1358"
},
{
"Name": "Mokošica",
"PostCode": "20236",
"LatLong": "42.6756,18.0903"
},
{
"Name": "Nova Mokošica",
"PostCode": "20236",
"LatLong": "42.673,18.1127"
},
{
"Name": "Osojnik",
"PostCode": "20236",
"LatLong": "42.7108,18.0672"
},
{
"Name": "Petrovo Selo",
"PostCode": "20236",
"LatLong": "42.6828,18.0883"
},
{
"Name": "Pobrežje",
"PostCode": "20236",
"LatLong": "42.6811,18.0736"
},
{
"Name": "Prijevor",
"PostCode": "20236",
"LatLong": "42.6731,18.1239"
},
{
"Name": "Rožat",
"PostCode": "20236",
"LatLong": "42.6739,18.1308"
},
{
"Name": "Šumet",
"PostCode": "20236",
"LatLong": "42.6461,18.1475"
},
{
"Name": "Sustjepan",
"PostCode": "20236",
"LatLong": "42.67,18.0975"
}
]
},
{
"Name": "Trpanj",
"Places": [
{
"Name": "Donja Vrućica",
"PostCode": "20240",
"LatLong": "43.0053,17.2217"
},
{
"Name": "Duba Pelješka",
"PostCode": "20240",
"LatLong": "43.0183,17.1692"
},
{
"Name": "Gornja Vrućica",
"PostCode": "20240",
"LatLong": "42.9972,17.2717"
},
{
"Name": "Trpanj",
"PostCode": "20240",
"LatLong": "43.0075,17.275"
}
]
},
{
"Name": "Oskorušno",
"Places": [
{
"Name": "Donja Banda",
"PostCode": "20242",
"LatLong": "42.9836,17.3069"
},
{
"Name": "Oskorušno",
"PostCode": "20242",
"LatLong": "42.9836,17.3069"
}
]
},
{
"Name": "Kuna",
"Places": [
{
"Name": "Kuna Pelješka",
"PostCode": "20243",
"LatLong": "42.9667,17.35"
},
{
"Name": "Pijavičino",
"PostCode": "20243",
"LatLong": "42.94,17.3458"
}
]
},
{
"Name": "Potomje",
"Places": [
{
"Name": "Podobuče",
"PostCode": "20244",
"LatLong": "42.9486,17.2883"
},
{
"Name": "Potomje",
"PostCode": "20244",
"LatLong": "42.9425,17.3383"
}
]
},
{
"Name": "Trstenik",
"Places": [
{
"Name": "Trstenik",
"PostCode": "20245",
"LatLong": "42.9183,17.3978"
}
]
},
{
"Name": "Janjina",
"Places": [
{
"Name": "Drače",
"PostCode": "20246",
"LatLong": "42.9325,17.4486"
},
{
"Name": "Janjina",
"PostCode": "20246",
"LatLong": "42.9253,17.4283"
},
{
"Name": "Osobljava",
"PostCode": "20246",
"LatLong": "42.965,17.4"
},
{
"Name": "Popova Luka",
"PostCode": "20246",
"LatLong": "42.9133,17.4283"
},
{
"Name": "Sreser",
"PostCode": "20246",
"LatLong": "42.9486,17.4422"
}
]
},
{
"Name": "Žuljana",
"Places": [
{
"Name": "Žuljana",
"PostCode": "20247",
"LatLong": "42.8936,17.4561"
}
]
},
{
"Name": "Putniković",
"Places": [
{
"Name": "Brijesta",
"PostCode": "20248",
"LatLong": "42.9061,17.5353"
},
{
"Name": "Dančanje",
"PostCode": "20248",
"LatLong": "42.8747,17.5636"
},
{
"Name": "Dubrava",
"PostCode": "20248",
"LatLong": "42.8878,17.4992"
},
{
"Name": "Putniković",
"PostCode": "20248",
"LatLong": "42.8767,17.5283"
},
{
"Name": "Tomislavovac",
"PostCode": "20248",
"LatLong": "42.8642,17.5222"
}
]
},
{
"Name": "Orebić",
"Places": [
{
"Name": "Orebić",
"PostCode": "20250",
"LatLong": "42.9856,17.1747"
},
{
"Name": "Podgorje",
"PostCode": "20250",
"LatLong": "42.9856,17.1747"
},
{
"Name": "Stanković",
"PostCode": "20250",
"LatLong": "42.9856,17.1747"
}
]
},
{
"Name": "Korčula",
"Places": [
{
"Name": "Korčula",
"PostCode": "20260",
"LatLong": "42.9622,17.1369"
}
]
},
{
"Name": "Lumbarda",
"Places": [
{
"Name": "Lumbarda",
"PostCode": "20263",
"LatLong": "42.9228,17.1672"
}
]
},
{
"Name": "Račišće",
"Places": [
{
"Name": "Račišće",
"PostCode": "20264",
"LatLong": "42.9764,17.0167"
}
]
},
{
"Name": "Kućište",
"Places": [
{
"Name": "Kućište",
"PostCode": "20267",
"LatLong": "42.9783,17.1378"
},
{
"Name": "Nakovanj",
"PostCode": "20267",
"LatLong": "43,17.0833"
},
{
"Name": "Viganj",
"PostCode": "20267",
"LatLong": "42.9886,17.0953"
}
]
},
{
"Name": "Lovište",
"Places": [
{
"Name": "Lovište",
"PostCode": "20269",
"LatLong": "43.0217,17.0353"
}
]
},
{
"Name": "Vela Luka",
"Places": [
{
"Name": "Potirna",
"PostCode": "20270",
"LatLong": "42.9331,16.6703"
},
{
"Name": "Vela Luka",
"PostCode": "20270",
"LatLong": "42.9633,16.7225"
}
]
},
{
"Name": "Blato",
"Places": [
{
"Name": "Blato",
"PostCode": "20271",
"LatLong": "43.1703,17.1917"
}
]
},
{
"Name": "Smokvica",
"Places": [
{
"Name": "Smokvica",
"PostCode": "20272",
"LatLong": "42.9306,16.8964"
}
]
},
{
"Name": "Čara",
"Places": [
{
"Name": "Čara",
"PostCode": "20273",
"LatLong": "42.9383,16.9347"
}
]
},
{
"Name": "Pupnat",
"Places": [
{
"Name": "Pupnat",
"PostCode": "20274",
"LatLong": "42.9536,17.0369"
}
]
},
{
"Name": "Žrnovo",
"Places": [
{
"Name": "Žrnovo",
"PostCode": "20275",
"LatLong": "42.9511,17.1142"
}
]
},
{
"Name": "Nova Sela",
"Places": [
{
"Name": "Borovci",
"PostCode": "20278",
"LatLong": "43.0992,17.5358"
},
{
"Name": "Brečići",
"PostCode": "20278",
"LatLong": "43.1258,17.4881"
},
{
"Name": "Dubrave",
"PostCode": "20278",
"LatLong": "43.1311,17.4803"
},
{
"Name": "Kobiljača",
"PostCode": "20278",
"LatLong": "43.1342,17.4797"
},
{
"Name": "Mali Prolog",
"PostCode": "20278",
"LatLong": "43.1428,17.4847"
},
{
"Name": "Nova Sela",
"PostCode": "20278",
"LatLong": "43.1017,17.5594"
},
{
"Name": "Pozla Gora",
"PostCode": "20278",
"LatLong": "43.1353,17.5158"
}
]
},
{
"Name": "Lastovo",
"Places": [
{
"Name": "Glavat",
"PostCode": "20290",
"LatLong": "42.7493,16.8735"
},
{
"Name": "Lastovo",
"PostCode": "20290",
"LatLong": "42.7681,16.9008"
},
{
"Name": "Pasadur",
"PostCode": "20290",
"LatLong": "42.7493,16.8735"
},
{
"Name": "Skrivena Luka",
"PostCode": "20290",
"LatLong": "42.74,16.8897"
},
{
"Name": "Sušac",
"PostCode": "20290",
"LatLong": "42.7493,16.8735"
},
{
"Name": "Uble",
"PostCode": "20290",
"LatLong": "42.7397,16.83"
},
{
"Name": "Zaklopatica",
"PostCode": "20290",
"LatLong": "42.7493,16.8735"
}
]
},
{
"Name": "Ploče",
"Places": [
{
"Name": "Baćina",
"PostCode": "20340",
"LatLong": "43.0811,17.3869"
},
{
"Name": "Peračko Blato",
"PostCode": "20340",
"LatLong": "43.0767,17.4394"
},
{
"Name": "Plina Jezero",
"PostCode": "20340",
"LatLong": "43.0713,17.4197"
},
{
"Name": "Ploče",
"PostCode": "20340",
"LatLong": "43.0561,17.4328"
}
]
},
{
"Name": "Kula Norinska",
"Places": [
{
"Name": "Krvavac I",
"PostCode": "20341",
"LatLong": "43.0417,17.6002"
},
{
"Name": "Kula Norinska",
"PostCode": "20341",
"LatLong": "43.0311,17.605"
},
{
"Name": "Momići",
"PostCode": "20341",
"LatLong": "43.0481,17.5981"
},
{
"Name": "Podrujnica",
"PostCode": "20341",
"LatLong": "43.0458,17.5975"
}
]
},
{
"Name": "Otrić Seoci",
"Places": [
{
"Name": "Otrić Seoci",
"PostCode": "20342",
"LatLong": "43.0616,17.5036"
}
]
},
{
"Name": "Rogotin",
"Places": [
{
"Name": "Rogotin",
"PostCode": "20343",
"LatLong": "43.0492,17.4792"
},
{
"Name": "Šarić Struga",
"PostCode": "20343",
"LatLong": "43.0492,17.4792"
}
]
},
{
"Name": "Komin (Dalmacija)",
"Places": [
{
"Name": "Banja",
"PostCode": "20344",
"LatLong": "43.0486,17.5086"
},
{
"Name": "Desne",
"PostCode": "20344",
"LatLong": "43.0617,17.5294"
},
{
"Name": "Komin",
"PostCode": "20344",
"LatLong": "43.0408,17.5369"
}
]
},
{
"Name": "Staševica",
"Places": [
{
"Name": "Staševica",
"PostCode": "20345",
"LatLong": "43.1389,17.4256"
}
]
},
{
"Name": "Metković",
"Places": [
{
"Name": "Dubravica",
"PostCode": "20350",
"LatLong": "43.0244,17.6544"
},
{
"Name": "Glušci",
"PostCode": "20350",
"LatLong": "43.0178,17.6783"
},
{
"Name": "Krvavac II",
"PostCode": "20350",
"LatLong": "43.0199,17.6563"
},
{
"Name": "Metković",
"PostCode": "20350",
"LatLong": "43.0542,17.6483"
},
{
"Name": "Vidonje",
"PostCode": "20350",
"LatLong": "42.9831,17.6442"
}
]
},
{
"Name": "Vid",
"Places": [
{
"Name": "Prud",
"PostCode": "20352",
"LatLong": "43.0803,17.6258"
},
{
"Name": "Vid",
"PostCode": "20352",
"LatLong": "43.0803,17.6258"
}
]
},
{
"Name": "Mlinište",
"Places": [
{
"Name": "Badžula",
"PostCode": "20353",
"LatLong": "42.965,17.6111"
},
{
"Name": "Bijeli Vir",
"PostCode": "20353",
"LatLong": "43.0114,17.6547"
},
{
"Name": "Dobranje",
"PostCode": "20353",
"LatLong": "42.9842,17.6978"
},
{
"Name": "Mislina",
"PostCode": "20353",
"LatLong": "42.9822,17.6072"
},
{
"Name": "Mlinište",
"PostCode": "20353",
"LatLong": "42.9925,17.6158"
}
]
},
{
"Name": "Opuzen",
"Places": [
{
"Name": "Buk Vlaka",
"PostCode": "20355",
"LatLong": "43.0118,17.5599"
},
{
"Name": "Opuzen",
"PostCode": "20355",
"LatLong": "43.0153,17.5656"
},
{
"Name": "Podgradina",
"PostCode": "20355",
"LatLong": "43.0083,17.5542"
},
{
"Name": "Vlaka/lij.ob.Male Neretve/",
"PostCode": "20355",
"LatLong": "43.0118,17.5599"
}
]
},
{
"Name": "Klek",
"Places": [
{
"Name": "Duboka",
"PostCode": "20356",
"LatLong": "42.9456,17.5436"
},
{
"Name": "Klek",
"PostCode": "20356",
"LatLong": "42.9447,17.5639"
},
{
"Name": "Komarna",
"PostCode": "20356",
"LatLong": "42.945,17.5339"
},
{
"Name": "Raba",
"PostCode": "20356",
"LatLong": "42.9728,17.5158"
},
{
"Name": "Slivno Ravno",
"PostCode": "20356",
"LatLong": "42.96,17.5453"
}
]
},
{
"Name": "Blace",
"Places": [
{
"Name": "Blace",
"PostCode": "20357",
"LatLong": "43.0011,17.4806"
},
{
"Name": "Lovorje",
"PostCode": "20357",
"LatLong": "42.9778,17.5272"
},
{
"Name": "Mihalj",
"PostCode": "20357",
"LatLong": "42.9906,17.4978"
},
{
"Name": "Otok Duba",
"PostCode": "20357",
"LatLong": "42.9926,17.4985"
},
{
"Name": "Trn",
"PostCode": "20357",
"LatLong": "43.0011,17.4883"
},
{
"Name": "Tuštevac",
"PostCode": "20357",
"LatLong": "42.9926,17.4985"
}
]
}
]
}
]
},
{
"Name": "Splitsko-Dalmatinska",
"Provinces": [
{
"Communities": [
{
"Name": "Split",
"Places": [
{
"Name": "Kamen",
"PostCode": "21000",
"LatLong": "43.5142,16.5147"
},
{
"Name": "Split",
"PostCode": "21000",
"LatLong": "43.5139,16.4558"
}
]
},
{
"Name": "Prgomet",
"Places": [
{
"Name": "Labin",
"PostCode": "21201",
"LatLong": "43.5833,16.25"
},
{
"Name": "Ljubitovica",
"PostCode": "21201",
"LatLong": "43.6228,16.1378"
},
{
"Name": "Prapatnica",
"PostCode": "21201",
"LatLong": "43.6,16.2"
},
{
"Name": "Prgomet",
"PostCode": "21201",
"LatLong": "43.6167,16.2333"
},
{
"Name": "Trolokve",
"PostCode": "21201",
"LatLong": "43.65,16.2333"
}
]
},
{
"Name": "Lećevica",
"Places": [
{
"Name": "Brštanovo",
"PostCode": "21202",
"LatLong": "43.6667,16.4167"
},
{
"Name": "Divojevići",
"PostCode": "21202",
"LatLong": "43.6667,16.25"
},
{
"Name": "Dugobabe",
"PostCode": "21202",
"LatLong": "43.6225,16.4244"
},
{
"Name": "Kladnjice",
"PostCode": "21202",
"LatLong": "43.6833,16.3"
},
{
"Name": "Korušce",
"PostCode": "21202",
"LatLong": "43.6333,16.3833"
},
{
"Name": "Lećevica",
"PostCode": "21202",
"LatLong": "43.65,16.35"
},
{
"Name": "Nisko",
"PostCode": "21202",
"LatLong": "43.6667,16.3667"
},
{
"Name": "Radošić",
"PostCode": "21202",
"LatLong": "43.6,16.3167"
},
{
"Name": "Vučevica",
"PostCode": "21202",
"LatLong": "43.6,16.4"
}
]
},
{
"Name": "Donji Muć",
"Places": [
{
"Name": "Bračević",
"PostCode": "21203",
"LatLong": "43.75,16.4"
},
{
"Name": "Donje Pustinje",
"PostCode": "21203",
"LatLong": "43.7214,16.4359"
},
{
"Name": "Donji Muć",
"PostCode": "21203",
"LatLong": "43.7261,16.5"
},
{
"Name": "Gornje Postinje",
"PostCode": "21203",
"LatLong": "43.7086,16.3961"
},
{
"Name": "Gornji Muć",
"PostCode": "21203",
"LatLong": "43.6889,16.5"
},
{
"Name": "Ramljane",
"PostCode": "21203",
"LatLong": "43.7333,16.3833"
}
]
},
{
"Name": "Dugopolje",
"Places": [
{
"Name": "Dugopolje",
"PostCode": "21204",
"LatLong": "43.5806,16.6028"
},
{
"Name": "Kotlenice",
"PostCode": "21204",
"LatLong": "43.5672,16.6453"
}
]
},
{
"Name": "Donji Dolac",
"Places": [
{
"Name": "Donji Dolac",
"PostCode": "21205",
"LatLong": "43.5286,16.6992"
},
{
"Name": "Gornji Dolac",
"PostCode": "21205",
"LatLong": "43.5031,16.7625"
},
{
"Name": "Putišići",
"PostCode": "21205",
"LatLong": "43.5165,16.7299"
},
{
"Name": "Srijane",
"PostCode": "21205",
"LatLong": "43.5178,16.7281"
}
]
},
{
"Name": "Donje Ogorje",
"Places": [
{
"Name": "Donje Ogorje",
"PostCode": "21206",
"LatLong": "43.7442,16.435"
},
{
"Name": "Gornje Ogorje",
"PostCode": "21206",
"LatLong": "43.7422,16.5"
},
{
"Name": "Mala Milešina",
"PostCode": "21206",
"LatLong": "43.7667,16.45"
},
{
"Name": "Pribude",
"PostCode": "21206",
"LatLong": "43.7667,16.4"
},
{
"Name": "Radunić",
"PostCode": "21206",
"LatLong": "43.7333,16.4333"
},
{
"Name": "Velika Milešina",
"PostCode": "21206",
"LatLong": "43.7667,16.45"
}
]
},
{
"Name": "Kostanje",
"Places": [
{
"Name": "Kostanje",
"PostCode": "21207",
"LatLong": "43.45,16.8333"
},
{
"Name": "Podgrađe",
"PostCode": "21207",
"LatLong": "43.4333,16.85"
}
]
},
{
"Name": "Kučiće",
"Places": [
{
"Name": "Kučiće",
"PostCode": "21208",
"LatLong": "43.4333,16.8"
},
{
"Name": "Podašpilje",
"PostCode": "21208",
"LatLong": "43.4333,16.7833"
},
{
"Name": "Svinišće",
"PostCode": "21208",
"LatLong": "43.4333,16.7667"
}
]
},
{
"Name": "Mravince",
"Places": [
{
"Name": "Kučine",
"PostCode": "21209",
"LatLong": "43.5325,16.5308"
},
{
"Name": "Mravince",
"PostCode": "21209",
"LatLong": "43.5333,16.5219"
}
]
},
{
"Name": "Solin",
"Places": [
{
"Name": "Blaca",
"PostCode": "21210",
"LatLong": "43.7161,16.8122"
},
{
"Name": "Solin",
"PostCode": "21210",
"LatLong": "43.55,16.5"
},
{
"Name": "Vranjic",
"PostCode": "21210",
"LatLong": "43.5333,16.4667"
}
]
},
{
"Name": "Kaštel Sućurac",
"Places": [
{
"Name": "Kaštel Sućurac",
"PostCode": "21212",
"LatLong": "43.5503,16.4264"
}
]
},
{
"Name": "Kaštel Gomilica",
"Places": [
{
"Name": "Kaštel Gomilica",
"PostCode": "21213",
"LatLong": "43.55,16.4"
}
]
},
{
"Name": "Kaštel Kambelovac",
"Places": [
{
"Name": "Kaštel Kambelovac",
"PostCode": "21214",
"LatLong": "43.55,16.3833"
}
]
},
{
"Name": "Kaštel Lukšić",
"Places": [
{
"Name": "Kaštel Lukšić",
"PostCode": "21215",
"LatLong": "43.5553,16.3675"
}
]
},
{
"Name": "Kaštel Stari",
"Places": [
{
"Name": "Kaštel Novi",
"PostCode": "21216",
"LatLong": "43.55,16.3333"
},
{
"Name": "Kaštel Štafilić",
"PostCode": "21216",
"LatLong": "43.55,16.3333"
},
{
"Name": "Kaštel Stari",
"PostCode": "21216",
"LatLong": "43.55,16.35"
}
]
},
{
"Name": "Seget Donji",
"Places": [
{
"Name": "Seget Donji",
"PostCode": "21218",
"LatLong": "43.5167,16.2333"
},
{
"Name": "Seget Gornji",
"PostCode": "21218",
"LatLong": "43.55,16.2167"
}
]
},
{
"Name": "Trogir",
"Places": [
{
"Name": "Divulje",
"PostCode": "21220",
"LatLong": "43.5272,16.2947"
},
{
"Name": "Plano",
"PostCode": "21220",
"LatLong": "43.55,16.2667"
},
{
"Name": "Seget Vranjica",
"PostCode": "21220",
"LatLong": "43.5266,16.2741"
},
{
"Name": "Trogir",
"PostCode": "21220",
"LatLong": "43.5125,16.2517"
},
{
"Name": "Žedno",
"PostCode": "21220",
"LatLong": "43.5167,16.2833"
}
]
},
{
"Name": "Marina",
"Places": [
{
"Name": "Dograde",
"PostCode": "21222",
"LatLong": "43.5453,16.1144"
},
{
"Name": "Gustirna",
"PostCode": "21222",
"LatLong": "43.5353,16.1056"
},
{
"Name": "Marina",
"PostCode": "21222",
"LatLong": "43.5147,16.1064"
},
{
"Name": "Najevi",
"PostCode": "21222",
"LatLong": "43.4624,16.2169"
},
{
"Name": "Poljica",
"PostCode": "21222",
"LatLong": "43.1489,16.7936"
},
{
"Name": "Pozorac",
"PostCode": "21222",
"LatLong": "43.4624,16.2169"
},
{
"Name": "Sevid",
"PostCode": "21222",
"LatLong": "43.5022,16.0339"
},
{
"Name": "Svinca",
"PostCode": "21222",
"LatLong": "43.4624,16.2169"
},
{
"Name": "Vrsine",
"PostCode": "21222",
"LatLong": "43.5278,16.1472"
}
]
},
{
"Name": "Okrug Gornji",
"Places": [
{
"Name": "Okrug Donji",
"PostCode": "21223",
"LatLong": "43.4956,16.2069"
},
{
"Name": "Okrug Gornji",
"PostCode": "21223",
"LatLong": "43.4972,16.2217"
}
]
},
{
"Name": "Slatine",
"Places": [
{
"Name": "Arbanija",
"PostCode": "21224",
"LatLong": "43.5122,16.2922"
},
{
"Name": "Slatine",
"PostCode": "21224",
"LatLong": "43.4994,16.3333"
}
]
},
{
"Name": "Drvenik Veliki",
"Places": [
{
"Name": "Drvenik Mali",
"PostCode": "21225",
"LatLong": "43.4494,16.0886"
},
{
"Name": "Drvenik Veliki",
"PostCode": "21225",
"LatLong": "43.45,16.15"
}
]
},
{
"Name": "Vinišće",
"Places": [
{
"Name": "Vinišće",
"PostCode": "21226",
"LatLong": "43.4897,16.1131"
}
]
},
{
"Name": "Primorski Dolac",
"Places": [
{
"Name": "Bogdanovići",
"PostCode": "21227",
"LatLong": "43.6308,16.1761"
},
{
"Name": "Primorski Dolac",
"PostCode": "21227",
"LatLong": "43.6308,16.1761"
}
]
},
{
"Name": "Blizna Donja",
"Places": [
{
"Name": "Blizna Donja",
"PostCode": "21228",
"LatLong": "43.5833,16.1056"
},
{
"Name": "Blizna Gornja",
"PostCode": "21228",
"LatLong": "43.5833,16.1056"
},
{
"Name": "Bristivica",
"PostCode": "21228",
"LatLong": "43.5833,16.15"
},
{
"Name": "Mitlo",
"PostCode": "21228",
"LatLong": "43.6,16.0833"
},
{
"Name": "Rastovac",
"PostCode": "21228",
"LatLong": "43.5667,16.0833"
},
{
"Name": "Vinovac",
"PostCode": "21228",
"LatLong": "43.5833,16.1056"
}
]
},
{
"Name": "Crivac",
"Places": [
{
"Name": "Crivac",
"PostCode": "21229",
"LatLong": "43.7667,16.3667"
}
]
},
{
"Name": "Sinj",
"Places": [
{
"Name": "Brnaze",
"PostCode": "21230",
"LatLong": "43.68,16.6497"
},
{
"Name": "Čitluk",
"PostCode": "21230",
"LatLong": "43.7536,16.6442"
},
{
"Name": "Glavice",
"PostCode": "21230",
"LatLong": "43.7142,16.6856"
},
{
"Name": "Jasensko",
"PostCode": "21230",
"LatLong": "43.73,16.6544"
},
{
"Name": "Karakašica",
"PostCode": "21230",
"LatLong": "43.7347,16.6369"
},
{
"Name": "Lučane",
"PostCode": "21230",
"LatLong": "43.7183,16.5936"
},
{
"Name": "Radošić",
"PostCode": "21230",
"LatLong": "43.6853,16.6242"
},
{
"Name": "Sinj",
"PostCode": "21230",
"LatLong": "43.7036,16.6394"
},
{
"Name": "Suhač",
"PostCode": "21230",
"LatLong": "43.7136,16.6411"
},
{
"Name": "Turjaci",
"PostCode": "21230",
"LatLong": "43.65,16.6692"
}
]
},
{
"Name": "Klis",
"Places": [
{
"Name": "Klis",
"PostCode": "21231",
"LatLong": "43.5594,16.5194"
},
{
"Name": "Konjsko",
"PostCode": "21231",
"LatLong": "43.5919,16.5"
},
{
"Name": "Koprivno",
"PostCode": "21231",
"LatLong": "43.6028,16.5494"
},
{
"Name": "Prugovo",
"PostCode": "21231",
"LatLong": "43.6228,16.5"
},
{
"Name": "Veliki Bročanac",
"PostCode": "21231",
"LatLong": "43.6167,16.4833"
}
]
},
{
"Name": "Dicmo",
"Places": [
{
"Name": "Bisko",
"PostCode": "21232",
"LatLong": "43.5803,16.6819"
},
{
"Name": "Dicmo",
"PostCode": "21232",
"LatLong": "43.6375,16.5819"
},
{
"Name": "Ercegovci",
"PostCode": "21232",
"LatLong": "43.5964,16.6372"
},
{
"Name": "Kraj",
"PostCode": "21232",
"LatLong": "43.6375,16.5819"
},
{
"Name": "Krušvar",
"PostCode": "21232",
"LatLong": "43.6083,16.6506"
},
{
"Name": "Liska",
"PostCode": "21232",
"LatLong": "43.5839,16.6642"
},
{
"Name": "Osoje",
"PostCode": "21232",
"LatLong": "43.6233,16.585"
},
{
"Name": "Prisoje",
"PostCode": "21232",
"LatLong": "43.6269,16.6128"
},
{
"Name": "Sičane",
"PostCode": "21232",
"LatLong": "43.6578,16.5892"
},
{
"Name": "Sušci",
"PostCode": "21232",
"LatLong": "43.6406,16.5681"
}
]
},
{
"Name": "Hrvace",
"Places": [
{
"Name": "Dabar",
"PostCode": "21233",
"LatLong": "43.8308,16.5569"
},
{
"Name": "Donji Bitelić",
"PostCode": "21233",
"LatLong": "43.8153,16.6428"
},
{
"Name": "Gornji Bitelić",
"PostCode": "21233",
"LatLong": "43.7936,16.63"
},
{
"Name": "Hrvace",
"PostCode": "21233",
"LatLong": "43.7633,16.615"
},
{
"Name": "Laktac",
"PostCode": "21233",
"LatLong": "43.8517,16.5372"
},
{
"Name": "Maljkovo",
"PostCode": "21233",
"LatLong": "43.8169,16.5169"
},
{
"Name": "Potravlje",
"PostCode": "21233",
"LatLong": "43.7911,16.5508"
},
{
"Name": "Rumin",
"PostCode": "21233",
"LatLong": "43.7758,16.6375"
},
{
"Name": "Satrić",
"PostCode": "21233",
"LatLong": "43.78,16.5822"
},
{
"Name": "Vučipolje",
"PostCode": "21233",
"LatLong": "43.8314,16.5819"
},
{
"Name": "Zasiok",
"PostCode": "21233",
"LatLong": "43.8194,16.5656"
},
{
"Name": "Zelovo",
"PostCode": "21233",
"LatLong": "43.7519,16.5511"
}
]
},
{
"Name": "Otišić",
"Places": [
{
"Name": "Maovice",
"PostCode": "21235",
"LatLong": "43.8833,16.3833"
},
{
"Name": "Otišić",
"PostCode": "21235",
"LatLong": "43.8436,16.5056"
}
]
},
{
"Name": "Vrlika",
"Places": [
{
"Name": "Garjak",
"PostCode": "21236",
"LatLong": "43.9,16.4833"
},
{
"Name": "Ježević",
"PostCode": "21236",
"LatLong": "43.9167,16.4667"
},
{
"Name": "Koljane",
"PostCode": "21236",
"LatLong": "43.8772,16.5111"
},
{
"Name": "Kosore",
"PostCode": "21236",
"LatLong": "43.8905,16.4546"
},
{
"Name": "Maovice",
"PostCode": "21236",
"LatLong": "43.8833,16.3833"
},
{
"Name": "Otišić",
"PostCode": "21236",
"LatLong": "43.8436,16.5056"
},
{
"Name": "Podosoje",
"PostCode": "21236",
"LatLong": "43.9,16.4333"
},
{
"Name": "Vinalić",
"PostCode": "21236",
"LatLong": "43.8905,16.4546"
},
{
"Name": "Vrlika",
"PostCode": "21236",
"LatLong": "43.9125,16.3989"
}
]
},
{
"Name": "Otok (Dalmacija)",
"Places": [
{
"Name": "Korita",
"PostCode": "21238",
"LatLong": "43.6478,16.5367"
},
{
"Name": "Otok",
"PostCode": "21238",
"LatLong": "43.6914,16.7383"
},
{
"Name": "Ovrlja",
"PostCode": "21238",
"LatLong": "43.6861,16.7483"
}
]
},
{
"Name": "Trilj",
"Places": [
{
"Name": "Čačvina",
"PostCode": "21240",
"LatLong": "43.6122,16.7889"
},
{
"Name": "Čaporice",
"PostCode": "21240",
"LatLong": "43.5947,16.7314"
},
{
"Name": "Gardun",
"PostCode": "21240",
"LatLong": "43.6117,16.7181"
},
{
"Name": "Jabuka",
"PostCode": "21240",
"LatLong": "43.6331,16.7561"
},
{
"Name": "Košute",
"PostCode": "21240",
"LatLong": "43.6308,16.695"
},
{
"Name": "Strmendolac",
"PostCode": "21240",
"LatLong": "43.618,16.737"
},
{
"Name": "Trilj",
"PostCode": "21240",
"LatLong": "43.6183,16.7242"
},
{
"Name": "Vedrine",
"PostCode": "21240",
"LatLong": "43.6228,16.7442"
},
{
"Name": "Velić",
"PostCode": "21240",
"LatLong": "43.6244,16.7867"
},
{
"Name": "Vojnić Sinjski",
"PostCode": "21240",
"LatLong": "43.6142,16.6889"
}
]
},
{
"Name": "Obrovac Sinjski",
"Places": [
{
"Name": "Bajagić",
"PostCode": "21241",
"LatLong": "43.7567,16.6667"
},
{
"Name": "Gala",
"PostCode": "21241",
"LatLong": "43.715,16.7269"
},
{
"Name": "Gljev",
"PostCode": "21241",
"LatLong": "43.7353,16.7614"
},
{
"Name": "Obrovac Sinjski",
"PostCode": "21241",
"LatLong": "43.7408,16.6797"
}
]
},
{
"Name": "Grab",
"Places": [
{
"Name": "Grab",
"PostCode": "21242",
"LatLong": "43.6469,16.7614"
},
{
"Name": "Krivodol",
"PostCode": "21242",
"LatLong": "43.6428,16.8144"
},
{
"Name": "Podi",
"PostCode": "21242",
"LatLong": "43.65,16.7767"
},
{
"Name": "Ruda",
"PostCode": "21242",
"LatLong": "43.6703,16.7983"
},
{
"Name": "Udovičić",
"PostCode": "21242",
"LatLong": "43.6664,16.7494"
},
{
"Name": "Vrabač",
"PostCode": "21242",
"LatLong": "43.6564,16.7539"
}
]
},
{
"Name": "Ugljane",
"Places": [
{
"Name": "Budimiri",
"PostCode": "21243",
"LatLong": "43.549,16.7554"
},
{
"Name": "Nova Sela",
"PostCode": "21243",
"LatLong": "43.5269,16.7733"
},
{
"Name": "Ugljane",
"PostCode": "21243",
"LatLong": "43.5711,16.7375"
},
{
"Name": "Vinine",
"PostCode": "21243",
"LatLong": "43.549,16.7554"
}
]
},
{
"Name": "Cista Velika",
"Places": [
{
"Name": "Biorine",
"PostCode": "21244",
"LatLong": "43.5531,16.8292"
},
{
"Name": "Cista Velika",
"PostCode": "21244",
"LatLong": "43.5361,16.8917"
},
{
"Name": "Dobranje",
"PostCode": "21244",
"LatLong": "43.5586,16.9139"
}
]
},
{
"Name": "Tijarica",
"Places": [
{
"Name": "Ljut",
"PostCode": "21245",
"LatLong": "43.6264,16.8528"
},
{
"Name": "Rože",
"PostCode": "21245",
"LatLong": "43.6575,16.835"
},
{
"Name": "Strizirep",
"PostCode": "21245",
"LatLong": "43.5825,16.8447"
},
{
"Name": "Tijarica",
"PostCode": "21245",
"LatLong": "43.6264,16.8528"
},
{
"Name": "Voštane",
"PostCode": "21245",
"LatLong": "43.6614,16.9017"
},
{
"Name": "Vrpolje",
"PostCode": "21245",
"LatLong": "43.6042,16.8297"
}
]
},
{
"Name": "Aržano",
"Places": [
{
"Name": "Aržano",
"PostCode": "21246",
"LatLong": "43.5908,16.9844"
},
{
"Name": "Kamensko",
"PostCode": "21246",
"LatLong": "43.6169,16.9531"
}
]
},
{
"Name": "Neorić",
"Places": [
{
"Name": "Gizdavac",
"PostCode": "21247",
"LatLong": "43.65,16.4833"
},
{
"Name": "Neorić",
"PostCode": "21247",
"LatLong": "43.6806,16.5211"
},
{
"Name": "Sutina",
"PostCode": "21247",
"LatLong": "43.6967,16.5475"
},
{
"Name": "Zelovo Sutinsko",
"PostCode": "21247",
"LatLong": "43.6757,16.5173"
}
]
},
{
"Name": "Šestanovac",
"Places": [
{
"Name": "Katuni",
"PostCode": "21250",
"LatLong": "43.4642,16.8969"
},
{
"Name": "Kreševo",
"PostCode": "21250",
"LatLong": "43.4833,16.8667"
},
{
"Name": "Šestanovac",
"PostCode": "21250",
"LatLong": "43.4544,16.9114"
},
{
"Name": "Žeževica",
"PostCode": "21250",
"LatLong": "43.45,16.9667"
}
]
},
{
"Name": "Žrnovnica",
"Places": [
{
"Name": "Donje Sitno",
"PostCode": "21251",
"LatLong": "43.5078,16.5956"
},
{
"Name": "Gornje Sitno",
"PostCode": "21251",
"LatLong": "43.5172,16.6103"
},
{
"Name": "Žrnovnica",
"PostCode": "21251",
"LatLong": "43.5211,16.5592"
}
]
},
{
"Name": "Tugare",
"Places": [
{
"Name": "Dubrava",
"PostCode": "21252",
"LatLong": "43.5031,16.6311"
},
{
"Name": "Naklice",
"PostCode": "21252",
"LatLong": "43.4849,16.6489"
},
{
"Name": "Tugare",
"PostCode": "21252",
"LatLong": "43.4667,16.6667"
}
]
},
{
"Name": "Gata",
"Places": [
{
"Name": "Čisla",
"PostCode": "21253",
"LatLong": "43.45,16.7333"
},
{
"Name": "Gata",
"PostCode": "21253",
"LatLong": "43.4667,16.7"
},
{
"Name": "Ostrovica",
"PostCode": "21253",
"LatLong": "43.4542,16.7458"
},
{
"Name": "Smolonje",
"PostCode": "21253",
"LatLong": "43.45,16.7833"
},
{
"Name": "Zvečanje",
"PostCode": "21253",
"LatLong": "43.45,16.7667"
}
]
},
{
"Name": "Blato na Cetini",
"Places": [
{
"Name": "Blato na Cetini",
"PostCode": "21254",
"LatLong": "43.5031,16.8228"
},
{
"Name": "Nova Sela",
"PostCode": "21254",
"LatLong": "43.5269,16.7733"
},
{
"Name": "Seoca",
"PostCode": "21254",
"LatLong": "43.4667,16.8167"
},
{
"Name": "Trnbusi",
"PostCode": "21254",
"LatLong": "43.4833,16.7833"
}
]
},
{
"Name": "Zadvarje",
"Places": [
{
"Name": "Dupci",
"PostCode": "21255",
"LatLong": "43.389,16.9596"
},
{
"Name": "Gornja Brela",
"PostCode": "21255",
"LatLong": "43.4,16.9167"
},
{
"Name": "Kraljevac",
"PostCode": "21255",
"LatLong": "43.389,16.9596"
},
{
"Name": "Krnići",
"PostCode": "21255",
"LatLong": "43.389,16.9596"
},
{
"Name": "Krželji",
"PostCode": "21255",
"LatLong": "43.389,16.9596"
},
{
"Name": "Pejkovići",
"PostCode": "21255",
"LatLong": "43.3078,17.1653"
},
{
"Name": "Potpoletnica",
"PostCode": "21255",
"LatLong": "43.389,16.9596"
},
{
"Name": "Santrići",
"PostCode": "21255",
"LatLong": "43.389,16.9596"
},
{
"Name": "Slime",
"PostCode": "21255",
"LatLong": "43.4167,16.8667"
},
{
"Name": "Zadvarje",
"PostCode": "21255",
"LatLong": "43.4314,16.8897"
}
]
},
{
"Name": "Cista Provo",
"Places": [
{
"Name": "Cista Provo",
"PostCode": "21256",
"LatLong": "43.5033,16.9478"
},
{
"Name": "Svib",
"PostCode": "21256",
"LatLong": "43.5517,16.9631"
}
]
},
{
"Name": "Lovreć",
"Places": [
{
"Name": "Lovreć",
"PostCode": "21257",
"LatLong": "43.5,17"
},
{
"Name": "Opanci",
"PostCode": "21257",
"LatLong": "43.4833,16.9833"
}
]
},
{
"Name": "Imotski",
"Places": [
{
"Name": "Donji Vinjani",
"PostCode": "21260",
"LatLong": "43.4311,17.2528"
},
{
"Name": "Glavina Donja",
"PostCode": "21260",
"LatLong": "43.445,17.1989"
},
{
"Name": "Glavina Gornja",
"PostCode": "21260",
"LatLong": "43.4733,17.2058"
},
{
"Name": "Gornji Vinjani",
"PostCode": "21260",
"LatLong": "43.4836,17.2358"
},
{
"Name": "Imotski",
"PostCode": "21260",
"LatLong": "43.4467,17.2167"
},
{
"Name": "Medvidovića Draga",
"PostCode": "21260",
"LatLong": "43.4559,17.222"
}
]
},
{
"Name": "Runović",
"Places": [
{
"Name": "Podosoje",
"PostCode": "21261",
"LatLong": "43.3703,17.2128"
},
{
"Name": "Runović",
"PostCode": "21261",
"LatLong": "43.3767,17.2367"
}
]
},
{
"Name": "Kamenmost",
"Places": [
{
"Name": "Drum",
"PostCode": "21262",
"LatLong": "43.4169,17.1761"
},
{
"Name": "Grubine",
"PostCode": "21262",
"LatLong": "43.4228,17.1497"
},
{
"Name": "Hrščevani",
"PostCode": "21262",
"LatLong": "43.4162,17.1711"
},
{
"Name": "Ivanbegovina",
"PostCode": "21262",
"LatLong": "43.4178,17.1519"
},
{
"Name": "Kamenmost",
"PostCode": "21262",
"LatLong": "43.4264,17.1861"
},
{
"Name": "Podbablje Gornje",
"PostCode": "21262",
"LatLong": "43.3972,17.1917"
}
]
},
{
"Name": "Krivodol",
"Places": [
{
"Name": "Dobrinče",
"PostCode": "21263",
"LatLong": "43.4294,17.139"
},
{
"Name": "Dolića Draga",
"PostCode": "21263",
"LatLong": "43.4294,17.139"
},
{
"Name": "Krivodol",
"PostCode": "21263",
"LatLong": "43.4369,17.1294"
},
{
"Name": "Lokvičići",
"PostCode": "21263",
"LatLong": "43.4294,17.139"
},
{
"Name": "Poljica",
"PostCode": "21263",
"LatLong": "43.4108,17.1419"
},