[
{
"Provinces": [
{
"Communities": [
{
"Places": [
{
"Name": "Akranesi",
"PostCode": "300",
"Location": {
"Latitude": 64.3218,
"Longitude": -22.0749
}
},
{
"Name": "Akranesi",
"PostCode": "301",
"Location": {
"Latitude": 64.3218,
"Longitude": -22.0749
}
},
{
"Name": "Akranesi",
"PostCode": "302",
"Location": {
"Latitude": 64.3218,
"Longitude": -22.0749
}
},
{
"Name": "Akureyri",
"PostCode": "600",
"Location": {
"Latitude": 65.6835,
"Longitude": -18.0878
}
},
{
"Name": "Akureyri",
"PostCode": "601",
"Location": {
"Latitude": 65.6835,
"Longitude": -18.0878
}
},
{
"Name": "Akureyri",
"PostCode": "602",
"Location": {
"Latitude": 65.6835,
"Longitude": -18.0878
}
},
{
"Name": "Akureyri",
"PostCode": "603",
"Location": {
"Latitude": 65.6835,
"Longitude": -18.0878
}
},
{
"Name": "Akureyri",
"PostCode": "604",
"Location": {
"Latitude": 65.6835,
"Longitude": -18.0878
}
},
{
"Name": "Akureyri",
"PostCode": "605",
"Location": {
"Latitude": 65.6835,
"Longitude": -18.0878
}
},
{
"Name": "Akureyri",
"PostCode": "606",
"Location": {
"Latitude": 65.6835,
"Longitude": -18.0878
}
},
{
"Name": "Akureyri",
"PostCode": "607",
"Location": {
"Latitude": 65.6835,
"Longitude": -18.0878
}
},
{
"Name": "Álftanesi",
"PostCode": "225",
"Location": {
"Latitude": 64.1,
"Longitude": -22.0167
}
},
{
"Name": "Bakkafirði",
"PostCode": "685",
"Location": {
"Latitude": 66.0377,
"Longitude": -14.7931
}
},
{
"Name": "Bakkafjörður",
"PostCode": "686",
"Location": {
"Latitude": 66.0377,
"Longitude": -14.7931
}
},
{
"Name": "Bíldudal",
"PostCode": "465",
"Location": {
"Latitude": 65.6853,
"Longitude": -23.5999
}
},
{
"Name": "Bíldudalur",
"PostCode": "466",
"Location": {
"Latitude": 65.6853,
"Longitude": -23.5999
}
},
{
"Name": "Blönduósi",
"PostCode": "540",
"Location": {
"Latitude": 65.6593,
"Longitude": -20.2808
}
},
{
"Name": "Blönduósi",
"PostCode": "541",
"Location": {
"Latitude": 65.6593,
"Longitude": -20.2808
}
},
{
"Name": "Bolungarvík",
"PostCode": "415",
"Location": {
"Latitude": 66.1592,
"Longitude": -23.2494
}
},
{
"Name": "Bolungarvík",
"PostCode": "416",
"Location": {
"Latitude": 66.1592,
"Longitude": -23.2494
}
},
{
"Name": "Borgarfirði (eystri)",
"PostCode": "720",
"Location": {
"Latitude": 65.5255,
"Longitude": -13.8038
}
},
{
"Name": "Borgarfjörður eystri",
"PostCode": "721",
"Location": {
"Latitude": 65.5255,
"Longitude": -13.8038
}
},
{
"Name": "Borgarnesi",
"PostCode": "310",
"Location": {
"Latitude": 64.5383,
"Longitude": -21.9206
}
},
{
"Name": "Borgarnesi",
"PostCode": "311",
"Location": {
"Latitude": 64.5383,
"Longitude": -21.9206
}
},
{
"Name": "Breiðdalsvík",
"PostCode": "760",
"Location": {
"Latitude": 64.7921,
"Longitude": -14.0065
}
},
{
"Name": "Breiðdalsvík",
"PostCode": "761",
"Location": {
"Latitude": 64.7921,
"Longitude": -14.0065
}
},
{
"Name": "Búðardal",
"PostCode": "370",
"Location": {
"Latitude": 65.1094,
"Longitude": -21.7639
}
},
{
"Name": "Búðardal",
"PostCode": "371",
"Location": {
"Latitude": 65.1094,
"Longitude": -21.7639
}
},
{
"Name": "Dalvík",
"PostCode": "620",
"Location": {
"Latitude": 65.9702,
"Longitude": -18.5286
}
},
{
"Name": "Dalvík",
"PostCode": "621",
"Location": {
"Latitude": 65.9702,
"Longitude": -18.5286
}
},
{
"Name": "Djúpavogi",
"PostCode": "765",
"Location": {
"Latitude": 64.6571,
"Longitude": -14.2852
}
},
{
"Name": "Djúpivogur",
"PostCode": "766",
"Location": {
"Latitude": 64.6571,
"Longitude": -14.2852
}
},
{
"Name": "Drangsnesi",
"PostCode": "520",
"Location": {
"Latitude": 65.6892,
"Longitude": -21.4435
}
},
{
"Name": "Egilsstöðum",
"PostCode": "700",
"Location": {
"Latitude": 65.2669,
"Longitude": -14.3948
}
},
{
"Name": "Egilsstöðum",
"PostCode": "701",
"Location": {
"Latitude": 65.2669,
"Longitude": -14.3948
}
},
{
"Name": "Eskifirði",
"PostCode": "735",
"Location": {
"Latitude": 65.0731,
"Longitude": -14.0152
}
},
{
"Name": "Eskifjörður",
"PostCode": "736",
"Location": {
"Latitude": 65.0731,
"Longitude": -14.0152
}
},
{
"Name": "Eyrarbakka",
"PostCode": "820",
"Location": {
"Latitude": 63.8632,
"Longitude": -21.1491
}
},
{
"Name": "Fáskrúðsfirði",
"PostCode": "750",
"Location": {
"Latitude": 64.9313,
"Longitude": -14.0189
}
},
{
"Name": "Fáskrúðsfjörður",
"PostCode": "751",
"Location": {
"Latitude": 64.9313,
"Longitude": -14.0189
}
},
{
"Name": "Flatey á Breiðafirði",
"PostCode": "345",
"Location": {
"Latitude": 65.0754,
"Longitude": -22.7298
}
},
{
"Name": "Flateyri",
"PostCode": "425",
"Location": {
"Latitude": 66.0512,
"Longitude": -23.5155
}
},
{
"Name": "Flateyri",
"PostCode": "426",
"Location": {
"Latitude": 66.0512,
"Longitude": -23.5155
}
},
{
"Name": "Fljótum",
"PostCode": "570",
"Location": {
"Latitude": 66.0541,
"Longitude": -19.1277
}
},
{
"Name": "Flúðir",
"PostCode": "846",
"Location": {
"Latitude": 64.1343,
"Longitude": -20.3226
}
},
{
"Name": "Flúðum",
"PostCode": "845",
"Location": {
"Latitude": 64.1343,
"Longitude": -20.3226
}
},
{
"Name": "Fosshólli",
"PostCode": "645",
"Location": {
"Latitude": 66.0415,
"Longitude": -17.3383
}
},
{
"Name": "Garðabæ",
"PostCode": "210",
"Location": {
"Latitude": 64.0887,
"Longitude": -21.923
}
},
{
"Name": "Garðabæ",
"PostCode": "212",
"Location": {
"Latitude": 64.0887,
"Longitude": -21.923
}
},
{
"Name": "Garði",
"PostCode": "250",
"Location": {
"Latitude": 64.0705,
"Longitude": -22.6513
}
},
{
"Name": "Garður",
"PostCode": "251",
"Location": {
"Latitude": 64.0705,
"Longitude": -22.6513
}
},
{
"Name": "Grenivík",
"PostCode": "610",
"Location": {
"Latitude": 65.951,
"Longitude": -18.1749
}
},
{
"Name": "Grenivík",
"PostCode": "616",
"Location": {
"Latitude": 65.951,
"Longitude": -18.1749
}
},
{
"Name": "Grímsey",
"PostCode": "611",
"Location": {
"Latitude": 66.5394,
"Longitude": -18.0135
}
},
{
"Name": "Grindavík",
"PostCode": "240",
"Location": {
"Latitude": 63.8385,
"Longitude": -22.4393
}
},
{
"Name": "Grindavík",
"PostCode": "241",
"Location": {
"Latitude": 63.8385,
"Longitude": -22.4393
}
},
{
"Name": "Grundarfirði",
"PostCode": "350",
"Location": {
"Latitude": 64.9243,
"Longitude": -23.2631
}
},
{
"Name": "Grundarfjörður",
"PostCode": "351",
"Location": {
"Latitude": 64.9243,
"Longitude": -23.2631
}
},
{
"Name": "Hafnarfirði",
"PostCode": "220",
"Location": {
"Latitude": 64.0671,
"Longitude": -21.9377
}
},
{
"Name": "Hafnarfirði",
"PostCode": "221",
"Location": {
"Latitude": 64.0671,
"Longitude": -21.9377
}
},
{
"Name": "Hafnarfirði",
"PostCode": "222",
"Location": {
"Latitude": 64.0671,
"Longitude": -21.9377
}
},
{
"Name": "Hellissandi",
"PostCode": "360",
"Location": {
"Latitude": 64.9176,
"Longitude": -23.8856
}
},
{
"Name": "Hellu",
"PostCode": "850",
"Location": {
"Latitude": 63.8348,
"Longitude": -20.4008
}
},
{
"Name": "Hellu",
"PostCode": "851",
"Location": {
"Latitude": 63.8348,
"Longitude": -20.4008
}
},
{
"Name": "Hnífsdal",
"PostCode": "410",
"Location": {
"Latitude": 66.1113,
"Longitude": -23.1204
}
},
{
"Name": "Höfn í Hornafirði",
"PostCode": "780",
"Location": {
"Latitude": 64.2539,
"Longitude": -15.2121
}
},
{
"Name": "Höfn í Hornafirði",
"PostCode": "781",
"Location": {
"Latitude": 64.2539,
"Longitude": -15.2121
}
},
{
"Name": "Hofsós",
"PostCode": "565",
"Location": {
"Latitude": 65.899,
"Longitude": -19.413
}
},
{
"Name": "Hofsós",
"PostCode": "566",
"Location": {
"Latitude": 65.899,
"Longitude": -19.413
}
},
{
"Name": "Hólmavík",
"PostCode": "510",
"Location": {
"Latitude": 65.7077,
"Longitude": -21.6706
}
},
{
"Name": "Hólmavík",
"PostCode": "511",
"Location": {
"Latitude": 65.7077,
"Longitude": -21.6706
}
},
{
"Name": "Hólmavík",
"PostCode": "512",
"Location": {
"Latitude": 65.7077,
"Longitude": -21.6706
}
},
{
"Name": "Hrísey",
"PostCode": "630",
"Location": {
"Latitude": 65.9784,
"Longitude": -18.3778
}
},
{
"Name": "Húsavík",
"PostCode": "640",
"Location": {
"Latitude": 66.0415,
"Longitude": -17.3383
}
},
{
"Name": "Húsavík",
"PostCode": "641",
"Location": {
"Latitude": 66.0415,
"Longitude": -17.3383
}
},
{
"Name": "Hvammstanga",
"PostCode": "530",
"Location": {
"Latitude": 65.3971,
"Longitude": -20.9435
}
},
{
"Name": "Hvammstanga",
"PostCode": "531",
"Location": {
"Latitude": 65.3971,
"Longitude": -20.9435
}
},
{
"Name": "Hveragerði",
"PostCode": "810",
"Location": {
"Latitude": 64.0004,
"Longitude": -21.186
}
},
{
"Name": "Hvolsvelli",
"PostCode": "860",
"Location": {
"Latitude": 63.7507,
"Longitude": -20.2245
}
},
{
"Name": "Hvolsvelli",
"PostCode": "861",
"Location": {
"Latitude": 63.7507,
"Longitude": -20.2245
}
},
{
"Name": "Ísafirði",
"PostCode": "400",
"Location": {
"Latitude": 66.0747,
"Longitude": -23.135
}
},
{
"Name": "Ísafirði",
"PostCode": "401",
"Location": {
"Latitude": 66.0747,
"Longitude": -23.135
}
},
{
"Name": "Keflavíkurflugvelli",
"PostCode": "235",
"Location": {
"Latitude": 63.9981,
"Longitude": -22.5611
}
},
{
"Name": "Kirkjubæjarklaustri",
"PostCode": "880",
"Location": {
"Latitude": 63.7893,
"Longitude": -18.0527
}
},
{
"Name": "Kirkjubæjarklaustur",
"PostCode": "881",
"Location": {
"Latitude": 63.7893,
"Longitude": -18.0527
}
},
{
"Name": "Kjalarnesi",
"PostCode": "116",
"Location": {
"Latitude": 64.1355,
"Longitude": -21.8954
}
},
{
"Name": "Kópaskeri",
"PostCode": "670",
"Location": {
"Latitude": 66.3018,
"Longitude": -16.4445
}
},
{
"Name": "Kópaskeri",
"PostCode": "671",
"Location": {
"Latitude": 66.3018,
"Longitude": -16.4445
}
},
{
"Name": "Kópavogi",
"PostCode": "200",
"Location": {
"Latitude": 64.1123,
"Longitude": -21.913
}
},
{
"Name": "Kópavogi",
"PostCode": "201",
"Location": {
"Latitude": 64.1123,
"Longitude": -21.913
}
},
{
"Name": "Kópavogi",
"PostCode": "202",
"Location": {
"Latitude": 64.1123,
"Longitude": -21.913
}
},
{
"Name": "Kópavogi",
"PostCode": "203",
"Location": {
"Latitude": 64.1123,
"Longitude": -21.913
}
},
{
"Name": "Kópavogur",
"PostCode": "206",
"Location": {
"Latitude": 64.1123,
"Longitude": -21.913
}
},
{
"Name": "Laugarvatni",
"PostCode": "840",
"Location": {
"Latitude": 64.2176,
"Longitude": -20.7339
}
},
{
"Name": "Laugum",
"PostCode": "650",
"Location": {
"Latitude": 65.7216,
"Longitude": -17.3735
}
},
{
"Name": "Mjóafirði",
"PostCode": "715",
"Location": {
"Latitude": 65.2601,
"Longitude": -14.0058
}
},
{
"Name": "Mosfellsbæ",
"PostCode": "270",
"Location": {
"Latitude": 64.1667,
"Longitude": -21.7
}
},
{
"Name": "Mosfellsbæ",
"PostCode": "271",
"Location": {
"Latitude": 64.1667,
"Longitude": -21.7
}
},
{
"Name": "Mosfellsbæ",
"PostCode": "276",
"Location": {
"Latitude": 64.1667,
"Longitude": -21.7
}
},
{
"Name": "Mývatni",
"PostCode": "660",
"Location": {
"Latitude": 65.6421,
"Longitude": -16.9124
}
},
{
"Name": "Neskaupstað",
"PostCode": "740",
"Location": {
"Latitude": 65.1482,
"Longitude": -13.6837
}
},
{
"Name": "Neskaupstaður",
"PostCode": "741",
"Location": {
"Latitude": 65.1482,
"Longitude": -13.6837
}
},
{
"Name": "Norðurfirði",
"PostCode": "524",
"Location": {
"Latitude": 65.6892,
"Longitude": -21.4435
}
},
{
"Name": "Ólafsfirði",
"PostCode": "625",
"Location": {
"Latitude": 66.0025,
"Longitude": -18.5671
}
},
{
"Name": "Ólafsfjörður",
"PostCode": "626",
"Location": {
"Latitude": 66.0672,
"Longitude": -18.644
}
},
{
"Name": "Ólafsvík",
"PostCode": "355",
"Location": {
"Latitude": 64.8943,
"Longitude": -23.7092
}
},
{
"Name": "Ölfus",
"PostCode": "816",
"Location": {
"Latitude": 63.8559,
"Longitude": -21.3834
}
},
{
"Name": "Öræfum",
"PostCode": "785",
"Location": {
"Latitude": 64.2539,
"Longitude": -15.2121
}
},
{
"Name": "Patreksfirði",
"PostCode": "450",
"Location": {
"Latitude": 65.5978,
"Longitude": -23.996
}
},
{
"Name": "Patreksfirði",
"PostCode": "451",
"Location": {
"Latitude": 65.5978,
"Longitude": -23.996
}
},
{
"Name": "Raufarhöfn",
"PostCode": "675",
"Location": {
"Latitude": 66.4543,
"Longitude": -15.9511
}
},
{
"Name": "Raufarhöfn",
"PostCode": "676",
"Location": {
"Latitude": 66.4543,
"Longitude": -15.9511
}
},
{
"Name": "Reyðarfirði",
"PostCode": "730",
"Location": {
"Latitude": 65.0316,
"Longitude": -14.2183
}
},
{
"Name": "Reyðarfjörður",
"PostCode": "731",
"Location": {
"Latitude": 65.0316,
"Longitude": -14.2183
}
},
{
"Name": "Reykhólahreppi",
"PostCode": "380",
"Location": {
"Latitude": 65.4461,
"Longitude": -22.1899
}
},
{
"Name": "Reykhólahreppur",
"PostCode": "381",
"Location": {
"Latitude": 65.4833,
"Longitude": -22.3667
}
},
{
"Name": "Reykholt í Borgarfirði",
"PostCode": "320",
"Location": {
"Latitude": 64.6644,
"Longitude": -21.2915
}
},
{
"Name": "Reykjanesbæ",
"PostCode": "230",
"Location": {
"Latitude": 63.9981,
"Longitude": -22.5611
}
},
{
"Name": "Reykjanesbæ",
"PostCode": "232",
"Location": {
"Latitude": 63.9981,
"Longitude": -22.5611
}
},
{
"Name": "Reykjanesbæ",
"PostCode": "233",
"Location": {
"Latitude": 63.9981,
"Longitude": -22.5611
}
},
{
"Name": "Reykjanesbæ",
"PostCode": "260",
"Location": {
"Latitude": 63.9981,
"Longitude": -22.5611
}
},
{
"Name": "Reykjanesbær",
"PostCode": "262",
"Location": {
"Latitude": 63.9981,
"Longitude": -22.5611
}
},
{
"Name": "Reykjavík",
"PostCode": "102",
"Location": {
"Latitude": 64.1355,
"Longitude": -21.8954
}
},
{
"Name": "Reykjavík",
"PostCode": "150",
"Location": {
"Latitude": 64.1355,
"Longitude": -21.8954
}
},
{
"Name": "Reykjavík",
"PostCode": "155",
"Location": {
"Latitude": 64.1355,
"Longitude": -21.8954
}
},
{
"Name": "Reykjavík",
"PostCode": "161",
"Location": {
"Latitude": 64.1355,
"Longitude": -21.8954
}
},
{
"Name": "Reykjavík",
"PostCode": "162",
"Location": {
"Latitude": 64.1355,
"Longitude": -21.8954
}
},
{
"Name": "Reykjavík - 1",
"PostCode": "101",
"Location": {
"Latitude": 64.1355,
"Longitude": -21.8954
}
},
{
"Name": "Reykjavík - 1",
"PostCode": "121",
"Location": {
"Latitude": 64.1355,
"Longitude": -21.8954
}
},
{
"Name": "Reykjavík - 10",
"PostCode": "110",
"Location": {
"Latitude": 64.1355,
"Longitude": -21.8954
}
},
{
"Name": "Reykjavík - 10",
"PostCode": "130",
"Location": {
"Latitude": 64.1355,
"Longitude": -21.8954
}
},
{
"Name": "Reykjavík - 11",
"PostCode": "111",
"Location": {
"Latitude": 64.1355,
"Longitude": -21.8954
}
},
{
"Name": "Reykjavík - 12",
"PostCode": "112",
"Location": {
"Latitude": 64.1355,
"Longitude": -21.8954
}
},
{
"Name": "Reykjavík - 12",
"PostCode": "132",
"Location": {
"Latitude": 64.1355,
"Longitude": -21.8954
}
},
{
"Name": "Reykjavík - 13",
"PostCode": "113",
"Location": {
"Latitude": 64.1355,
"Longitude": -21.8954
}
},
{
"Name": "Reykjavík - 3",
"PostCode": "103",
"Location": {
"Latitude": 64.1355,
"Longitude": -21.8954
}
},
{
"Name": "Reykjavík - 3",
"PostCode": "123",
"Location": {
"Latitude": 64.1355,
"Longitude": -21.8954
}
},
{
"Name": "Reykjavík - 4",
"PostCode": "104",
"Location": {
"Latitude": 64.1355,
"Longitude": -21.8954
}
},
{
"Name": "Reykjavík - 4",
"PostCode": "124",
"Location": {
"Latitude": 64.1355,
"Longitude": -21.8954
}
},
{
"Name": "Reykjavík - 5",
"PostCode": "105",
"Location": {
"Latitude": 64.1355,
"Longitude": -21.8954
}
},
{
"Name": "Reykjavík - 5",
"PostCode": "125",
"Location": {
"Latitude": 64.1355,
"Longitude": -21.8954
}
},
{
"Name": "Reykjavík - 7",
"PostCode": "107",
"Location": {
"Latitude": 64.1355,
"Longitude": -21.8954
}
},
{
"Name": "Reykjavík - 7",
"PostCode": "127",
"Location": {
"Latitude": 64.1355,
"Longitude": -21.8954
}
},
{
"Name": "Reykjavík - 8",
"PostCode": "108",
"Location": {
"Latitude": 64.1355,
"Longitude": -21.8954
}
},
{
"Name": "Reykjavík - 8",
"PostCode": "128",
"Location": {
"Latitude": 64.1355,
"Longitude": -21.8954
}
},
{
"Name": "Reykjavík - 9",
"PostCode": "109",
"Location": {
"Latitude": 64.1355,
"Longitude": -21.8954
}
},
{
"Name": "Reykjavík - 9",
"PostCode": "129",
"Location": {
"Latitude": 64.1355,
"Longitude": -21.8954
}
},
{
"Name": "Sandgerði",
"PostCode": "245",
"Location": {
"Latitude": 64.0376,
"Longitude": -22.708
}
},
{
"Name": "Sandgerði",
"PostCode": "246",
"Location": {
"Latitude": 64.0376,
"Longitude": -22.708
}
},
{
"Name": "Sauðárkróki",
"PostCode": "550",
"Location": {
"Latitude": 65.7461,
"Longitude": -19.6394
}
},
{
"Name": "Sauðárkróki",
"PostCode": "551",
"Location": {
"Latitude": 65.7461,
"Longitude": -19.6394
}
},
{
"Name": "Selfoss",
"PostCode": "803",
"Location": {
"Latitude": 63.9331,
"Longitude": -20.9971
}
},
{
"Name": "Selfoss",
"PostCode": "804",
"Location": {
"Latitude": 63.9331,
"Longitude": -20.9971
}
},
{
"Name": "Selfoss",
"PostCode": "805",
"Location": {
"Latitude": 63.9331,
"Longitude": -20.9971
}
},
{
"Name": "Selfoss",
"PostCode": "806",
"Location": {
"Latitude": 63.9331,
"Longitude": -20.9971
}
},
{
"Name": "Selfossi",
"PostCode": "800",
"Location": {
"Latitude": 63.9331,
"Longitude": -20.9971
}
},
{
"Name": "Selfossi",
"PostCode": "801",
"Location": {
"Latitude": 63.9331,
"Longitude": -20.9971
}
},
{
"Name": "Selfossi",
"PostCode": "802",
"Location": {
"Latitude": 63.9331,
"Longitude": -20.9971
}
},
{
"Name": "Seltjarnarnesi",
"PostCode": "170",
"Location": {
"Latitude": 64.1531,
"Longitude": -21.995
}
},
{
"Name": "Seltjarnarnesi",
"PostCode": "172",
"Location": {
"Latitude": 64.1531,
"Longitude": -21.995
}
},
{
"Name": "Seyðisfirði",
"PostCode": "710",
"Location": {
"Latitude": 65.2601,
"Longitude": -14.0058
}
},
{
"Name": "Seyðisfjörður",
"PostCode": "711",
"Location": {
"Latitude": 65.2601,
"Longitude": -14.0058
}
},
{
"Name": "Siglufirði",
"PostCode": "580",
"Location": {
"Latitude": 66.152,
"Longitude": -18.9082
}
},
{
"Name": "Siglufjörður",
"PostCode": "581",
"Location": {
"Latitude": 66.152,
"Longitude": -18.9082
}
},
{
"Name": "Skagaströnd",
"PostCode": "545",
"Location": {
"Latitude": 65.8232,
"Longitude": -20.3025
}
},
{
"Name": "Skagaströnd",
"PostCode": "546",
"Location": {
"Latitude": 65.8232,
"Longitude": -20.3025
}
},
{
"Name": "Snæfellsbæ",
"PostCode": "356",
"Location": {
"Latitude": 64.9143,
"Longitude": -23.4118
}
},
{
"Name": "Stað",
"PostCode": "500",
"Location": {
"Latitude": 65.1439,
"Longitude": -21.0593
}
},
{
"Name": "Stöðvarfirði",
"PostCode": "755",
"Location": {
"Latitude": 64.833,
"Longitude": -13.8749
}
},
{
"Name": "Stöðvarfjörður",
"PostCode": "756",
"Location": {
"Latitude": 64.833,
"Longitude": -13.8749
}
},
{
"Name": "Stokkseyri",
"PostCode": "825",
"Location": {
"Latitude": 63.8379,
"Longitude": -21.0587
}
},
{
"Name": "Stykkishólmi",
"PostCode": "340",
"Location": {
"Latitude": 65.0754,
"Longitude": -22.7298
}
},
{
"Name": "Stykkishólmur",
"PostCode": "341",
"Location": {
"Latitude": 65.0754,
"Longitude": -22.7298
}
},
{
"Name": "Stykkishólmur",
"PostCode": "342",
"Location": {
"Latitude": 65.0754,
"Longitude": -22.7298
}
},
{
"Name": "Súðavík",
"PostCode": "420",
"Location": {
"Latitude": 66.0383,
"Longitude": -22.9859
}
},
{
"Name": "Súðavík",
"PostCode": "421",
"Location": {
"Latitude": 66.0383,
"Longitude": -22.9859
}
},
{
"Name": "Suðureyri",
"PostCode": "430",
"Location": {
"Latitude": 66.1304,
"Longitude": -23.528
}
},
{
"Name": "Suðureyri",
"PostCode": "431",
"Location": {
"Latitude": 66.1304,
"Longitude": -23.528
}
},
{
"Name": "Tálknafirði",
"PostCode": "460",
"Location": {
"Latitude": 65.6265,
"Longitude": -23.8246
}
},
{
"Name": "Tálknafjörður",
"PostCode": "461",
"Location": {
"Latitude": 65.6265,
"Longitude": -23.8246
}
},
{
"Name": "Varmahlíð",
"PostCode": "560",
"Location": {
"Latitude": 65.553,
"Longitude": -19.4461
}
},
{
"Name": "Varmahlíð",
"PostCode": "561",
"Location": {
"Latitude": 65.553,
"Longitude": -19.4461
}
},
{
"Name": "Vestmannaeyjum",
"PostCode": "900",
"Location": {
"Latitude": 63.4427,
"Longitude": -20.2734
}
},
{
"Name": "Vestmannaeyjum",
"PostCode": "902",
"Location": {
"Latitude": 63.4427,
"Longitude": -20.2734
}
},
{
"Name": "Vík",
"PostCode": "870",
"Location": {
"Latitude": 63.4194,
"Longitude": -19.0097
}
},
{
"Name": "Vík",
"PostCode": "871",
"Location": {
"Latitude": 63.4194,
"Longitude": -19.0097
}
},
{
"Name": "Vogar",
"PostCode": "191",
"Location": {
"Latitude": 63.9816,
"Longitude": -22.3847
}
},
{
"Name": "Vogum",
"PostCode": "190",
"Location": {
"Latitude": 63.9816,
"Longitude": -22.3847
}
},
{
"Name": "Vopnafirði",
"PostCode": "690",
"Location": {
"Latitude": 65.7566,
"Longitude": -14.8278
}
},
{
"Name": "Vopnafjörður",
"PostCode": "691",
"Location": {
"Latitude": 65.7566,
"Longitude": -14.8278
}
},
{
"Name": "Þingeyri",
"PostCode": "470",
"Location": {
"Latitude": 65.879,
"Longitude": -23.4929
}
},
{
"Name": "Þingeyri",
"PostCode": "471",
"Location": {
"Latitude": 65.879,
"Longitude": -23.4929
}
},
{
"Name": "Þorlákshöfn",
"PostCode": "815",
"Location": {
"Latitude": 63.8559,
"Longitude": -21.3834
}
},
{
"Name": "Þórshöfn",
"PostCode": "680",
"Location": {
"Latitude": 66.1981,
"Longitude": -15.3368
}
},
{
"Name": "Þórshöfn",
"PostCode": "681",
"Location": {
"Latitude": 66.1981,
"Longitude": -15.3368
}
}
]
}
]
}
]
}
]