[
{
"Provinces": [
{
"Name": "Anuradhapura",
"Code": "AD",
"Communities": [
{
"Places": [
{
"Name": "Andiyagala",
"PostCode": "50112",
"Latitude": 7.9,
"Longitude": 80.5261
},
{
"Name": "Angamuwa",
"PostCode": "50248",
"Latitude": 8.1812,
"Longitude": 80.2013
},
{
"Name": "Anuradhapura",
"PostCode": "50000",
"Latitude": 8.3565,
"Longitude": 80.4173
},
{
"Name": "Awukana",
"PostCode": "50169",
"Latitude": 7.9969,
"Longitude": 80.5461
},
{
"Name": "Bogahawewa",
"PostCode": "50566",
"Latitude": 8.3169,
"Longitude": 80.2401
},
{
"Name": "Dematawewa",
"PostCode": "50356",
"Latitude": 8.2833,
"Longitude": 80.6667
},
{
"Name": "Dunumadalawa",
"PostCode": "50214",
"Latitude": 7.9169,
"Longitude": 80.0505
},
{
"Name": "Dutuwewa",
"PostCode": "50393",
"Latitude": 8.3167,
"Longitude": 80.75
},
{
"Name": "Elayapattuwa",
"PostCode": "50014",
"Latitude": 8.3955,
"Longitude": 80.3103
},
{
"Name": "Eppawala",
"PostCode": "50260",
"Latitude": 8.1426,
"Longitude": 80.403
},
{
"Name": "Etawatunuwewa",
"PostCode": "50584",
"Latitude": 8.4941,
"Longitude": 80.4801
},
{
"Name": "Etaweeragollewa",
"PostCode": "50518",
"Latitude": 8.4941,
"Longitude": 80.4801
},
{
"Name": "Galadivulwewa",
"PostCode": "50210",
"Latitude": 7.9218,
"Longitude": 80.0859
},
{
"Name": "Galenbindunuwewa",
"PostCode": "50390",
"Latitude": 8.2833,
"Longitude": 80.7167
},
{
"Name": "Galkadawala",
"PostCode": "50006",
"Latitude": 8.6044,
"Longitude": 80.681
},
{
"Name": "Galkiriyagama",
"PostCode": "50120",
"Latitude": 7.9425,
"Longitude": 80.565
},
{
"Name": "Galkulama",
"PostCode": "50064",
"Latitude": 8.2667,
"Longitude": 80.5
},
{
"Name": "Galnewa",
"PostCode": "50170",
"Latitude": 8.0257,
"Longitude": 80.4803
},
{
"Name": "Gambirigaswewa",
"PostCode": "50057",
"Latitude": 8.2377,
"Longitude": 80.3368
},
{
"Name": "Ganewalpola",
"PostCode": "50142",
"Latitude": 8.0933,
"Longitude": 80.6215
},
{
"Name": "Gemunupura",
"PostCode": "50224",
"Latitude": 8.1929,
"Longitude": 80.1457
},
{
"Name": "Getalawa",
"PostCode": "50392",
"Latitude": 8.3,
"Longitude": 80.7333
},
{
"Name": "Gnanikulama",
"PostCode": "50036",
"Latitude": 8.25,
"Longitude": 80.5167
},
{
"Name": "Gonahaddenawa",
"PostCode": "50554",
"Latitude": 8.5287,
"Longitude": 80.5148
},
{
"Name": "Habarana",
"PostCode": "50150",
"Latitude": 8.0363,
"Longitude": 80.7467
},
{
"Name": "Halmillawa Dambulla",
"PostCode": "50124",
"Latitude": 7.9517,
"Longitude": 80.5913
},
{
"Name": "Halmillawetiya",
"PostCode": "50552",
"Latitude": 8.3407,
"Longitude": 80.2796
},
{
"Name": "Hidogama",
"PostCode": "50044",
"Latitude": 8.2591,
"Longitude": 80.3983
},
{
"Name": "Horawpatana",
"PostCode": "50350",
"Latitude": 8.3889,
"Longitude": 80.766
},
{
"Name": "Horiwila",
"PostCode": "50222",
"Latitude": 8.1929,
"Longitude": 80.1457
},
{
"Name": "Hurigaswewa",
"PostCode": "50176",
"Latitude": 8.0759,
"Longitude": 80.373
},
{
"Name": "Hurulunikawewa",
"PostCode": "50394",
"Latitude": 8.3,
"Longitude": 80.7333
},
{
"Name": "Kagama",
"PostCode": "50282",
"Latitude": 8.0839,
"Longitude": 80.5586
},
{
"Name": "Kahatagasdigiliya",
"PostCode": "50320",
"Latitude": 8.4214,
"Longitude": 80.6865
},
{
"Name": "Kahatagollewa",
"PostCode": "50562",
"Latitude": 8.4445,
"Longitude": 80.647
},
{
"Name": "Kalakarambewa",
"PostCode": "50288",
"Latitude": 8.0875,
"Longitude": 80.5154
},
{
"Name": "Kalankuttiya",
"PostCode": "50174",
"Latitude": 8.05,
"Longitude": 80.3833
},
{
"Name": "Kalaoya",
"PostCode": "50226",
"Latitude": 8.1929,
"Longitude": 80.1457
},
{
"Name": "Kalawedi Ulpotha",
"PostCode": "50556",
"Latitude": 8.5287,
"Longitude": 80.5148
},
{
"Name": "Kallanchiya",
"PostCode": "50454",
"Latitude": 8.4592,
"Longitude": 80.5643
},
{
"Name": "Kapugallawa",
"PostCode": "50370",
"Latitude": 8.3558,
"Longitude": 80.6894
},
{
"Name": "Karagahawewa",
"PostCode": "50232",
"Latitude": 8.2453,
"Longitude": 80.3307
},
{
"Name": "Katiyawa",
"PostCode": "50261",
"Latitude": 7.6208,
"Longitude": 80.5515
},
{
"Name": "Kebithigollewa",
"PostCode": "50500",
"Latitude": 8.5345,
"Longitude": 80.4923
},
{
"Name": "Kekirawa",
"PostCode": "50100",
"Latitude": 8.0385,
"Longitude": 80.5941
},
{
"Name": "Kendewa",
"PostCode": "50452",
"Latitude": 8.4858,
"Longitude": 80.6067
},
{
"Name": "Kiralogama",
"PostCode": "50259",
"Latitude": 8.1971,
"Longitude": 80.3798
},
{
"Name": "Kirigalwewa",
"PostCode": "50511",
"Latitude": 8.4941,
"Longitude": 80.4801
},
{
"Name": "Kitulhitiyawa",
"PostCode": "50132",
"Latitude": 7.9185,
"Longitude": 80.631
},
{
"Name": "Kurundankulama",
"PostCode": "50062",
"Latitude": 8.2,
"Longitude": 80.45
},
{
"Name": "Labunoruwa",
"PostCode": "50088",
"Latitude": 8.1667,
"Longitude": 80.6
},
{
"Name": "lhala Halmillewa",
"PostCode": "50262",
"Latitude": 7.8817,
"Longitude": 80.4772
},
{
"Name": "lhalagama",
"PostCode": "50304",
"Latitude": 8.3593,
"Longitude": 80.5103
},
{
"Name": "lpologama",
"PostCode": "50280",
"Latitude": 8.0875,
"Longitude": 80.5154
},
{
"Name": "Madatugama",
"PostCode": "50130",
"Latitude": 7.942,
"Longitude": 80.628
},
{
"Name": "Maha Elagamuwa",
"PostCode": "50126",
"Latitude": 7.9865,
"Longitude": 80.6153
},
{
"Name": "Mahabulankulama",
"PostCode": "50196",
"Latitude": 7.9969,
"Longitude": 80.5461
},
{
"Name": "Mahailluppallama",
"PostCode": "50270",
"Latitude": 8.1056,
"Longitude": 80.3107
},
{
"Name": "Mahakanadarawa",
"PostCode": "50306",
"Latitude": 8.3593,
"Longitude": 80.5103
},
{
"Name": "Mahapothana",
"PostCode": "50327",
"Latitude": 8.4214,
"Longitude": 80.6865
},
{
"Name": "Mahasenpura",
"PostCode": "50574",
"Latitude": 8.4941,
"Longitude": 80.4801
},
{
"Name": "Mahawilachchiya",
"PostCode": "50022",
"Latitude": 8.3322,
"Longitude": 80.3645
},
{
"Name": "Mailagaswewa",
"PostCode": "50384",
"Latitude": 8.3916,
"Longitude": 80.6079
},
{
"Name": "Malwanagama",
"PostCode": "50236",
"Latitude": 8.2409,
"Longitude": 80.3391
},
{
"Name": "Maneruwa",
"PostCode": "50182",
"Latitude": 7.9173,
"Longitude": 80.4859
},
{
"Name": "Maradankadawala",
"PostCode": "50080",
"Latitude": 8.1268,
"Longitude": 80.5621
},
{
"Name": "Maradankalla",
"PostCode": "50308",
"Latitude": 8.3593,
"Longitude": 80.5103
},
{
"Name": "Medawachchiya",
"PostCode": "50500",
"Latitude": 8.5345,
"Longitude": 80.4923
},
{
"Name": "Megodawewa",
"PostCode": "50334",
"Latitude": 8.2333,
"Longitude": 80.7333
},
{
"Name": "Mihintale",
"PostCode": "50300",
"Latitude": 8.3593,
"Longitude": 80.5103
},
{
"Name": "Morakewa",
"PostCode": "50349",
"Latitude": 8.5052,
"Longitude": 80.7887
},
{
"Name": "Mulkiriyawa",
"PostCode": "50324",
"Latitude": 8.4214,
"Longitude": 80.6865
},
{
"Name": "Muriyakadawala",
"PostCode": "50344",
"Latitude": 8.2333,
"Longitude": 80.65
},
{
"Name": "Nachchaduwa",
"PostCode": "50046",
"Latitude": 8.2667,
"Longitude": 80.4667
},
{
"Name": "Namalpura",
"PostCode": "50339",
"Latitude": 8.2333,
"Longitude": 80.7333
},
{
"Name": "Negampaha",
"PostCode": "50180",
"Latitude": 7.998,
"Longitude": 80.4595
},
{
"Name": "Nochchiyagama",
"PostCode": "50200",
"Latitude": 8.2631,
"Longitude": 80.2044
},
{
"Name": "Padavi Maithripura",
"PostCode": "50572",
"Latitude": 8.4941,
"Longitude": 80.4801
},
{
"Name": "Padavi Parakramapura",
"PostCode": "50582",
"Latitude": 8.4941,
"Longitude": 80.4801
},
{
"Name": "Padavi Sripura",
"PostCode": "50587",
"Latitude": 8.4941,
"Longitude": 80.4801
},
{
"Name": "Padavi Sritissapura",
"PostCode": "50588",
"Latitude": 8.4941,
"Longitude": 80.4801
},
{
"Name": "Padaviya",
"PostCode": "50570",
"Latitude": 8.4941,
"Longitude": 80.4801
},
{
"Name": "Padikaramaduwa",
"PostCode": "50338",
"Latitude": 8.2333,
"Longitude": 80.7333
},
{
"Name": "Pahala Halmillewa",
"PostCode": "50206",
"Latitude": 8.1334,
"Longitude": 80.3599
},
{
"Name": "Pahala Maragahawe",
"PostCode": "50220",
"Latitude": 8.1929,
"Longitude": 80.1457
},
{
"Name": "Pahalagama",
"PostCode": "50244",
"Latitude": 8.1988,
"Longitude": 80.2808
},
{
"Name": "Palagala",
"PostCode": "50111",
"Latitude": 7.9,
"Longitude": 80.5261
},
{
"Name": "Palugaswewa",
"PostCode": "50144",
"Latitude": 8.0577,
"Longitude": 80.707
},
{
"Name": "Pandukabayapura",
"PostCode": "50448",
"Latitude": 8.4661,
"Longitude": 80.5484
},
{
"Name": "Pandulagama",
"PostCode": "50029",
"Latitude": 8.3322,
"Longitude": 80.3645
},
{
"Name": "Parakumpura",
"PostCode": "50326",
"Latitude": 8.4214,
"Longitude": 80.6865
},
{
"Name": "Parangiyawadiya",
"PostCode": "50354",
"Latitude": 8.4945,
"Longitude": 80.8654
},
{
"Name": "Parasangahawewa",
"PostCode": "50055",
"Latitude": 8.3864,
"Longitude": 80.3725
},
{
"Name": "Pemaduwa",
"PostCode": "50020",
"Latitude": 8.3322,
"Longitude": 80.3645
},
{
"Name": "Perimiyankulama",
"PostCode": "50004",
"Latitude": 8.2667,
"Longitude": 80.5333
},
{
"Name": "Pihimbiyagolewa",
"PostCode": "50512",
"Latitude": 8.4941,
"Longitude": 80.4801
},
{
"Name": "Pubbogama",
"PostCode": "50122",
"Latitude": 7.9261,
"Longitude": 80.5936
},
{
"Name": "Pulmoddai",
"PostCode": "50567",
"Latitude": 8.3807,
"Longitude": 80.4436
},
{
"Name": "Punewa",
"PostCode": "50506",
"Latitude": 8.6113,
"Longitude": 80.4715
},
{
"Name": "Rajanganaya",
"PostCode": "50246",
"Latitude": 8.062,
"Longitude": 80.251
},
{
"Name": "Rambewa",
"PostCode": "50450",
"Latitude": 8.4423,
"Longitude": 80.5054
},
{
"Name": "Rampathwila",
"PostCode": "50386",
"Latitude": 8.4028,
"Longitude": 80.6269
},
{
"Name": "Ranorawa",
"PostCode": "50212",
"Latitude": 7.9267,
"Longitude": 80.1213
},
{
"Name": "Rathmalgahawewa",
"PostCode": "50514",
"Latitude": 8.4941,
"Longitude": 80.4801
},
{
"Name": "Saliyapura",
"PostCode": "50008",
"Latitude": 8.4225,
"Longitude": 81.0541
},
{
"Name": "Seeppukulama",
"PostCode": "50380",
"Latitude": 8.3804,
"Longitude": 80.5888
},
{
"Name": "Senapura",
"PostCode": "50284",
"Latitude": 8.0911,
"Longitude": 80.4722
},
{
"Name": "Sivalakulama",
"PostCode": "50068",
"Latitude": 8.25,
"Longitude": 80.6333
},
{
"Name": "Siyambalewa",
"PostCode": "50184",
"Latitude": 7.9474,
"Longitude": 80.5172
},
{
"Name": "Sravasthipura",
"PostCode": "50042",
"Latitude": 8.2629,
"Longitude": 80.4325
},
{
"Name": "Talawa",
"PostCode": "50230",
"Latitude": 8.2364,
"Longitude": 80.3476
},
{
"Name": "Tambuttegama",
"PostCode": "50240",
"Latitude": 8.15,
"Longitude": 80.3
},
{
"Name": "Tammennawa",
"PostCode": "50104",
"Latitude": 8.0909,
"Longitude": 80.356
},
{
"Name": "Tantirimale",
"PostCode": "50016",
"Latitude": 8.3955,
"Longitude": 80.3103
},
{
"Name": "Telhiriyawa",
"PostCode": "50242",
"Latitude": 8.1535,
"Longitude": 80.3244
},
{
"Name": "Tirappane",
"PostCode": "50072",
"Latitude": 8.3,
"Longitude": 80.5833
},
{
"Name": "Tittagonewa",
"PostCode": "50558",
"Latitude": 8.7167,
"Longitude": 80.75
},
{
"Name": "Udunuwara Colony",
"PostCode": "50207",
"Latitude": 8.1982,
"Longitude": 80.2822
},
{
"Name": "Upuldeniya",
"PostCode": "50382",
"Latitude": 8.3916,
"Longitude": 80.6079
},
{
"Name": "Uttimaduwa",
"PostCode": "50067",
"Latitude": 8.25,
"Longitude": 80.55
},
{
"Name": "Viharapalugama",
"PostCode": "50012",
"Latitude": 8.3955,
"Longitude": 80.3103
},
{
"Name": "Vijithapura",
"PostCode": "50110",
"Latitude": 7.9,
"Longitude": 80.5261
},
{
"Name": "Wahalkada",
"PostCode": "50564",
"Latitude": 8.3807,
"Longitude": 80.4436
},
{
"Name": "Wahamalgollewa",
"PostCode": "50492",
"Latitude": 8.4771,
"Longitude": 80.5173
},
{
"Name": "Walagambahuwa",
"PostCode": "50086",
"Latitude": 8.15,
"Longitude": 80.5
},
{
"Name": "Walahaviddawewa",
"PostCode": "50516",
"Latitude": 8.4941,
"Longitude": 80.4801
},
{
"Name": "Welimuwapotana",
"PostCode": "50358",
"Latitude": 8.3889,
"Longitude": 80.766
},
{
"Name": "Welioya Project",
"PostCode": "50586",
"Latitude": 8.4941,
"Longitude": 80.4801
}
]
}
]
},
{
"Name": "Ampara",
"Code": "APR",
"Communities": [
{
"Places": [
{
"Name": "Addalaichenai",
"PostCode": "32350",
"Latitude": 7.2667,
"Longitude": 81.85
},
{
"Name": "Akkaraipattu",
"PostCode": "32400",
"Latitude": 7.2165,
"Longitude": 81.8538
},
{
"Name": "Ampara",
"PostCode": "32000",
"Latitude": 7.2975,
"Longitude": 81.682
},
{
"Name": "Bakmitiyawa",
"PostCode": "32024",
"Latitude": 7.0194,
"Longitude": 81.6478
},
{
"Name": "Central Camp",
"PostCode": "32050",
"Latitude": 7.1972,
"Longitude": 81.5989
},
{
"Name": "Dadayamtalawa",
"PostCode": "32046",
"Latitude": 7.1972,
"Longitude": 81.5989
},
{
"Name": "Damana",
"PostCode": "32014",
"Latitude": 7.2007,
"Longitude": 81.6542
},
{
"Name": "Damanewela",
"PostCode": "32126",
"Latitude": 7.3852,
"Longitude": 81.3892
},
{
"Name": "Deegawapiya",
"PostCode": "32006",
"Latitude": 7.2975,
"Longitude": 81.682
},
{
"Name": "Dehiattakandiya",
"PostCode": "32150",
"Latitude": 7.3852,
"Longitude": 81.3892
},
{
"Name": "Devalahinda",
"PostCode": "32038",
"Latitude": 7.137,
"Longitude": 81.5192
},
{
"Name": "Digamadulla Weeragoda",
"PostCode": "32008",
"Latitude": 7.2975,
"Longitude": 81.682
},
{
"Name": "Dorakumbura",
"PostCode": "32104",
"Latitude": 7.35,
"Longitude": 81.3
},
{
"Name": "Galapitagala",
"PostCode": "32066",
"Latitude": 7.4083,
"Longitude": 81.6333
},
{
"Name": "Gonagolla",
"PostCode": "32064",
"Latitude": 7.45,
"Longitude": 81.6333
},
{
"Name": "Hingurana",
"PostCode": "32010",
"Latitude": 7.2144,
"Longitude": 81.6537
},
{
"Name": "Hulannuge",
"PostCode": "32514",
"Latitude": 6.914,
"Longitude": 81.6639
},
{
"Name": "Kalmunai",
"PostCode": "32300",
"Latitude": 7.409,
"Longitude": 81.8347
},
{
"Name": "Kannakipuram",
"PostCode": "32405",
"Latitude": 7.2165,
"Longitude": 81.8538
},
{
"Name": "Karativu",
"PostCode": "32250",
"Latitude": 7.3833,
"Longitude": 81.8333
},
{
"Name": "Kekirihena",
"PostCode": "32074",
"Latitude": 7.1972,
"Longitude": 81.5989
},
{
"Name": "Koknahara",
"PostCode": "32035",
"Latitude": 7.186,
"Longitude": 81.5733
},
{
"Name": "Kolamanthalawa",
"PostCode": "32102",
"Latitude": 7.4025,
"Longitude": 81.2745
},
{
"Name": "Komari",
"PostCode": "32418",
"Latitude": 6.9897,
"Longitude": 81.8621
},
{
"Name": "Lahugala",
"PostCode": "32512",
"Latitude": 6.914,
"Longitude": 81.6639
},
{
"Name": "lmkkamam",
"PostCode": "32450",
"Latitude": 7.1148,
"Longitude": 81.8541
},
{
"Name": "Madawalalanda",
"PostCode": "32016",
"Latitude": 7.2076,
"Longitude": 81.654
},
{
"Name": "Mahanagapura",
"PostCode": "32018",
"Latitude": 7.2076,
"Longitude": 81.654
},
{
"Name": "Mahaoya",
"PostCode": "32070",
"Latitude": 7.1972,
"Longitude": 81.5989
},
{
"Name": "Malwatta",
"PostCode": "32198",
"Latitude": 7.3333,
"Longitude": 81.7333
},
{
"Name": "Mangalagama",
"PostCode": "32069",
"Latitude": 7.4083,
"Longitude": 81.6333
},
{
"Name": "Marathamune",
"PostCode": "32314",
"Latitude": 7.45,
"Longitude": 81.8167
},
{
"Name": "Mawanagama",
"PostCode": "32158",
"Latitude": 7.3852,
"Longitude": 81.3892
},
{
"Name": "Moragahapallama",
"PostCode": "32012",
"Latitude": 7.2076,
"Longitude": 81.654
},
{
"Name": "Namaloya",
"PostCode": "32037",
"Latitude": 6.9952,
"Longitude": 81.3703
},
{
"Name": "Navithanveli",
"PostCode": "32308",
"Latitude": 7.4333,
"Longitude": 81.7833
},
{
"Name": "Nawamedagama",
"PostCode": "32120",
"Latitude": 7.3852,
"Longitude": 81.3892
},
{
"Name": "Nintavur",
"PostCode": "32340",
"Latitude": 7.3498,
"Longitude": 81.853
},
{
"Name": "Oluvil",
"PostCode": "32360",
"Latitude": 7.2833,
"Longitude": 81.85
},
{
"Name": "Padiyatalawa",
"PostCode": "32100",
"Latitude": 7.4002,
"Longitude": 81.2428
},
{
"Name": "Pahalalanda",
"PostCode": "32034",
"Latitude": 7.137,
"Longitude": 81.5192
},
{
"Name": "Palamunai",
"PostCode": "32354",
"Latitude": 7.2667,
"Longitude": 81.85
},
{
"Name": "Panama",
"PostCode": "32508",
"Latitude": 6.7552,
"Longitude": 81.8036
},
{
"Name": "Pannalagama",
"PostCode": "32022",
"Latitude": 7.0724,
"Longitude": 81.6065
},
{
"Name": "Paragahakele",
"PostCode": "32031",
"Latitude": 7.25,
"Longitude": 81.6
},
{
"Name": "Periyaneelavanai",
"PostCode": "32316",
"Latitude": 7.45,
"Longitude": 81.8167
},
{
"Name": "Polwaga Janapadaya",
"PostCode": "32032",
"Latitude": 7.137,
"Longitude": 81.5192
},
{
"Name": "Pottuvil",
"PostCode": "32500",
"Latitude": 6.8762,
"Longitude": 81.8267
},
{
"Name": "Rajagalatenna",
"PostCode": "32068",
"Latitude": 7.4083,
"Longitude": 81.6333
},
{
"Name": "Sainthamaruthu",
"PostCode": "32280",
"Latitude": 7.3833,
"Longitude": 81.8333
},
{
"Name": "Samanthurai",
"PostCode": "32200",
"Latitude": 7.3833,
"Longitude": 81.8333
},
{
"Name": "Serankada",
"PostCode": "32101",
"Latitude": 7.4572,
"Longitude": 81.2808
},
{
"Name": "Siripura",
"PostCode": "32155",
"Latitude": 7.3852,
"Longitude": 81.3892
},
{
"Name": "Siyambalawewa",
"PostCode": "32048",
"Latitude": 7.1972,
"Longitude": 81.5989
},
{
"Name": "Tempitiya",
"PostCode": "32072",
"Latitude": 7.1972,
"Longitude": 81.5989
},
{
"Name": "Thambiluvil",
"PostCode": "32415",
"Latitude": 7.1326,
"Longitude": 81.8514
},
{
"Name": "Tirukovil",
"PostCode": "32420",
"Latitude": 7.1203,
"Longitude": 81.849
},
{
"Name": "Uhana",
"PostCode": "32060",
"Latitude": 7.3667,
"Longitude": 81.6333
},
{
"Name": "Wadinagala",
"PostCode": "32039",
"Latitude": 7.1167,
"Longitude": 81.5333
},
{
"Name": "Wanagamuwa",
"PostCode": "32454",
"Latitude": 7.1148,
"Longitude": 81.8541
},
{
"Name": "Werunketagoda",
"PostCode": "32062",
"Latitude": 7.4083,
"Longitude": 81.6333
}
]
}
]
},
{
"Name": "Batticaloa",
"Code": "BC",
"Communities": [
{
"Places": [
{
"Name": "Ampilanthurai",
"PostCode": "30162",
"Latitude": 7.624,
"Longitude": 81.7599
},
{
"Name": "Araipattai",
"PostCode": "30150",
"Latitude": 7.6667,
"Longitude": 81.7333
},
{
"Name": "Ayithiyamalai",
"PostCode": "30362",
"Latitude": 7.6167,
"Longitude": 81.55
},
{
"Name": "Bakiella",
"PostCode": "30206",
"Latitude": 7.5083,
"Longitude": 81.7583
},
{
"Name": "Batticaloa",
"PostCode": "30000",
"Latitude": 7.7102,
"Longitude": 81.6924
},
{
"Name": "Cheddipalayam",
"PostCode": "30194",
"Latitude": 7.5833,
"Longitude": 81.7833
},
{
"Name": "Chenkaladi",
"PostCode": "30350",
"Latitude": 7.786,
"Longitude": 81.591
},
{
"Name": "Eravur",
"PostCode": "30300",
"Latitude": 7.7782,
"Longitude": 81.6038
},
{
"Name": "Kalkudah",
"PostCode": "30410",
"Latitude": 7.9167,
"Longitude": 81.5667
},
{
"Name": "Kallar",
"PostCode": "30250",
"Latitude": 7.4667,
"Longitude": 81.8
},
{
"Name": "Kaluwanchikudi",
"PostCode": "30200",
"Latitude": 7.5167,
"Longitude": 81.7833
},
{
"Name": "Kaluwankemy",
"PostCode": "30372",
"Latitude": 7.7995,
"Longitude": 81.5773
},
{
"Name": "Kannankudah",
"PostCode": "30016",
"Latitude": 7.6798,
"Longitude": 81.6702
},
{
"Name": "Karadiyanaru",
"PostCode": "30354",
"Latitude": 7.7121,
"Longitude": 81.5468
},
{
"Name": "Kathiraveli",
"PostCode": "30456",
"Latitude": 8.2167,
"Longitude": 81.4
},
{
"Name": "Kattankudi",
"PostCode": "30100",
"Latitude": 7.6824,
"Longitude": 81.7334
},
{
"Name": "Kiran",
"PostCode": "30394",
"Latitude": 7.8655,
"Longitude": 81.5375
},
{
"Name": "Kirankulam",
"PostCode": "30159",
"Latitude": 7.6,
"Longitude": 81.7667
},
{
"Name": "Koddaikallar",
"PostCode": "30249",
"Latitude": 7.5028,
"Longitude": 81.7528
},
{
"Name": "Kokkaddichcholai",
"PostCode": "30160",
"Latitude": 7.624,
"Longitude": 81.7599
},
{
"Name": "Kurukkalmadam",
"PostCode": "30192",
"Latitude": 7.5876,
"Longitude": 81.7829
},
{
"Name": "Mandur",
"PostCode": "30220",
"Latitude": 7.4833,
"Longitude": 81.75
},
{
"Name": "Mankemi",
"PostCode": "30442",
"Latitude": 7.9574,
"Longitude": 81.4805
},
{
"Name": "Miravodai",
"PostCode": "30426",
"Latitude": 7.9024,
"Longitude": 81.5098
},
{
"Name": "Murakottanchanai",
"PostCode": "30392",
"Latitude": 7.8655,
"Longitude": 81.5375
},
{
"Name": "Navagirinagar",
"PostCode": "30238",
"Latitude": 7.525,
"Longitude": 81.725
},
{
"Name": "Navatkadu",
"PostCode": "30018",
"Latitude": 7.5833,
"Longitude": 81.7167
},
{
"Name": "Oddamavadi",
"PostCode": "30420",
"Latitude": 7.9167,
"Longitude": 81.5167
},
{
"Name": "Panichankemi",
"PostCode": "30444",
"Latitude": 7.9574,
"Longitude": 81.4805
},
{
"Name": "Pankudavely",
"PostCode": "30352",
"Latitude": 7.7491,
"Longitude": 81.5689
},
{
"Name": "Periyaporativu",
"PostCode": "30230",
"Latitude": 7.5167,
"Longitude": 81.7667
},
{
"Name": "Periyapullumalai",
"PostCode": "30358",
"Latitude": 7.7491,
"Longitude": 81.5689
},
{
"Name": "Pillaiyaradi",
"PostCode": "30022",
"Latitude": 7.7527,
"Longitude": 81.6417
},
{
"Name": "Punanai",
"PostCode": "30428",
"Latitude": 7.9667,
"Longitude": 81.3833
},
{
"Name": "Puthukudiyiruppu",
"PostCode": "30158",
"Latitude": 7.6333,
"Longitude": 81.75
},
{
"Name": "Thannamunai",
"PostCode": "30024",
"Latitude": 7.7527,
"Longitude": 81.6417
},
{
"Name": "Thettativu",
"PostCode": "30196",
"Latitude": 7.5855,
"Longitude": 81.7831
},
{
"Name": "Thikkodai",
"PostCode": "30236",
"Latitude": 7.5333,
"Longitude": 81.6833
},
{
"Name": "Thirupalugamam",
"PostCode": "30234",
"Latitude": 7.525,
"Longitude": 81.725
},
{
"Name": "Thuraineelavanai",
"PostCode": "30254",
"Latitude": 7.4667,
"Longitude": 81.8
},
{
"Name": "Unnichchai",
"PostCode": "30364",
"Latitude": 7.6167,
"Longitude": 81.55
},
{
"Name": "Vakaneri",
"PostCode": "30424",
"Latitude": 7.9167,
"Longitude": 81.4333
},
{
"Name": "Vakarai",
"PostCode": "30450",
"Latitude": 8.1333,
"Longitude": 81.4333
},
{
"Name": "Valaichenai",
"PostCode": "30400",
"Latitude": 7.6899,
"Longitude": 81.6011
},
{
"Name": "Vantharumoolai",
"PostCode": "30376",
"Latitude": 7.7995,
"Longitude": 81.5773
},
{
"Name": "Vellavely",
"PostCode": "30204",
"Latitude": 7.5,
"Longitude": 81.7333
}
]
}
]
},
{
"Name": "Badulla",
"Code": "BD",
"Communities": [
{
"Places": [
{
"Name": "Akkarasiyaya",
"PostCode": "90166",
"Latitude": 6.7797,
"Longitude": 80.9208
},
{
"Name": "Aluketiyawa",
"PostCode": "90736",
"Latitude": 7.3,
"Longitude": 81.1167
},
{
"Name": "Aluttaramma",
"PostCode": "90722",
"Latitude": 7.2221,
"Longitude": 81.0612
},
{
"Name": "Ambadandegama",
"PostCode": "90108",
"Latitude": 6.8173,
"Longitude": 81.0448
},
{
"Name": "Ambagahawatta",
"PostCode": "90326",
"Latitude": 7.0167,
"Longitude": 80.9551
},
{
"Name": "Ambagasdowa",
"PostCode": "90300",
"Latitude": 6.9232,
"Longitude": 80.8936
},
{
"Name": "Amunumulla",
"PostCode": "90204",
"Latitude": 6.8664,
"Longitude": 80.9084
},
{
"Name": "Arawa",
"PostCode": "90017",
"Latitude": 7.1591,
"Longitude": 81.0761
},
{
"Name": "Arawakumbura",
"PostCode": "90532",
"Latitude": 7.0849,
"Longitude": 81.1982
},
{
"Name": "Arawatta",
"PostCode": "90712",
"Latitude": 7.3333,
"Longitude": 81.05
},
{
"Name": "Atakiriya",
"PostCode": "90542",
"Latitude": 7.0698,
"Longitude": 81.1023
},
{
"Name": "Badulla",
"PostCode": "90000",
"Latitude": 6.9895,
"Longitude": 81.0557
},
{
"Name": "Baduluoya",
"PostCode": "90019",
"Latitude": 7.0866,
"Longitude": 81.0689
},
{
"Name": "Ballaketuwa",
"PostCode": "90092",
"Latitude": 6.8667,
"Longitude": 81.1
},
{
"Name": "Bambarapana",
"PostCode": "90322",
"Latitude": 7.0032,
"Longitude": 80.9678
},
{
"Name": "Bandarawela",
"PostCode": "90100",
"Latitude": 6.8334,
"Longitude": 80.9853
},
{
"Name": "Beramada",
"PostCode": "90066",
"Latitude": 7.0544,
"Longitude": 80.9785
},
{
"Name": "Bibilegama",
"PostCode": "90502",
"Latitude": 6.8945,
"Longitude": 81.1361
},
{
"Name": "Bogahakumbura",
"PostCode": "90354",
"Latitude": 6.8631,
"Longitude": 80.8639
},
{
"Name": "Boragas",
"PostCode": "90362",
"Latitude": 6.9097,
"Longitude": 80.8356
},
{
"Name": "Boralanda",
"PostCode": "90170",
"Latitude": 6.827,
"Longitude": 80.894
},
{
"Name": "Bowela",
"PostCode": "90302",
"Latitude": 6.95,
"Longitude": 80.9333
},
{
"Name": "Dambana",
"PostCode": "90714",
"Latitude": 7.3583,
"Longitude": 81.1083
},
{
"Name": "Demodara",
"PostCode": "90080",
"Latitude": 6.9002,
"Longitude": 81.0555
},
{
"Name": "Diganatenna",
"PostCode": "90132",
"Latitude": 6.8667,
"Longitude": 80.9667
},
{
"Name": "Dikkapitiya",
"PostCode": "90214",
"Latitude": 6.7422,
"Longitude": 80.9733
},
{
"Name": "Dimbulana",
"PostCode": "90324",
"Latitude": 7.0,
"Longitude": 80.95
},
{
"Name": "Divulapelessa",
"PostCode": "90726",
"Latitude": 7.2221,
"Longitude": 81.0612
},
{
"Name": "Diyatalawa",
"PostCode": "90150",
"Latitude": 6.8007,
"Longitude": 80.9546
},
{
"Name": "Dulgolla",
"PostCode": "90104",
"Latitude": 7.2388,
"Longitude": 80.7293
},
{
"Name": "Egodawela",
"PostCode": "90013",
"Latitude": 7.065,
"Longitude": 81.0619
},
{
"Name": "Ella",
"PostCode": "90090",
"Latitude": 6.8756,
"Longitude": 81.0463
},
{
"Name": "Ettampitiya",
"PostCode": "90140",
"Latitude": 6.9387,
"Longitude": 80.9717
},
{
"Name": "Galauda",
"PostCode": "90065",
"Latitude": 7.034,
"Longitude": 80.9861
},
{
"Name": "Galedanda",
"PostCode": "90206",
"Latitude": 6.8258,
"Longitude": 80.9291
},
{
"Name": "Galporuyaya",
"PostCode": "90752",
"Latitude": 7.4,
"Longitude": 81.05
},
{
"Name": "Gamewela",
"PostCode": "90512",
"Latitude": 6.9186,
"Longitude": 81.2056
},
{
"Name": "Gawarawela",
"PostCode": "90082",
"Latitude": 6.9,
"Longitude": 81.0639
},
{
"Name": "Girandurukotte",
"PostCode": "90750",
"Latitude": 7.4,
"Longitude": 81.05
},
{
"Name": "Godunna",
"PostCode": "90067",
"Latitude": 7.0691,
"Longitude": 80.9803
},
{
"Name": "Gurutalawa",
"PostCode": "90208",
"Latitude": 6.8362,
"Longitude": 80.9122
},
{
"Name": "Haldummulla",
"PostCode": "90180",
"Latitude": 6.7603,
"Longitude": 80.8844
},
{
"Name": "Hali Ela",
"PostCode": "90060",
"Latitude": 6.9536,
"Longitude": 81.0299
},
{
"Name": "Hangunnawa",
"PostCode": "90224",
"Latitude": 6.9513,
"Longitude": 80.8729
},
{
"Name": "Haputale",
"PostCode": "90160",
"Latitude": 6.7681,
"Longitude": 80.9595
},
{
"Name": "Hebarawa",
"PostCode": "90724",
"Latitude": 7.2221,
"Longitude": 81.0612
},
{
"Name": "Heeloya",
"PostCode": "90112",
"Latitude": 6.8447,
"Longitude": 81.0199
},
{
"Name": "Helahalpe",
"PostCode": "90122",
"Latitude": 6.8885,
"Longitude": 81.0357
},
{
"Name": "Helapupula",
"PostCode": "90094",
"Latitude": 6.8586,
"Longitude": 81.0723
},
{
"Name": "Hewanakumbura",
"PostCode": "90358",
"Latitude": 6.8902,
"Longitude": 80.8473
},
{
"Name": "Hingurukaduwa",
"PostCode": "90508",
"Latitude": 6.8288,
"Longitude": 81.1573
},
{
"Name": "Hopton",
"PostCode": "90524",
"Latitude": 6.9644,
"Longitude": 81.1584
},
{
"Name": "Idalgashinna",
"PostCode": "96167",
"Latitude": 6.7819,
"Longitude": 80.8931
},
{
"Name": "Jangulla",
"PostCode": "90063",
"Latitude": 7.0218,
"Longitude": 80.9957
},
{
"Name": "Kahataruppa",
"PostCode": "90052",
"Latitude": 7.0333,
"Longitude": 81.1167
},
{
"Name": "Kalubululanda",
"PostCode": "90352",
"Latitude": 6.8621,
"Longitude": 80.8791
},
{
"Name": "Kalugahakandura",
"PostCode": "90546",
"Latitude": 7.1264,
"Longitude": 81.0975
},
{
"Name": "Kalupahana",
"PostCode": "90186",
"Latitude": 6.7596,
"Longitude": 80.8455
},
{
"Name": "Kandaketya",
"PostCode": "90020",
"Latitude": 7.1089,
"Longitude": 81.0089
},
{
"Name": "Kandegedara",
"PostCode": "90070",
"Latitude": 7.0276,
"Longitude": 81.0339
},
{
"Name": "Kandepuhulpola",
"PostCode": "90356",
"Latitude": 6.838,
"Longitude": 80.8638
},
{
"Name": "Kebillawela",
"PostCode": "90102",
"Latitude": 6.811,
"Longitude": 80.9962
},
{
"Name": "Kendagolla",
"PostCode": "90048",
"Latitude": 6.9977,
"Longitude": 81.1086
},
{
"Name": "Keppetipola",
"PostCode": "90350",
"Latitude": 6.8975,
"Longitude": 80.8705
},
{
"Name": "Keselpotha",
"PostCode": "90738",
"Latitude": 7.3,
"Longitude": 81.1167
},
{
"Name": "Ketawatta",
"PostCode": "90016",
"Latitude": 7.094,
"Longitude": 81.0912
},
{
"Name": "Kiriwanagama",
"PostCode": "90184",
"Latitude": 6.9682,
"Longitude": 80.9118
},
{
"Name": "Koslanda",
"PostCode": "90190",
"Latitude": 6.7434,
"Longitude": 81.0189
},
{
"Name": "Kotamuduna",
"PostCode": "90506",
"Latitude": 6.8929,
"Longitude": 81.1841
},
{
"Name": "Kuruwitenna",
"PostCode": "90728",
"Latitude": 7.2221,
"Longitude": 81.0612
},
{
"Name": "Kuttiyagolla",
"PostCode": "90046",
"Latitude": 7.0214,
"Longitude": 81.0879
},
{
"Name": "Landewela",
"PostCode": "90068",
"Latitude": 6.9977,
"Longitude": 81.0039
},
{
"Name": "Liyangahawela",
"PostCode": "90106",
"Latitude": 6.9251,
"Longitude": 80.9389
},
{
"Name": "Lunugala",
"PostCode": "90530",
"Latitude": 7.0369,
"Longitude": 81.2017
},
{
"Name": "Lunuwatta",
"PostCode": "90310",
"Latitude": 6.9334,
"Longitude": 80.9006
},
{
"Name": "Madulsima",
"PostCode": "90535",
"Latitude": 7.0334,
"Longitude": 81.1687
},
{
"Name": "Mahiyanganaya",
"PostCode": "90700",
"Latitude": 7.2444,
"Longitude": 81.1167
},
{
"Name": "Makulella",
"PostCode": "90114",
"Latitude": 6.8447,
"Longitude": 81.0199
},
{
"Name": "Malgoda",
"PostCode": "90754",
"Latitude": 7.4,
"Longitude": 81.05
},
{
"Name": "Maliyadda",
"PostCode": "90022",
"Latitude": 7.1089,
"Longitude": 81.0089
},
{
"Name": "Mapakadawewa",
"PostCode": "90730",
"Latitude": 7.3,
"Longitude": 81.1167
},
{
"Name": "Maspanna",
"PostCode": "90328",
"Latitude": 7.0167,
"Longitude": 80.95
},
{
"Name": "Maussagolla",
"PostCode": "90582",
"Latitude": 6.9091,
"Longitude": 81.1323
},
{
"Name": "Medawela Udukinda",
"PostCode": "90218",
"Latitude": 6.8481,
"Longitude": 80.9259
},
{
"Name": "Medawelagama",
"PostCode": "90518",
"Latitude": 6.976,
"Longitude": 81.1712
},
{
"Name": "Meegahakiula",
"PostCode": "90015",
"Latitude": 7.0866,
"Longitude": 81.0689
},
{
"Name": "Metigahatenna",
"PostCode": "90540",
"Latitude": 6.9667,
"Longitude": 81.0833
},
{
"Name": "Mirahawatta",
"PostCode": "90134",
"Latitude": 6.8718,
"Longitude": 80.9445
},
{
"Name": "Miriyabedda",
"PostCode": "90504",
"Latitude": 6.9,
"Longitude": 81.1667
},
{
"Name": "Miyanakandura",
"PostCode": "90584",
"Latitude": 6.8619,
"Longitude": 81.1486
},
{
"Name": "Namunukula",
"PostCode": "90580",
"Latitude": 6.9041,
"Longitude": 81.1211
},
{
"Name": "Narangala",
"PostCode": "90064",
"Latitude": 7.0218,
"Longitude": 80.9957
},
{
"Name": "Nelumgama",
"PostCode": "90042",
"Latitude": 7.0053,
"Longitude": 81.0743
},
{
"Name": "Nikapotha",
"PostCode": "90165",
"Latitude": 6.7333,
"Longitude": 80.9667
},
{
"Name": "Nugatalawa",
"PostCode": "90216",
"Latitude": 6.8994,
"Longitude": 80.8806
},
{
"Name": "Ohiya",
"PostCode": "90168",
"Latitude": 6.8173,
"Longitude": 80.8403
},
{
"Name": "Pahalarathkinda",
"PostCode": "90756",
"Latitude": 7.4,
"Longitude": 81.05
},
{
"Name": "Pallekiruwa",
"PostCode": "90534",
"Latitude": 7.0098,
"Longitude": 81.2362
},
{
"Name": "Passara",
"PostCode": "90500",
"Latitude": 6.9346,
"Longitude": 81.1574
},
{
"Name": "Pathanewatta",
"PostCode": "90071",
"Latitude": 7.0276,
"Longitude": 81.0339
},
{
"Name": "Pattiyagedara",
"PostCode": "90138",
"Latitude": 6.8751,
"Longitude": 80.979
},
{
"Name": "Pelagahatenna",
"PostCode": "90522",
"Latitude": 6.9644,
"Longitude": 81.1584
},
{
"Name": "Perawella",
"PostCode": "90222",
"Latitude": 6.9378,
"Longitude": 80.8389
},
{
"Name": "Pitamaruwa",
"PostCode": "90544",
"Latitude": 7.1162,
"Longitude": 81.1262
},
{
"Name": "Pitapola",
"PostCode": "90171",
"Latitude": 6.8097,
"Longitude": 80.893
},
{
"Name": "Puhulpola",
"PostCode": "90212",
"Latitude": 6.9028,
"Longitude": 80.9238
},
{
"Name": "Ratkarawwa",
"PostCode": "90164",
"Latitude": 6.8,
"Longitude": 80.9167
},
{
"Name": "Ridimaliyadda",
"PostCode": "90704",
"Latitude": 7.2333,
"Longitude": 81.1
},
{
"Name": "Rilpola",
"PostCode": "90026",
"Latitude": 7.1089,
"Longitude": 81.0089
},
{
"Name": "Silmiyapura",
"PostCode": "90364",
"Latitude": 6.9097,
"Longitude": 80.8356
},
{
"Name": "Sirimalgoda",
"PostCode": "90044",
"Latitude": 7.0031,
"Longitude": 81.0829
},
{
"Name": "Sorabora Colony",
"PostCode": "90718",
"Latitude": 7.3583,
"Longitude": 81.1083
},
{
"Name": "Soragune",
"PostCode": "90183",
"Latitude": 6.8294,
"Longitude": 80.8806
},
{
"Name": "Soranatota",
"PostCode": "90008",
"Latitude": 7.0331,
"Longitude": 81.0508
},
{
"Name": "Spring Valley",
"PostCode": "90028",
"Latitude": 7.1089,
"Longitude": 81.0089
},
{
"Name": "Taldena",
"PostCode": "90014",
"Latitude": 7.0956,
"Longitude": 81.0479
},
{
"Name": "Tennepanguwa",
"PostCode": "90072",
"Latitude": 7.0276,
"Longitude": 81.0339
},
{
"Name": "Timbirigaspitiya",
"PostCode": "90012",
"Latitude": 7.0195,
"Longitude": 81.0672
},
{
"Name": "Uduhawara",
"PostCode": "90226",
"Latitude": 6.9667,
"Longitude": 80.8667
},
{
"Name": "Uraniya",
"PostCode": "90702",
"Latitude": 7.2333,
"Longitude": 81.1
},
{
"Name": "Uva Deegalla",
"PostCode": "90062",
"Latitude": 7.0218,
"Longitude": 80.9957
},
{
"Name": "Uva Karandagolla",
"PostCode": "90091",
"Latitude": 6.8336,
"Longitude": 81.0705
},
{
"Name": "Uva Mawelagama",
"PostCode": "90192",
"Latitude": 6.7434,
"Longitude": 81.0189
},
{
"Name": "Uva Tenna",
"PostCode": "90188",
"Latitude": 6.8294,
"Longitude": 80.8806
},
{
"Name": "Uva Tissapura",
"PostCode": "90734",
"Latitude": 7.3,
"Longitude": 81.1167
},
{
"Name": "Uva Uduwara",
"PostCode": "90061",
"Latitude": 7.0218,
"Longitude": 80.9957
},
{
"Name": "Uvaparanagama",
"PostCode": "90230",
"Latitude": 6.8833,
"Longitude": 80.901
},
{
"Name": "Welimada",
"PostCode": "90200",
"Latitude": 6.9044,
"Longitude": 80.9044
},
{
"Name": "Wewatta",
"PostCode": "90716",
"Latitude": 7.3833,
"Longitude": 81.1667
},
{
"Name": "Wineethagama",
"PostCode": "90034",
"Latitude": 7.0057,
"Longitude": 81.0533
},
{
"Name": "Yalagamuwa",
"PostCode": "90329",
"Latitude": 7.0469,
"Longitude": 80.9525
},
{
"Name": "Yalwela",
"PostCode": "90706",
"Latitude": 7.2667,
"Longitude": 81.15
}
]
}
]
},
{
"Name": "Colombo",
"Code": "CO",
"Communities": [
{
"Places": [
{
"Name": "Akarawita",
"PostCode": "10732",
"Latitude": 6.9459,
"Longitude": 80.1114
},
{
"Name": "Athurugiriya",
"PostCode": "10150",
"Latitude": 6.8687,
"Longitude": 79.9998
},
{
"Name": "Avissawella",
"PostCode": "10700",
"Latitude": 6.953,
"Longitude": 80.2075
},
{
"Name": "Bambalapitiya",
"PostCode": "00400",
"Latitude": 6.8914,
"Longitude": 79.8522
},
{
"Name": "Batawala",
"PostCode": "10513",
"Latitude": 6.878,
"Longitude": 80.0472
},
{
"Name": "Battaramulla",
"PostCode": "10120",
"Latitude": 6.8964,
"Longitude": 79.9181
},
{
"Name": "Batugampola",
"PostCode": "10526",
"Latitude": 6.7758,
"Longitude": 80.1344
},
{
"Name": "Bope",
"PostCode": "10522",
"Latitude": 6.832,
"Longitude": 80.1314
},
{
"Name": "Boralesgamuwa",
"PostCode": "10290",
"Latitude": 6.8382,
"Longitude": 79.9104
},
{
"Name": "Borella",
"PostCode": "00800",
"Latitude": 6.9177,
"Longitude": 79.8742
},
{
"Name": "Colpetty",
"PostCode": "00300",
"Latitude": 6.8833,
"Longitude": 79.85
},
{
"Name": "Dedigamuwa",
"PostCode": "10656",
"Latitude": 6.8905,
"Longitude": 80.027
},
{
"Name": "Dehiwala",
"PostCode": "10350",
"Latitude": 6.8523,
"Longitude": 79.8656
},
{
"Name": "Deltara",
"PostCode": "10302",
"Latitude": 6.7841,
"Longitude": 79.9117
},
{
"Name": "Fort",
"PostCode": "00100",
"Latitude": 6.9392,
"Longitude": 79.8436
},
{
"Name": "Habarakada",
"PostCode": "10204",
"Latitude": 6.8708,
"Longitude": 80.0092
},
{
"Name": "Handapangoda",
"PostCode": "10524",
"Latitude": 6.7939,
"Longitude": 80.1441
},
{
"Name": "Hanwella",
"PostCode": "10650",
"Latitude": 6.9086,
"Longitude": 80.0796
},
{
"Name": "Havelock Town",
"PostCode": "00500",
"Latitude": 6.8841,
"Longitude": 79.8608
},
{
"Name": "Hewainna",
"PostCode": "10714",
"Latitude": 7.0999,
"Longitude": 80.0944
},
{
"Name": "Hiripitya",
"PostCode": "10232",
"Latitude": 6.8462,
"Longitude": 79.9448
},
{
"Name": "Hokandara",
"PostCode": "10118",
"Latitude": 6.891,
"Longitude": 79.9513
},
{
"Name": "Homagama",
"PostCode": "10200",
"Latitude": 6.844,
"Longitude": 80.0024
},
{
"Name": "Horagala",
"PostCode": "10502",
"Latitude": 6.8107,
"Longitude": 80.0466
},
{
"Name": "Kaduwela",
"PostCode": "10640",
"Latitude": 6.9339,
"Longitude": 79.982
},
{
"Name": "Kahawala",
"PostCode": "10508",
"Latitude": 6.7772,
"Longitude": 80.1057
},
{
"Name": "Kalatuwawa",
"PostCode": "10718",
"Latitude": 7.1667,
"Longitude": 80.1167
},
{
"Name": "Kiriwattuduwa",
"PostCode": "10208",
"Latitude": 6.7977,
"Longitude": 80.0146
},
{
"Name": "Kirulapone",
"PostCode": "00600",
"Latitude": 6.8753,
"Longitude": 79.8611
},
{
"Name": "Kolonnawa",
"PostCode": "10600",
"Latitude": 6.9329,
"Longitude": 79.8848
},
{
"Name": "Kosgama",
"PostCode": "10730",
"Latitude": 6.9404,
"Longitude": 80.1276
},
{
"Name": "Kotahena",
"PostCode": "01300",
"Latitude": 6.9459,
"Longitude": 79.8617
},
{
"Name": "Madapatha",
"PostCode": "10306",
"Latitude": 6.768,
"Longitude": 79.929
},
{
"Name": "Maharagama",
"PostCode": "10280",
"Latitude": 6.848,
"Longitude": 79.9265
},
{
"Name": "Malabe",
"PostCode": "10115",
"Latitude": 6.9083,
"Longitude": 79.9649
},
{
"Name": "Meegoda",
"PostCode": "10504",
"Latitude": 6.8479,
"Longitude": 80.0484
},
{
"Name": "Moratuwa",
"PostCode": "10400",
"Latitude": 6.773,
"Longitude": 79.8816
},
{
"Name": "Mount Lavinia",
"PostCode": "10370",
"Latitude": 6.8339,
"Longitude": 79.8644
},
{
"Name": "Mullegama",
"PostCode": "10202",
"Latitude": 6.8796,
"Longitude": 80.0131
},
{
"Name": "Mulleriyawa New Town",
"PostCode": "10620",
"Latitude": 6.9287,
"Longitude": 80.0478
},
{
"Name": "Mutwal",
"PostCode": "01500",
"Latitude": 6.95,
"Longitude": 79.8667
},
{
"Name": "Napawela",
"PostCode": "10704",
"Latitude": 6.953,
"Longitude": 80.2075
},
{
"Name": "Nugegoda",
"PostCode": "10250",
"Latitude": 6.8735,
"Longitude": 79.8899
},
{
"Name": "Padukka",
"PostCode": "10500",
"Latitude": 6.8408,
"Longitude": 80.0897
},
{
"Name": "Pannipitiya",
"PostCode": "10230",
"Latitude": 6.8462,
"Longitude": 79.9448
},
{
"Name": "Piliyandala",
"PostCode": "10300",
"Latitude": 6.7999,
"Longitude": 79.9249
},
{
"Name": "Pitipana Homagama",
"PostCode": "10206",
"Latitude": 6.848,
"Longitude": 80.0098
},
{
"Name": "Polgasowita",
"PostCode": "10320",
"Latitude": 6.7865,
"Longitude": 79.9657
},
{
"Name": "Puwakpitiya",
"PostCode": "10712",
"Latitude": 7.0331,
"Longitude": 80.0722
},
{
"Name": "Ranala",
"PostCode": "10654",
"Latitude": 6.9144,
"Longitude": 80.032
},
{
"Name": "Siddamulla",
"PostCode": "10304",
"Latitude": 6.8232,
"Longitude": 79.9586
},
{
"Name": "Slave Island",
"PostCode": "00200",
"Latitude": 6.9167,
"Longitude": 79.85
},
{
"Name": "Slave lsland",
"PostCode": "00200",
"Latitude": 7.3267,
"Longitude": 80.5226
},
{
"Name": "Sri Jayawardenepu",
"PostCode": "10100",
"Latitude": 6.8868,
"Longitude": 79.9551
},
{
"Name": "Talawatugoda",
"PostCode": "10116",
"Latitude": 6.8738,
"Longitude": 79.9378
},
{
"Name": "Tummodara",
"PostCode": "10682",
"Latitude": 6.9019,
"Longitude": 80.1236
},
{
"Name": "Waga",
"PostCode": "10680",
"Latitude": 6.9019,
"Longitude": 80.1236
},
{
"Name": "Watareka",
"PostCode": "10511",
"Latitude": 6.8509,
"Longitude": 80.064
},
{
"Name": "Wellawatta",
"PostCode": "00600",
"Latitude": 6.8753,
"Longitude": 79.8611
}
]
}
]
},
{
"Name": "Galle",
"Code": "GL",
"Communities": [
{
"Places": [
{
"Name": "Agaliya",
"PostCode": "80212",
"Latitude": 6.193,
"Longitude": 80.2006
},
{
"Name": "Ahangama",
"PostCode": "80650",
"Latitude": 5.9896,
"Longitude": 80.3598
},
{
"Name": "Ahungalla",
"PostCode": "80562",
"Latitude": 6.3136,
"Longitude": 80.0322
},
{
"Name": "Akmeemana",
"PostCode": "80090",
"Latitude": 6.1818,
"Longitude": 80.3036
},
{
"Name": "Aluthwala",
"PostCode": "80332",
"Latitude": 6.1776,
"Longitude": 80.1386
},
{
"Name": "Ambalangoda",
"PostCode": "80300",
"Latitude": 6.2355,
"Longitude": 80.0538
},
{
"Name": "Ampegama",
"PostCode": "80204",
"Latitude": 6.1916,
"Longitude": 80.1463
},
{
"Name": "Amugoda",
"PostCode": "80422",
"Latitude": 6.3205,
"Longitude": 80.2173
},
{
"Name": "Anangoda",
"PostCode": "80044",
"Latitude": 6.0663,
"Longitude": 80.2468
},
{
"Name": "Angulugaha",
"PostCode": "80122",
"Latitude": 6.0359,
"Longitude": 80.3156
},
{
"Name": "Ankokkawala",
"PostCode": "80048",
"Latitude": 6.0471,
"Longitude": 80.2902
},
{
"Name": "Baddegama",
"PostCode": "80200",
"Latitude": 6.1652,
"Longitude": 80.1782
},
{
"Name": "Balapitiya",
"PostCode": "80550",
"Latitude": 6.278,
"Longitude": 80.0366
},
{
"Name": "Banagala",
"PostCode": "80143",
"Latitude": 6.2882,
"Longitude": 80.2376
},
{
"Name": "Batapola",
"PostCode": "80320",
"Latitude": 6.2216,
"Longitude": 80.1254
},
{
"Name": "Bentota",
"PostCode": "80500",
"Latitude": 6.4254,
"Longitude": 79.9948
},
{
"Name": "Boossa",
"PostCode": "80270",
"Latitude": 6.0733,
"Longitude": 80.1577
},
{
"Name": "Dikkumbura",
"PostCode": "80654",
"Latitude": 6.0116,
"Longitude": 80.3729
},
{
"Name": "Dodanduwa",
"PostCode": "80250",
"Latitude": 6.0962,
"Longitude": 80.1351
},
{
"Name": "Ella Tanabaddegama",
"PostCode": "80402",
"Latitude": 6.2899,
"Longitude": 80.1978
},
{
"Name": "Elpitiya",
"PostCode": "80400",
"Latitude": 6.2908,
"Longitude": 80.1626
},
{
"Name": "Ethkandura",
"PostCode": "80458",
"Latitude": 6.2995,
"Longitude": 80.1968
},
{
"Name": "Galle",
"PostCode": "80000",
"Latitude": 6.0367,
"Longitude": 80.217
},
{
"Name": "Ganegoda",
"PostCode": "80440",
"Latitude": 6.3223,
"Longitude": 80.1516
},
{
"Name": "Ginimellagaha",
"PostCode": "80220",
"Latitude": 6.1438,
"Longitude": 80.159
},
{
"Name": "Gintota",
"PostCode": "80280",
"Latitude": 6.0559,
"Longitude": 80.1774
},
{
"Name": "Godahena",
"PostCode": "80302",
"Latitude": 6.2393,
"Longitude": 80.0752
},
{
"Name": "Gonagalpura",
"PostCode": "80502",
"Latitude": 6.4015,
"Longitude": 80.0291
},
{
"Name": "Gonamulla Junction",
"PostCode": "80054",
"Latitude": 6.0647,
"Longitude": 80.3013
},
{
"Name": "Gonapinuwala",
"PostCode": "80230",
"Latitude": 6.1458,
"Longitude": 80.1384
},
{
"Name": "Habaraduwa",
"PostCode": "80630",
"Latitude": 5.9977,
"Longitude": 80.2958
},
{
"Name": "Haburugala",
"PostCode": "80506",
"Latitude": 6.4001,
"Longitude": 80.0361
},
{
"Name": "Halvitigala Colony",
"PostCode": "80146",
"Latitude": 6.3285,
"Longitude": 80.2408
},
{
"Name": "Hawpe",
"PostCode": "80132",
"Latitude": 6.1265,
"Longitude": 80.4898
},
{
"Name": "Hikkaduwa",
"PostCode": "80240",
"Latitude": 6.1407,
"Longitude": 80.1012
},
{
"Name": "Hiniduma",
"PostCode": "80080",
"Latitude": 6.3126,
"Longitude": 80.3116
},
{
"Name": "Hiyare",
"PostCode": "80056",
"Latitude": 6.0647,
"Longitude": 80.3013
},
{
"Name": "Ihala Walpola",
"PostCode": "80134",
"Latitude": 6.1265,
"Longitude": 80.4898
},
{
"Name": "Kahaduwa",
"PostCode": "80460",
"Latitude": 6.2159,
"Longitude": 80.2072
},
{
"Name": "Kahawa",
"PostCode": "80312",
"Latitude": 6.1832,
"Longitude": 80.0734
},
{
"Name": "Kananke Bazaar",
"PostCode": "80136",
"Latitude": 6.1265,
"Longitude": 80.4898
},
{
"Name": "Karagoda",
"PostCode": "80151",
"Latitude": 6.0931,
"Longitude": 80.3781
},
{
"Name": "Karandeniya",
"PostCode": "80360",
"Latitude": 6.2704,
"Longitude": 80.0794
},
{
"Name": "Kosgoda",
"PostCode": "80570",
"Latitude": 6.338,
"Longitude": 80.0262
},
{
"Name": "Kottawagama",
"PostCode": "80062",
"Latitude": 6.1439,
"Longitude": 80.3353
},
{
"Name": "Kuleegoda",
"PostCode": "80328",
"Latitude": 6.2216,
"Longitude": 80.1254
},
{
"Name": "lhalahewessa",
"PostCode": "80432",
"Latitude": 6.2995,
"Longitude": 80.1968
},
{
"Name": "lmaduwa",
"PostCode": "80130",
"Latitude": 6.1265,
"Longitude": 80.4898
},
{
"Name": "lnduruwa",
"PostCode": "80510",
"Latitude": 6.3557,
"Longitude": 80.0304
},
{
"Name": "Magedara",
"PostCode": "80152",
"Latitude": 6.1036,
"Longitude": 80.4062
},
{
"Name": "Malgalla Talangalla",
"PostCode": "80144",
"Latitude": 6.3285,
"Longitude": 80.2408
},
{
"Name": "Mapalagama",
"PostCode": "80112",
"Latitude": 6.2307,
"Longitude": 80.3254
},
{
"Name": "Mapalagama Central",
"PostCode": "80116",
"Latitude": 6.2133,
"Longitude": 80.2998
},
{
"Name": "Mattaka",
"PostCode": "80424",
"Latitude": 6.3041,
"Longitude": 80.2522
},
{
"Name": "Meda-Keembiya",
"PostCode": "80092",
"Latitude": 6.1818,
"Longitude": 80.3036
},
{
"Name": "Meetiyagoda",
"PostCode": "80330",
"Latitude": 6.1915,
"Longitude": 80.0895
},
{
"Name": "Miriswatta",
"PostCode": "80508",
"Latitude": 6.379,
"Longitude": 80.0563
},
{
"Name": "Nagoda",
"PostCode": "80110",
"Latitude": 6.1958,
"Longitude": 80.2742
},
{
"Name": "Nakiyadeniya",
"PostCode": "80064",
"Latitude": 6.1439,
"Longitude": 80.3353
},
{
"Name": "Nawadagala",
"PostCode": "80416",
"Latitude": 6.3113,
"Longitude": 80.1333
},
{
"Name": "Neluwa",
"PostCode": "80082",
"Latitude": 6.3757,
"Longitude": 80.3604
},
{
"Name": "Nindana",
"PostCode": "80318",
"Latitude": 6.2033,
"Longitude": 80.103
},
{
"Name": "Opatha",
"PostCode": "80142",
"Latitude": 6.3587,
"Longitude": 80.1412
},
{
"Name": "Panangala",
"PostCode": "80075",
"Latitude": 6.2628,
"Longitude": 80.3223
},
{
"Name": "Pannimulla Panagoda",
"PostCode": "80086",
"Latitude": 6.3572,
"Longitude": 80.3634
},
{
"Name": "Parana ThanaYamgoda",
"PostCode": "80114",
"Latitude": 6.2133,
"Longitude": 80.2998
},
{
"Name": "Pitigala",
"PostCode": "80420",
"Latitude": 6.3517,
"Longitude": 80.2162
},
{
"Name": "Poddala",
"PostCode": "80170",
"Latitude": 6.112,
"Longitude": 80.2105
},
{
"Name": "Porawagama",
"PostCode": "80408",
"Latitude": 6.2707,
"Longitude": 80.2324
},
{
"Name": "Rantotuwila",
"PostCode": "80354",
"Latitude": 6.3847,
"Longitude": 80.097
},
{
"Name": "Ratgama",
"PostCode": "80260",
"Latitude": 6.0941,
"Longitude": 80.1429
},
{
"Name": "Talagampola",
"PostCode": "80058",
"Latitude": 6.0647,
"Longitude": 80.3013
},
{
"Name": "Talgaspe",
"PostCode": "80406",
"Latitude": 6.3081,
"Longitude": 80.1985
},
{
"Name": "Talgaswela",
"PostCode": "80470",
"Latitude": 6.2995,
"Longitude": 80.1968
},
{
"Name": "Talpe",
"PostCode": "80615",
"Latitude": 5.9999,
"Longitude": 80.2787
},
{
"Name": "Tawalama",
"PostCode": "80148",
"Latitude": 6.3387,
"Longitude": 80.3437
},
{
"Name": "Tiranagama",
"PostCode": "80244",
"Latitude": 6.1282,
"Longitude": 80.1245
},
{
"Name": "Udalamatta",
"PostCode": "80108",
"Latitude": 6.1828,
"Longitude": 80.2952
},
{
"Name": "Udugama",
"PostCode": "80070",
"Latitude": 6.2211,
"Longitude": 80.3336
},
{
"Name": "Uluvitike",
"PostCode": "80168",
"Latitude": 6.1763,
"Longitude": 80.3065
},
{
"Name": "Unawatuna",
"PostCode": "80600",
"Latitude": 6.0212,
"Longitude": 80.2503
},
{
"Name": "Unenwitiya",
"PostCode": "80214",
"Latitude": 6.2456,
"Longitude": 80.2234
},
{
"Name": "Uragaha",
"PostCode": "80352",
"Latitude": 6.3589,
"Longitude": 80.1181
},
{
"Name": "Uragasmanhandiya",
"PostCode": "80350",
"Latitude": 6.3429,
"Longitude": 80.0927
},
{
"Name": "Wakwella",
"PostCode": "80042",
"Latitude": 6.0949,
"Longitude": 80.2026
},
{
"Name": "Walahanduwa",
"PostCode": "80046",
"Latitude": 6.0568,
"Longitude": 80.2475
},
{
"Name": "Wanchawela",
"PostCode": "80120",
"Latitude": 6.0359,
"Longitude": 80.3156
},
{
"Name": "Wanduramba",
"PostCode": "80100",
"Latitude": 6.1305,
"Longitude": 80.2521
},
{
"Name": "Warukandeniya",
"PostCode": "80084",
"Latitude": 6.3834,
"Longitude": 80.4182
},
{
"Name": "Watugedara",
"PostCode": "80340",
"Latitude": 6.2545,
"Longitude": 80.0576
},
{
"Name": "Weihena",
"PostCode": "80216",
"Latitude": 6.2982,
"Longitude": 80.2463
},
{
"Name": "Yakkalamulla",
"PostCode": "80150",
"Latitude": 6.1098,
"Longitude": 80.3454
},
{
"Name": "Yatalamatta",
"PostCode": "80107",
"Latitude": 6.1619,
"Longitude": 80.2766
}
]
}
]
},
{
"Name": "Gampaha",
"Code": "GQ",
"Communities": [
{
"Places": [
{
"Name": "Akaragama",
"PostCode": "11536",
"Latitude": 7.2666,
"Longitude": 79.9652
},
{
"Name": "Alawala",
"PostCode": "11122",
"Latitude": 7.1202,
"Longitude": 80.1815
},
{
"Name": "Ambagaspitiya",
"PostCode": "11052",
"Latitude": 7.0821,
"Longitude": 80.0616
},
{
"Name": "Ambepussa",
"PostCode": "11212",
"Latitude": 7.2507,
"Longitude": 80.1723
},
{
"Name": "Andiambalama",
"PostCode": "11558",
"Latitude": 7.1818,
"Longitude": 79.9001
},
{
"Name": "Attanagalla",
"PostCode": "11120",
"Latitude": 7.1152,
"Longitude": 80.1341
},
{
"Name": "Badalgama",
"PostCode": "11538",
"Latitude": 7.2976,
"Longitude": 79.9844
},
{
"Name": "Banduragoda",
"PostCode": "11244",
"Latitude": 7.2266,
"Longitude": 80.0544
},
{
"Name": "Batuwatta",
"PostCode": "11011",
"Latitude": 7.0527,
"Longitude": 79.9266
},
{
"Name": "Bemmulla",
"PostCode": "11040",
"Latitude": 7.1229,
"Longitude": 80.0239
},
{
"Name": "Biyagama",
"PostCode": "11650",
"Latitude": 6.9423,
"Longitude": 79.9842
},
{
"Name": "Biyagama IPZ",
"PostCode": "11672",
"Latitude": 6.9414,
"Longitude": 80.021
},
{
"Name": "Bokalagama",
"PostCode": "11216",
"Latitude": 7.2317,
"Longitude": 80.1549
},
{
"Name": "Bollete (WP)",
"PostCode": "11024",
"Latitude": 7.0652,
"Longitude": 79.963
},
{
"Name": "Bopagama",
"PostCode": "11134",
"Latitude": 7.0742,
"Longitude": 80.1501
},
{
"Name": "Buthpitiya",
"PostCode": "11720",
"Latitude": 7.0491,
"Longitude": 80.0514
},
{
"Name": "Dagonna",
"PostCode": "11524",
"Latitude": 7.2219,
"Longitude": 79.9279
},
{
"Name": "Danowita",
"PostCode": "11896",
"Latitude": 7.207,
"Longitude": 80.1769
},
{
"Name": "Debahera",
"PostCode": "11889",
"Latitude": 7.1426,
"Longitude": 80.0938
},
{
"Name": "Dekatana",
"PostCode": "11690",
"Latitude": 6.9694,
"Longitude": 80.0481
},
{
"Name": "Delgoda",
"PostCode": "11700",
"Latitude": 6.9909,
"Longitude": 80.008
},
{
"Name": "Delwagura",
"PostCode": "11228",
"Latitude": 7.2661,
"Longitude": 79.9936
},
{
"Name": "Demalagama",
"PostCode": "11692",
"Latitude": 6.9879,
"Longitude": 80.0483
},
{
"Name": "Demanhandiya",
"PostCode": "11270",
"Latitude": 7.2282,
"Longitude": 79.8964
},
{
"Name": "Dewalapola",
"PostCode": "11102",
"Latitude": 7.1659,
"Longitude": 79.9905
},
{
"Name": "Divulapitiya",
"PostCode": "11250",
"Latitude": 7.224,
"Longitude": 80.0094
},
{
"Name": "Divuldeniya",
"PostCode": "11208",
"Latitude": 7.3028,
"Longitude": 80.0957
},
{
"Name": "Dompe",
"PostCode": "11680",
"Latitude": 6.9503,
"Longitude": 80.051
},
{
"Name": "Dunagaha",
"PostCode": "11264",
"Latitude": 7.2256,
"Longitude": 79.9685
},
{
"Name": "Ekala",
"PostCode": "11380",
"Latitude": 7.099,
"Longitude": 79.913
},
{
"Name": "Ellakkala",
"PostCode": "11116",
"Latitude": 7.144,
"Longitude": 80.1241
},
{
"Name": "Essella",
"PostCode": "11108",
"Latitude": 7.1773,
"Longitude": 80.0123
},
{
"Name": "Gampaha",
"PostCode": "11000",
"Latitude": 7.0897,
"Longitude": 79.9925
},
{
"Name": "Ganemulla",
"PostCode": "11020",
"Latitude": 7.0652,
"Longitude": 79.963
},
{
"Name": "GonawalaWP",
"PostCode": "11630",
"Latitude": 6.9618,
"Longitude": 80.0025
},
{
"Name": "Heiyanthuduwa",
"PostCode": "11618",
"Latitude": 6.9618,
"Longitude": 80.0025
},
{
"Name": "Henegama",
"PostCode": "11715",
"Latitude": 7.0177,
"Longitude": 80.0488
},
{
"Name": "Hinatiyana Madawala",
"PostCode": "11568",
"Latitude": 7.1715,
"Longitude": 79.9665
},
{
"Name": "Hiswella",
"PostCode": "11734",
"Latitude": 7.0417,
"Longitude": 80.1282
},
{
"Name": "Horampella",
"PostCode": "11564",
"Latitude": 7.1715,
"Longitude": 79.9665
},
{
"Name": "Hunumulla",
"PostCode": "11262",
"Latitude": 7.2453,
"Longitude": 79.9974
},
{
"Name": "Ihala Madampella",
"PostCode": "11265",
"Latitude": 7.2507,
"Longitude": 79.9509
},
{
"Name": "Imbulgoda",
"PostCode": "11856",
"Latitude": 7.0376,
"Longitude": 79.9913
},
{
"Name": "Ja-Ela",
"PostCode": "11350",
"Latitude": 7.0744,
"Longitude": 79.8919
},
{
"Name": "Kadawatha",
"PostCode": "11850",
"Latitude": 7.0276,
"Longitude": 79.993
},
{
"Name": "Kahatowita",
"PostCode": "11144",
"Latitude": 7.0725,
"Longitude": 80.115
},
{
"Name": "Kalagedihena",
"PostCode": "11875",
"Latitude": 7.1185,
"Longitude": 80.0563
},
{
"Name": "Kaleliya",
"PostCode": "11160",
"Latitude": 7.195,
"Longitude": 80.1136
},
{
"Name": "Kaluaggala",
"PostCode": "11224",
"Latitude": 6.9173,
"Longitude": 80.1109
},
{
"Name": "Kandana",
"PostCode": "11320",
"Latitude": 7.048,
"Longitude": 79.8937
},
{
"Name": "Kapugoda",
"PostCode": "10662",
"Latitude": 6.9504,
"Longitude": 80.0916
},
{
"Name": "Katana",
"PostCode": "11534",
"Latitude": 7.2503,
"Longitude": 79.8957
},
{
"Name": "Katunayake",
"PostCode": "11450",
"Latitude": 7.1643,
"Longitude": 79.8757
},
{
"Name": "Katunayake Air Force Camp",
"PostCode": "11440",
"Latitude": 7.144,
"Longitude": 79.8887
},
{
"Name": "Katunayake(FTZ)",
"PostCode": "11420",
"Latitude": 7.144,
"Longitude": 79.8887
},
{
"Name": "Katuwellegama",
"PostCode": "11526",
"Latitude": 7.2234,
"Longitude": 79.9383
},
{
"Name": "Kelaniya",
"PostCode": "11600",
"Latitude": 6.9553,
"Longitude": 79.922
},
{
"Name": "Kimbulapitiya",
"PostCode": "11522",
"Latitude": 7.2036,
"Longitude": 79.895
},
{
"Name": "Kirindiwela",
"PostCode": "11730",
"Latitude": 7.0417,
"Longitude": 80.1282
},
{
"Name": "Kitalawalana",
"PostCode": "11206",
"Latitude": 7.2965,
"Longitude": 80.1001
},
{
"Name": "Kitulwala",
"PostCode": "11242",
"Latitude": 7.5034,
"Longitude": 80.5318
},
{
"Name": "Kochchikade",
"PostCode": "11540",
"Latitude": 7.2657,
"Longitude": 79.8603
},
{
"Name": "Kotadeniyawa",
"PostCode": "11232",
"Latitude": 7.2844,
"Longitude": 80.0625
},
{
"Name": "Kotugoda",
"PostCode": "11390",
"Latitude": 7.1231,
"Longitude": 79.9263
},
{
"Name": "Kumbaloluwa",
"PostCode": "11105",
"Latitude": 7.1763,
"Longitude": 80.0827
},
{
"Name": "Loluwagoda",
"PostCode": "11204",
"Latitude": 7.2959,
"Longitude": 80.1346
},
{
"Name": "Lunugama",
"PostCode": "11062",
"Latitude": 6.9714,
"Longitude": 80.0933
},
{
"Name": "Mabodale",
"PostCode": "11114",
"Latitude": 7.1981,
"Longitude": 80.0166
},
{
"Name": "Madelgamuwa",
"PostCode": "11033",
"Latitude": 7.1116,
"Longitude": 79.953
},
{
"Name": "Makewita",
"PostCode": "11358",
"Latitude": 7.1023,
"Longitude": 79.9313
},
{
"Name": "Makola",
"PostCode": "11640",
"Latitude": 6.9769,
"Longitude": 79.958
},
{
"Name": "Malwana",
"PostCode": "11670",
"Latitude": 6.9414,
"Longitude": 80.021
},
{
"Name": "Mandawala",
"PostCode": "11061",
"Latitude": 7.0188,
"Longitude": 80.083
},
{
"Name": "Marandagahamula",
"PostCode": "11260",
"Latitude": 7.2405,
"Longitude": 79.9723
},
{
"Name": "Mellawagedara",
"PostCode": "11234",
"Latitude": 7.2844,
"Longitude": 80.0625
},
{
"Name": "Minuwangoda",
"PostCode": "11550",
"Latitude": 7.1663,
"Longitude": 79.9533
},
{
"Name": "Mirigama",
"PostCode": "11200",
"Latitude": 7.2439,
"Longitude": 80.1212
},
{
"Name": "Mithirigala",
"PostCode": "11742",
"Latitude": 6.9982,
"Longitude": 80.1286
},
{
"Name": "Muddaragama",
"PostCode": "11112",
"Latitude": 7.2077,
"Longitude": 80.0545
},
{
"Name": "Mudungoda",
"PostCode": "11056",
"Latitude": 7.061,
"Longitude": 80.0049
},
{
"Name": "Naranwala",
"PostCode": "11063",
"Latitude": 7.0006,
"Longitude": 80.0245
},
{
"Name": "Nawana",
"PostCode": "11222",
"Latitude": 7.2638,
"Longitude": 80.1012
},
{
"Name": "Nedungamuwa",
"PostCode": "11066",
"Latitude": 7.0393,
"Longitude": 80.0197
},
{
"Name": "Negombo",
"PostCode": "11500",
"Latitude": 7.2083,
"Longitude": 79.8358
},
{
"Name": "Nikahetikanda",
"PostCode": "11128",
"Latitude": 7.0951,
"Longitude": 80.1689
},
{
"Name": "Nittambuwa",
"PostCode": "11880",
"Latitude": 7.1426,
"Longitude": 80.0938
},
{
"Name": "Niwandama",
"PostCode": "11354",
"Latitude": 7.0815,
"Longitude": 79.9308
},
{
"Name": "Pallewela",
"PostCode": "11150",
"Latitude": 7.2,
"Longitude": 80.0833
},
{
"Name": "Pamunugama",
"PostCode": "11370",
"Latitude": 7.1006,
"Longitude": 79.8481
},
{
"Name": "Pamunuwatta",
"PostCode": "11214",
"Latitude": 7.2127,
"Longitude": 80.1375
},
{
"Name": "Pasyala",
"PostCode": "11890",
"Latitude": 7.1666,
"Longitude": 80.1219
},
{
"Name": "Peliyagoda",
"PostCode": "11830",
"Latitude": 6.9685,
"Longitude": 79.8836
},
{
"Name": "Pepiliyawala",
"PostCode": "11741",
"Latitude": 6.9982,
"Longitude": 80.1286
},
{
"Name": "Pethiyagoda",
"PostCode": "11043",
"Latitude": 7.1229,
"Longitude": 80.0239
},
{
"Name": "Polpithimukulana",
"PostCode": "11324",
"Latitude": 7.045,
"Longitude": 79.8781
},
{
"Name": "Pugoda",
"PostCode": "10660",
"Latitude": 6.9911,
"Longitude": 80.1197
},
{
"Name": "Radawadunna",
"PostCode": "11892",
"Latitude": 7.1785,
"Longitude": 80.1409
},
{
"Name": "Radawana",
"PostCode": "11725",
"Latitude": 7.0321,
"Longitude": 80.0912
},
{
"Name": "Raddolugama",
"PostCode": "11400",
"Latitude": 7.1371,
"Longitude": 79.9034
},
{
"Name": "Ragama",
"PostCode": "11010",
"Latitude": 7.0292,
"Longitude": 79.917
},
{
"Name": "Ruggahawila",
"PostCode": "11142",
"Latitude": 7.0725,
"Longitude": 80.115
},
{
"Name": "Rukmale",
"PostCode": "11129",
"Latitude": 7.4074,
"Longitude": 80.0869
},
{
"Name": "Seeduwa",
"PostCode": "11410",
"Latitude": 7.1305,
"Longitude": 79.8871
},
{
"Name": "Siyambalape",
"PostCode": "11607",
"Latitude": 6.9707,
"Longitude": 79.9875
},
{
"Name": "Talahena",
"PostCode": "11504",
"Latitude": 7.1624,
"Longitude": 79.8246
},
{
"Name": "Thimbirigaskatuwa",
"PostCode": "11532",
"Latitude": 7.2715,
"Longitude": 79.9484
},
{
"Name": "Tittapattara",
"PostCode": "10664",
"Latitude": 6.9345,
"Longitude": 80.0902
},
{
"Name": "Udathuthiripitiya",
"PostCode": "11054",
"Latitude": 7.0716,
"Longitude": 80.0333
},
{
"Name": "Udugampola",
"PostCode": "11030",
"Latitude": 7.1167,
"Longitude": 79.9833
},
{
"Name": "Uggalboda",
"PostCode": "11034",
"Latitude": 7.1273,
"Longitude": 79.9563
},
{
"Name": "Urapola",
"PostCode": "11126",
"Latitude": 7.0987,
"Longitude": 80.143
},
{
"Name": "Uswetakeiyawa",
"PostCode": "11328",
"Latitude": 7.0421,
"Longitude": 79.8624
},
{
"Name": "Veyangoda",
"PostCode": "11100",
"Latitude": 7.1535,
"Longitude": 80.0597
},
{
"Name": "Walgammulla",
"PostCode": "11146",
"Latitude": 7.0725,
"Longitude": 80.115
},
{
"Name": "Walpita",
"PostCode": "11226",
"Latitude": 7.2601,
"Longitude": 80.0493
},
{
"Name": "Walpola (WP)",
"PostCode": "11012",
"Latitude": 7.041,
"Longitude": 79.9218
},
{
"Name": "Wanaluwewa",
"PostCode": "11068",
"Latitude": 7.0075,
"Longitude": 80.0551
},
{
"Name": "Wathurugama",
"PostCode": "11724",
"Latitude": 7.0406,
"Longitude": 80.0713
},
{
"Name": "Watinapaha",
"PostCode": "11104",
"Latitude": 7.1891,
"Longitude": 80.0004
},
{
"Name": "Wattala",
"PostCode": "11104",
"Latitude": 6.9779,
"Longitude": 79.8898
},
{
"Name": "Weboda",
"PostCode": "11858",
"Latitude": 7.0176,
"Longitude": 79.9946
},
{
"Name": "Wegowwa",
"PostCode": "11562",
"Latitude": 7.1715,
"Longitude": 79.9665
},
{
"Name": "Weliveriya",
"PostCode": "11710",
"Latitude": 7.0177,
"Longitude": 80.0488
},
{
"Name": "Weweldeniya",
"PostCode": "11894",
"Latitude": 7.184,
"Longitude": 80.1466
},
{
"Name": "Yakkala",
"PostCode": "11870",
"Latitude": 7.0869,
"Longitude": 80.0271
},
{
"Name": "Yatiyana(WP)",
"PostCode": "11566",
"Latitude": 7.1715,
"Longitude": 79.9665
}
]
}
]
},
{
"Name": "Hambantota",
"Code": "HB",
"Communities": [
{
"Places": [
{
"Name": "Ambalantota",
"PostCode": "82100",
"Latitude": 6.1196,
"Longitude": 81.0214
},
{
"Name": "Angunakolapelessa",
"PostCode": "82220",
"Latitude": 6.164,
"Longitude": 80.8913
},
{
"Name": "Bandagiriya Colony",
"PostCode": "82005",
"Latitude": 6.1903,
"Longitude": 81.1721
},
{
"Name": "Barawakumbuka",
"PostCode": "82110",
"Latitude": 6.2231,
"Longitude": 80.9308
},
{
"Name": "Beliatta",
"PostCode": "82400",
"Latitude": 6.0496,
"Longitude": 80.7325
},
{
"Name": "Beragama",
"PostCode": "82102",
"Latitude": 6.1493,
"Longitude": 81.0413
},
{
"Name": "Beralihela",
"PostCode": "82618",
"Latitude": 6.3391,
"Longitude": 81.2571
},
{
"Name": "Bowalagama",
"PostCode": "82458",
"Latitude": 6.3047,
"Longitude": 80.7064
},
{
"Name": "Bundala",
"PostCode": "82002",
"Latitude": 6.1899,
"Longitude": 81.267
},
{
"Name": "Ellagala",
"PostCode": "82619",
"Latitude": 6.3362,
"Longitude": 81.2441
},
{
"Name": "Gangulandeniya",
"PostCode": "82586",
"Latitude": 6.2833,
"Longitude": 80.7182
},
{
"Name": "Getamanna",
"PostCode": "82420",
"Latitude": 6.0333,
"Longitude": 80.6833
},
{
"Name": "Goda Koggalla",
"PostCode": "82401",
"Latitude": 6.0496,
"Longitude": 80.7325
},
{
"Name": "Gonagamuwa Uduwila",
"PostCode": "82602",
"Latitude": 6.2466,
"Longitude": 81.2933
},
{
"Name": "Gonnoruwa",
"PostCode": "82006",
"Latitude": 6.2423,
"Longitude": 81.1053
},
{
"Name": "Hakuruwela",
"PostCode": "82248",
"Latitude": 6.1443,
"Longitude": 80.8332
},
{
"Name": "Hambantota",
"PostCode": "82000",
"Latitude": 6.1241,
"Longitude": 81.1185
},
{
"Name": "Horewelagoda",
"PostCode": "82456",
"Latitude": 6.3047,
"Longitude": 80.7064
},
{
"Name": "Hungama",
"PostCode": "82120",
"Latitude": 6.1087,
"Longitude": 80.9309
},
{
"Name": "Ihala Beligalla",
"PostCode": "82412",
"Latitude": 6.0947,
"Longitude": 80.7411
},
{
"Name": "Ittademaliya",
"PostCode": "82462",
"Latitude": 6.1565,
"Longitude": 80.7256
},
{
"Name": "Julampitiya",
"PostCode": "82252",
"Latitude": 6.2212,
"Longitude": 80.7383
},
{
"Name": "Kahandamodara",
"PostCode": "82126",
"Latitude": 6.0705,
"Longitude": 80.8958
},
{
"Name": "Kariyamaditta",
"PostCode": "82274",
"Latitude": 6.2554,
"Longitude": 80.8254
},
{
"Name": "Katuwana",
"PostCode": "82500",
"Latitude": 6.2683,
"Longitude": 80.6971
},
{
"Name": "Kawantissapura",
"PostCode": "82622",
"Latitude": 6.2908,
"Longitude": 81.2463
},
{
"Name": "Kirama",
"PostCode": "82550",
"Latitude": 6.2098,
"Longitude": 80.6632
},
{
"Name": "Kirinda",
"PostCode": "82614",
"Latitude": 6.2186,
"Longitude": 81.3256
},
{
"Name": "Lunama",
"PostCode": "82108",
"Latitude": 6.1074,
"Longitude": 80.9783
},
{
"Name": "Lunugamwehera",
"PostCode": "82634",
"Latitude": 6.3434,
"Longitude": 81.2001
},
{
"Name": "Magama",
"PostCode": "82608",
"Latitude": 6.2167,
"Longitude": 81.3
},
{
"Name": "Mahagalwewa",
"PostCode": "82016",
"Latitude": 6.1903,
"Longitude": 81.1721
},
{
"Name": "Mamadala",
"PostCode": "82109",
"Latitude": 6.1614,
"Longitude": 80.9701
},
{
"Name": "Medamulana",
"PostCode": "82254",
"Latitude": 6.1783,
"Longitude": 80.7692
},
{
"Name": "Middeniya",
"PostCode": "82270",
"Latitude": 6.2502,
"Longitude": 80.7634
},
{
"Name": "Migahajandur",
"PostCode": "82014",
"Latitude": 6.1903,
"Longitude": 81.1721
},
{
"Name": "Modarawana",
"PostCode": "82416",
"Latitude": 6.1257,
"Longitude": 80.7112
},
{
"Name": "Mulkirigala",
"PostCode": "82242",
"Latitude": 6.1315,
"Longitude": 80.7305
},
{
"Name": "Nakulugamuwa",
"PostCode": "82300",
"Latitude": 6.1905,
"Longitude": 80.9357
},
{
"Name": "Netolpitiya",
"PostCode": "82135",
"Latitude": 6.0634,
"Longitude": 80.8363
},
{
"Name": "Nihiluwa",
"PostCode": "82414",
"Latitude": 6.0833,
"Longitude": 80.7
},
{
"Name": "Padawkema",
"PostCode": "82636",
"Latitude": 6.3599,
"Longitude": 81.1778
},
{
"Name": "Pahala Andarawewa",
"PostCode": "82008",
"Latitude": 6.1903,
"Longitude": 81.1721
},
{
"Name": "Pallekanda",
"PostCode": "82454",
"Latitude": 6.4572,
"Longitude": 80.7187
},
{
"Name": "Rammalawarapitiya",
"PostCode": "82554",
"Latitude": 6.2098,
"Longitude": 80.6632
},
{
"Name": "Ranakeliya",
"PostCode": "82612",
"Latitude": 6.2187,
"Longitude": 81.322
},
{
"Name": "Ranmuduwewa",
"PostCode": "82018",
"Latitude": 6.1903,
"Longitude": 81.1721
},
{
"Name": "Ranna",
"PostCode": "82125",
"Latitude": 6.0985,
"Longitude": 80.8807
},
{
"Name": "Ratmalwala",
"PostCode": "82276",
"Latitude": 6.2686,
"Longitude": 80.85
},
{
"Name": "RU/Ridiyagama",
"PostCode": "82106",
"Latitude": 6.1344,
"Longitude": 81.0028
},
{
"Name": "Sooriyawewa Town",
"PostCode": "82010",
"Latitude": 6.1903,
"Longitude": 81.1721
},
{
"Name": "Tangalla",
"PostCode": "82200",
"Latitude": 6.024,
"Longitude": 80.7911
},
{
"Name": "Tissamaharama",
"PostCode": "82600",
"Latitude": 6.2765,
"Longitude": 81.2865
},
{
"Name": "Uda Gomadiya",
"PostCode": "82504",
"Latitude": 6.2683,
"Longitude": 80.6971
},
{
"Name": "Udamattala",
"PostCode": "82638",
"Latitude": 6.3391,
"Longitude": 81.1337
},
{
"Name": "Uswewa",
"PostCode": "82278",
"Latitude": 6.2475,
"Longitude": 80.862799999999993
},
{
"Name": "Vitharandeniya",
"PostCode": "82232",
"Latitude": 6.1781,
"Longitude": 80.7994
},
{
"Name": "Walasmulla",
"PostCode": "82450",
"Latitude": 6.1521,
"Longitude": 80.6941
},
{
"Name": "Weeraketiya",
"PostCode": "82240",
"Latitude": 6.151,
"Longitude": 80.7643
},
{
"Name": "Weerawila",
"PostCode": "82632",
"Latitude": 6.2594,
"Longitude": 81.2164
},
{
"Name": "Weerawila NewTown",
"PostCode": "82615",
"Latitude": 6.2782,
"Longitude": 81.2872
},
{
"Name": "Wekandawela",
"PostCode": "82246",
"Latitude": 6.1423,
"Longitude": 80.776
},
{
"Name": "Weligatta",
"PostCode": "82004",
"Latitude": 6.2049,
"Longitude": 81.1976
},
{
"Name": "Yatigala",
"PostCode": "82418",
"Latitude": 6.1056,
"Longitude": 80.692
}
]
}
]
},
{
"Name": "Jaffna",
"Code": "JA",
"PostCode": "40000",
"Communities": [
{
"Places": [
{
"Name": "Jaffna",
"PostCode": "40000",
"Latitude": 9.6684,
"Longitude": 80.0074
}
],
"PostCode": "40000"
}
]
},
{
"Name": "Kegalle",
"Code": "KE",
"Communities": [
{
"Places": [
{
"Name": "Alawatura",
"PostCode": "71204",
"Latitude": 7.1259,
"Longitude": 80.3246
},
{
"Name": "Algama",
"PostCode": "71607",
"Latitude": 7.1627,
"Longitude": 80.1681
},
{
"Name": "Alutnuwara",
"PostCode": "71508",
"Latitude": 7.2333,
"Longitude": 80.4667
},
{
"Name": "Ambalakanda",
"PostCode": "71546",
"Latitude": 7.1366,
"Longitude": 80.4524
},
{
"Name": "Ambulugala",
"PostCode": "71503",
"Latitude": 7.2376,
"Longitude": 80.4168
},
{
"Name": "Amitirigala",
"PostCode": "71320",
"Latitude": 7.0273,
"Longitude": 80.1836
},
{
"Name": "Ampagala",
"PostCode": "71232",
"Latitude": 7.0673,
"Longitude": 80.2955
},
{
"Name": "Anhettigama",
"PostCode": "71403",
"Latitude": 6.9221,
"Longitude": 80.374
},
{
"Name": "Aranayaka",
"PostCode": "71540",
"Latitude": 7.1509,
"Longitude": 80.4614
},
{
"Name": "Aruggammana",
"PostCode": "71041",
"Latitude": 7.1305,
"Longitude": 80.2991
},
{
"Name": "Atale",
"PostCode": "71363",
"Latitude": 7.1453,
"Longitude": 80.2839
},
{
"Name": "Batuwita",
"PostCode": "71321",
"Latitude": 7.0537,
"Longitude": 80.1701
},
{
"Name": "Beligala(Sab)",
"PostCode": "71044",
"Latitude": 7.2189,
"Longitude": 80.3017
},
{
"Name": "Berannawa",
"PostCode": "71706",
"Latitude": 7.0676,
"Longitude": 80.4123
},
{
"Name": "Bopitiya (SAB)",
"PostCode": "71612",
"Latitude": 7.2523,
"Longitude": 80.2248
},
{
"Name": "Boralankada",
"PostCode": "71418",
"Latitude": 6.9721,
"Longitude": 80.3285
},
{
"Name": "Bossella",
"PostCode": "71208",
"Latitude": 7.1471,
"Longitude": 80.3992
},
{
"Name": "Bulathkohupitiya",
"PostCode": "71230",
"Latitude": 7.1032,
"Longitude": 80.3344
},
{
"Name": "Damunupola",
"PostCode": "71034",
"Latitude": 7.1813,
"Longitude": 80.3339
},
{
"Name": "Debathgama",
"PostCode": "71037",
"Latitude": 7.1807,
"Longitude": 80.4251
},
{
"Name": "Dedugala",
"PostCode": "71237",
"Latitude": 7.0991,
"Longitude": 80.4016
},
{
"Name": "Deewala Pallegama",
"PostCode": "71022",
"Latitude": 7.2393,
"Longitude": 80.2857
},
{
"Name": "Dehiowita",
"PostCode": "71400",
"Latitude": 6.9776,
"Longitude": 80.2624
},
{
"Name": "Deldeniya",
"PostCode": "71009",
"Latitude": 7.2863,
"Longitude": 80.3626
},
{
"Name": "Deloluwa",
"PostCode": "71401",
"Latitude": 6.9582,
"Longitude": 80.3174
},
{
"Name": "Deraniyagala",
"PostCode": "71430",
"Latitude": 6.9314,
"Longitude": 80.3352
},
{
"Name": "Dewalegama",
"PostCode": "71050",
"Latitude": 7.2801,
"Longitude": 80.3186
},
{
"Name": "Dewanagala",
"PostCode": "71527",
"Latitude": 7.2159,
"Longitude": 80.4704
},
{
"Name": "Dombemada",
"PostCode": "71115",
"Latitude": 7.3798,
"Longitude": 80.3469
},
{
"Name": "Dorawaka",
"PostCode": "71601",
"Latitude": 7.1839,
"Longitude": 80.2198
},
{
"Name": "Dunumala",
"PostCode": "71605",
"Latitude": 7.1746,
"Longitude": 80.2058
},
{
"Name": "Galapitamada",
"PostCode": "71603",
"Latitude": 7.1374,
"Longitude": 80.2333
},
{
"Name": "Galatara",
"PostCode": "71505",
"Latitude": 7.2167,
"Longitude": 80.4167
},
{
"Name": "Galigamuwa Town",
"PostCode": "71350",
"Latitude": 7.2032,
"Longitude": 80.2956
},
{
"Name": "Galpatha(Sab)",
"PostCode": "71312",
"Latitude": 7.0494,
"Longitude": 80.2324
},
{
"Name": "Gantuna",
"PostCode": "71222",
"Latitude": 7.173,
"Longitude": 80.3612
},
{
"Name": "Gonagala",
"PostCode": "71318",
"Latitude": 7.0356,
"Longitude": 80.2104
},
{
"Name": "Hakahinna",
"PostCode": "71352",
"Latitude": 7.2032,
"Longitude": 80.2956
},
{
"Name": "Hakbellawaka",
"PostCode": "71715",
"Latitude": 7.0281,
"Longitude": 80.3348
},
{
"Name": "Helamada",
"PostCode": "71046",
"Latitude": 7.3073,
"Longitude": 80.3043
},
{
"Name": "Hemmatagama",
"PostCode": "71530",
"Latitude": 7.1736,
"Longitude": 80.5002
},
{
"Name": "Hettimulla",
"PostCode": "71210",
"Latitude": 7.2094,
"Longitude": 80.358
},
{
"Name": "Hewadiwela",
"PostCode": "71108",
"Latitude": 7.3858,
"Longitude": 80.3878
},
{
"Name": "Hingula",
"PostCode": "71520",
"Latitude": 7.2457,
"Longitude": 80.4664
},
{
"Name": "Hinguralakanda",
"PostCode": "71417",
"Latitude": 6.9154,
"Longitude": 80.2972
},
{
"Name": "Hiriwadunna",
"PostCode": "71014",
"Latitude": 7.287,
"Longitude": 80.3783
},
{
"Name": "Imbulana",
"PostCode": "71313",
"Latitude": 7.0632,
"Longitude": 80.2544
},
{
"Name": "Imbulgasdeniya",
"PostCode": "71055",
"Latitude": 7.3101,
"Longitude": 80.3161
},
{
"Name": "Kabagamuwa",
"PostCode": "71202",
"Latitude": 7.1335,
"Longitude": 80.3389
},
{
"Name": "Kannattota",
"PostCode": "71372",
"Latitude": 7.0805,
"Longitude": 80.2794
},
{
"Name": "Kegalle",
"PostCode": "71000",
"Latitude": 7.2523,
"Longitude": 80.3436
},
{
"Name": "Kehelpannala",
"PostCode": "71533",
"Latitude": 7.1664,
"Longitude": 80.5187
},
{
"Name": "Kitulgala",
"PostCode": "71720",
"Latitude": 6.9966,
"Longitude": 80.4068
},
{
"Name": "Kondeniya",
"PostCode": "71501",
"Latitude": 7.265,
"Longitude": 80.433
},
{
"Name": "Kotiyakumbura",
"PostCode": "71370",
"Latitude": 7.1238,
"Longitude": 80.2864
},
{
"Name": "Lewangama",
"PostCode": "71315",
"Latitude": 7.0494,
"Longitude": 80.2324
},
{
"Name": "Mahabage",
"PostCode": "71722",
"Latitude": 7.0225,
"Longitude": 80.4333
},
{
"Name": "Mahapallegama",
"PostCode": "71063",
"Latitude": 7.3605,
"Longitude": 80.0911
},
{
"Name": "Maharangalla",
"PostCode": "71211",
"Latitude": 7.2094,
"Longitude": 80.358
},
{
"Name": "Makehelwala",
"PostCode": "71507",
"Latitude": 7.2825,
"Longitude": 80.4736
},
{
"Name": "Malalpola",
"PostCode": "71704",
"Latitude": 7.0579,
"Longitude": 80.3419
},
{
"Name": "Maliboda",
"PostCode": "71411",
"Latitude": 6.8886,
"Longitude": 80.4285
},
{
"Name": "Malmaduwa",
"PostCode": "71325",
"Latitude": 7.1364,
"Longitude": 80.2738
},
{
"Name": "Mawanella",
"PostCode": "71500",
"Latitude": 7.2519,
"Longitude": 80.4453
},
{
"Name": "Migastenna Sabara",
"PostCode": "71716",
"Latitude": 7.0281,
"Longitude": 80.3348
},
{
"Name": "Miyanawita",
"PostCode": "71432",
"Latitude": 6.9037,
"Longitude": 80.35
},
{
"Name": "Molagoda",
"PostCode": "71016",
"Latitude": 7.2578,
"Longitude": 80.3819
},
{
"Name": "Morontota",
"PostCode": "71220",
"Latitude": 7.173,
"Longitude": 80.3612
},
{
"Name": "Nelundeniya",
"PostCode": "71060",
"Latitude": 7.2267,
"Longitude": 80.2728
},
{
"Name": "Niyadurupola",
"PostCode": "71602",
"Latitude": 7.1665,
"Longitude": 80.2189
},
{
"Name": "Noori",
"PostCode": "71407",
"Latitude": 6.9558,
"Longitude": 80.396
},
{
"Name": "Parape",
"PostCode": "71105",
"Latitude": 7.3667,
"Longitude": 80.4167
},
{
"Name": "Pattampitiya",
"PostCode": "71130",
"Latitude": 7.3124,
"Longitude": 80.4339
},
{
"Name": "Pitagaldeniya",
"PostCode": "71360",
"Latitude": 7.1453,
"Longitude": 80.2839
},
{
"Name": "Pothukoladeniya",
"PostCode": "71039",
"Latitude": 7.1822,
"Longitude": 80.3795
},
{
"Name": "Rambukkana",
"PostCode": "71100",
"Latitude": 7.3164,
"Longitude": 80.3906
},
{
"Name": "Ruwanwella",
"PostCode": "71300",
"Latitude": 7.0427,
"Longitude": 80.2517
},
{
"Name": "Seaforth Colony",
"PostCode": "71708",
"Latitude": 7.0663,
"Longitude": 80.4283
},
{
"Name": "Talgaspitiya",
"PostCode": "71541",
"Latitude": 7.1647,
"Longitude": 80.4793
},
{
"Name": "Teligama",
"PostCode": "71724",
"Latitude": 7.0079,
"Longitude": 80.3798
},
{
"Name": "Tholangamuwa",
"PostCode": "71619",
"Latitude": 7.2347,
"Longitude": 80.2239
},
{
"Name": "Thotawella",
"PostCode": "71106",
"Latitude": 7.3563,
"Longitude": 80.3983
},
{
"Name": "Tulhiriya",
"PostCode": "71610",
"Latitude": 7.2699,
"Longitude": 80.2256
},
{
"Name": "Tuntota",
"PostCode": "71062",
"Latitude": 7.4944,
"Longitude": 79.9094
},
{
"Name": "Udagaldeniya",
"PostCode": "71113",
"Latitude": 7.3511,
"Longitude": 80.3511
},
{
"Name": "Udapotha",
"PostCode": "71236",
"Latitude": 7.0821,
"Longitude": 80.3759
},
{
"Name": "Udumulla",
"PostCode": "71521",
"Latitude": 7.454,
"Longitude": 80.3993
},
{
"Name": "Undugoda",
"PostCode": "71200",
"Latitude": 7.1456,
"Longitude": 80.3633
},
{
"Name": "Ussapitiya",
"PostCode": "71510",
"Latitude": 7.2162,
"Longitude": 80.4483
},
{
"Name": "Wahakula",
"PostCode": "71303",
"Latitude": 7.0593,
"Longitude": 80.2084
},
{
"Name": "Waharaka",
"PostCode": "71304",
"Latitude": 7.096,
"Longitude": 80.1878
},
{
"Name": "Warakapola",
"PostCode": "71600",
"Latitude": 7.2226,
"Longitude": 80.1887
},
{
"Name": "Watura",
"PostCode": "71035",
"Latitude": 7.1845,
"Longitude": 80.3794
},
{
"Name": "Weeoya",
"PostCode": "71702",
"Latitude": 7.0549,
"Longitude": 80.3693
},
{
"Name": "Wegalla",
"PostCode": "71234",
"Latitude": 7.0967,
"Longitude": 80.3041
},
{
"Name": "Welihelatenna",
"PostCode": "71712",
"Latitude": 7.0281,
"Longitude": 80.3348
},
{
"Name": "Weragala",
"PostCode": "71622",
"Latitude": 7.138,
"Longitude": 80.2568
},
{
"Name": "Yatagama",
"PostCode": "71116",
"Latitude": 7.3224,
"Longitude": 80.3552
},
{
"Name": "Yatapana",
"PostCode": "71326",
"Latitude": 7.1369,
"Longitude": 80.3068
},
{
"Name": "Yatiyantota",
"PostCode": "71700",
"Latitude": 7.0279,
"Longitude": 80.2946
},
{
"Name": "Yattogoda",
"PostCode": "71029",
"Latitude": 7.2393,
"Longitude": 80.2857
}
]
}
]
},
{
"Name": "Kurunegala",
"Code": "KG",
"Communities": [
{
"Places": [
{
"Name": "Alahengama",
"PostCode": "60416",
"Latitude": 7.6784,
"Longitude": 80.1154
},
{
"Name": "Alahitiyawa",
"PostCode": "60182",
"Latitude": 7.4741,
"Longitude": 80.1709
},
{
"Name": "Alawatuwala",
"PostCode": "60047",
"Latitude": 7.5102,
"Longitude": 80.5211
},
{
"Name": "Alawwa",
"PostCode": "60280",
"Latitude": 7.2971,
"Longitude": 80.2343
},
{
"Name": "Ambakote",
"PostCode": "60036",
"Latitude": 7.492,
"Longitude": 80.4532
},
{
"Name": "Ambanpola",
"PostCode": "60650",
"Latitude": 7.6214,
"Longitude": 80.4958
},
{
"Name": "Anhandiya",
"PostCode": "60074",
"Latitude": 7.262,
"Longitude": 80.2651
},
{
"Name": "Anukkane",
"PostCode": "60214",
"Latitude": 7.5013,
"Longitude": 80.1123
},
{
"Name": "Aragoda",
"PostCode": "60308",
"Latitude": 7.3573,
"Longitude": 80.3425
},
{
"Name": "Ataragalla",
"PostCode": "60706",
"Latitude": 7.9718,
"Longitude": 80.2743
},
{
"Name": "Awulegama",
"PostCode": "60462",
"Latitude": 7.6556,
"Longitude": 80.2223
},
{
"Name": "Balalla",
"PostCode": "60604",
"Latitude": 7.8,
"Longitude": 80.25
},
{
"Name": "Bamunukotuwa",
"PostCode": "60347",
"Latitude": 7.8667,
"Longitude": 80.2167
},
{
"Name": "Bandara Koswatta",
"PostCode": "60424",
"Latitude": 7.6095,
"Longitude": 80.1721
},
{
"Name": "Bingiriya",
"PostCode": "60450",
"Latitude": 7.6004,
"Longitude": 79.9345
},
{
"Name": "Bogamulla",
"PostCode": "60107",
"Latitude": 7.4666,
"Longitude": 80.126
},
{
"Name": "Bopitiya",
"PostCode": "60155",
"Latitude": 7.3191,
"Longitude": 80.0824
},
{
"Name": "Boraluwewa",
"PostCode": "60437",
"Latitude": 7.6833,
"Longitude": 80.05
},
{
"Name": "Boyagane",
"PostCode": "60027",
"Latitude": 7.4501,
"Longitude": 80.3415
},
{
"Name": "Bujjomuwa",
"PostCode": "60291",
"Latitude": 7.4558,
"Longitude": 80.0511
},
{
"Name": "Buluwala",
"PostCode": "60076",
"Latitude": 7.4873,
"Longitude": 80.4676
},
{
"Name": "Dambadeniya",
"PostCode": "60130",
"Latitude": 7.3633,
"Longitude": 80.1653
},
{
"Name": "Daraluwa",
"PostCode": "60174",
"Latitude": 7.3573,
"Longitude": 79.9829
},
{
"Name": "Deegalla",
"PostCode": "60228",
"Latitude": 7.5097,
"Longitude": 80.0346
},
{
"Name": "Delwite",
"PostCode": "60044",
"Latitude": 7.5102,
"Longitude": 80.5211
},
{
"Name": "Demataluwa",
"PostCode": "60024",
"Latitude": 7.5219,
"Longitude": 80.2898
},
{
"Name": "Diddeniya",
"PostCode": "60544",
"Latitude": 7.6729,
"Longitude": 80.4793
},
{
"Name": "Digannewa",
"PostCode": "60485",
"Latitude": 7.8811,
"Longitude": 80.1092
},
{
"Name": "Divullegoda",
"PostCode": "60472",
"Latitude": 7.75,
"Longitude": 80.2
},
{
"Name": "Dodangaslanda",
"PostCode": "60530",
"Latitude": 7.5729,
"Longitude": 80.5377
},
{
"Name": "Doratiyawa",
"PostCode": "60013",
"Latitude": 7.4578,
"Longitude": 80.383
},
{
"Name": "Dummalasuriya",
"PostCode": "60260",
"Latitude": 7.4893,
"Longitude": 79.8925
},
{
"Name": "Ehetuwewa",
"PostCode": "60716",
"Latitude": 7.9334,
"Longitude": 80.34
},
{
"Name": "Elibichchiya",
"PostCode": "60156",
"Latitude": 7.3146,
"Longitude": 80.0516
},
{
"Name": "Embogama",
"PostCode": "60718",
"Latitude": 7.915,
"Longitude": 80.3626
},
{
"Name": "Etungahakotuwa",
"PostCode": "60266",
"Latitude": 7.5209,
"Longitude": 79.9716
},
{
"Name": "Galgamuwa",
"PostCode": "60700",
"Latitude": 7.9965,
"Longitude": 80.2675
},
{
"Name": "Gallewa",
"PostCode": "60712",
"Latitude": 7.9645,
"Longitude": 80.3232
},
{
"Name": "Girathalana",
"PostCode": "60752",
"Latitude": 7.9935,
"Longitude": 80.381
},
{
"Name": "Giriulla",
"PostCode": "60140",
"Latitude": 7.3211,
"Longitude": 80.1235
},
{
"Name": "Gokaralla",
"PostCode": "60522",
"Latitude": 7.6539,
"Longitude": 80.4367
},
{
"Name": "Gonawila",
"PostCode": "60170",
"Latitude": 7.3204,
"Longitude": 79.9974
},
{
"Name": "Halmillawewa",
"PostCode": "60441",
"Latitude": 7.5963,
"Longitude": 80.0034
},
{
"Name": "Hengamuwa",
"PostCode": "60414",
"Latitude": 7.7,
"Longitude": 80.1
},
{
"Name": "Hettipola",
"PostCode": "60430",
"Latitude": 7.6033,
"Longitude": 80.0752
},
{
"Name": "Hilogama",
"PostCode": "60486",
"Latitude": 7.75,
"Longitude": 80.0833
},
{
"Name": "Hindagolla",
"PostCode": "60034",
"Latitude": 7.484,
"Longitude": 80.4118
},
{
"Name": "Hiriyala Lenawa",
"PostCode": "60546",
"Latitude": 7.6668,
"Longitude": 80.4796
},
{
"Name": "Hiruwalpola",
"PostCode": "60458",
"Latitude": 7.6049,
"Longitude": 79.9443
},
{
"Name": "Horambawa",
"PostCode": "60181",
"Latitude": 7.4475,
"Longitude": 80.1819
},
{
"Name": "Hulogedara",
"PostCode": "60474",
"Latitude": 7.7833,
"Longitude": 80.1833
},
{
"Name": "Hulugalla",
"PostCode": "60477",
"Latitude": 7.7825,
"Longitude": 80.1378
},
{
"Name": "Hunupola",
"PostCode": "60582",
"Latitude": 7.6097,
"Longitude": 80.3925
},
{
"Name": "Ihala Gomugomuwa",
"PostCode": "60211",
"Latitude": 7.5135,
"Longitude": 80.0754
},
{
"Name": "Ihala Katugampala",
"PostCode": "60135",
"Latitude": 7.3633,
"Longitude": 80.1653
},
{
"Name": "Indulgodakanda",
"PostCode": "60016",
"Latitude": 7.4253,
"Longitude": 80.4084
},
{
"Name": "Inguruwatta",
"PostCode": "60064",
"Latitude": 7.1783,
"Longitude": 80.6023
},
{
"Name": "Iriyagolla",
"PostCode": "60045",
"Latitude": 7.4731,
"Longitude": 80.5458
},
{
"Name": "Ithanawatta",
"PostCode": "60025",
"Latitude": 7.4478,
"Longitude": 80.3475
},
{
"Name": "Kadigawa",
"PostCode": "60492",
"Latitude": 7.715,
"Longitude": 79.9896
},
{
"Name": "Kahapathwala",
"PostCode": "60062",
"Latitude": 7.2934,
"Longitude": 80.4557
},
{
"Name": "Kalugamuwa",
"PostCode": "60096",
"Latitude": 7.4498,
"Longitude": 80.2614
},
{
"Name": "Kanadeniyawala",
"PostCode": "60054",
"Latitude": 7.4382,
"Longitude": 80.541
},
{
"Name": "Kanattewewa",
"PostCode": "60422",
"Latitude": 7.6167,
"Longitude": 80.2
},
{
"Name": "Karagahagedara",
"PostCode": "60106",
"Latitude": 7.4996,
"Longitude": 80.0548
},
{
"Name": "Karambe",
"PostCode": "60602",
"Latitude": 7.7833,
"Longitude": 80.3333
},
{
"Name": "Katupota",
"PostCode": "60350",
"Latitude": 7.537,
"Longitude": 80.1899
},
{
"Name": "Kekunagolla",
"PostCode": "60183",
"Latitude": 7.4939,
"Longitude": 80.1697
},
{
"Name": "Keppitiwalana",
"PostCode": "60288",
"Latitude": 7.326,
"Longitude": 80.1821
},
{
"Name": "Kimbulwanaoya",
"PostCode": "60548",
"Latitude": 7.6668,
"Longitude": 80.4796
},
{
"Name": "Kirimetiyawa",
"PostCode": "60184",
"Latitude": 7.5104,
"Longitude": 80.136
},
{
"Name": "Kirindawa",
"PostCode": "60212",
"Latitude": 7.4982,
"Longitude": 80.0977
},
{
"Name": "Kirindigalla",
"PostCode": "60502",
"Latitude": 7.5617,
"Longitude": 80.4807
},
{
"Name": "Kithalawa",
"PostCode": "60188",
"Latitude": 7.476,
"Longitude": 80.1589
},
{
"Name": "Kobeigane",
"PostCode": "60410",
"Latitude": 7.6569,
"Longitude": 80.1307
},
{
"Name": "Kohilagedara",
"PostCode": "60028",
"Latitude": 7.4141,
"Longitude": 80.3659
},
{
"Name": "Konwewa",
"PostCode": "60630",
"Latitude": 7.6833,
"Longitude": 80.4167
},
{
"Name": "Kosdeniya",
"PostCode": "60356",
"Latitude": 7.5724,
"Longitude": 80.1397
},
{
"Name": "Kosgolla",
"PostCode": "60029",
"Latitude": 7.4052,
"Longitude": 80.3927
},
{
"Name": "Kotawehera",
"PostCode": "60483",
"Latitude": 7.7911,
"Longitude": 80.1023
},
{
"Name": "Kudagalgamuwa",
"PostCode": "60003",
"Latitude": 7.5351,
"Longitude": 80.3321
},
{
"Name": "Kudakatnoruwa",
"PostCode": "60754",
"Latitude": 7.9935,
"Longitude": 80.381
},
{
"Name": "Kuliyapitiya",
"PostCode": "60200",
"Latitude": 7.4688,
"Longitude": 80.0401
},
{
"Name": "Kumbukgeta",
"PostCode": "60508",
"Latitude": 7.5979,
"Longitude": 80.457
},
{
"Name": "Kumbukwewa",
"PostCode": "60506",
"Latitude": 7.6342,
"Longitude": 80.4333
},
{
"Name": "Kuratihena",
"PostCode": "60438",
"Latitude": 7.6304,
"Longitude": 80.0235
},
{
"Name": "Kurunegala",
"PostCode": "60000",
"Latitude": 7.4863,
"Longitude": 80.3623
},
{
"Name": "Labbala",
"PostCode": "60162",
"Latitude": 7.3423,
"Longitude": 80.079
},
{
"Name": "lbbagamuwa",
"PostCode": "60500",
"Latitude": 7.5979,
"Longitude": 80.457
},
{
"Name": "lhala Kadigamuwa",
"PostCode": "60238",
"Latitude": 7.5477,
"Longitude": 79.9797
},
{
"Name": "llukhena",
"PostCode": "60232",
"Latitude": 7.5477,
"Longitude": 79.9797
},
{
"Name": "Lonahettiya",
"PostCode": "60108",
"Latitude": 7.4666,
"Longitude": 80.126
},
{
"Name": "Madahapola",
"PostCode": "60552",
"Latitude": 7.7061,
"Longitude": 80.4964
},
{
"Name": "Madakumburumulla",
"PostCode": "60209",
"Latitude": 7.442,
"Longitude": 79.993
},
{
"Name": "Maduragoda",
"PostCode": "60532",
"Latitude": 7.5729,
"Longitude": 80.5377
},
{
"Name": "Maeliya",
"PostCode": "60512",
"Latitude": 7.7411,
"Longitude": 80.4169
},
{
"Name": "Magulagama",
"PostCode": "60221",
"Latitude": 7.5413,
"Longitude": 80.0941
},
{
"Name": "Mahagalkadawala",
"PostCode": "60731",
"Latitude": 8.0617,
"Longitude": 80.2936
},
{
"Name": "Mahagirilla",
"PostCode": "60479",
"Latitude": 7.8333,
"Longitude": 80.1333
},
{
"Name": "Mahamukalanyaya",
"PostCode": "60516",
"Latitude": 7.7417,
"Longitude": 80.4318
},
{
"Name": "Mahananneriya",
"PostCode": "60724",
"Latitude": 8.0107,
"Longitude": 80.2979
},
{
"Name": "Maharachchimulla",
"PostCode": "60286",
"Latitude": 7.3434,
"Longitude": 80.2082
},
{
"Name": "Maho",
"PostCode": "60600",
"Latitude": 7.8228,
"Longitude": 80.2778
},
{
"Name": "Makulewa",
"PostCode": "60714",
"Latitude": 8.0987,
"Longitude": 80.3427
},
{
"Name": "Makulpotha",
"PostCode": "60514",
"Latitude": 7.7422,
"Longitude": 80.4467
},
{
"Name": "Makulwewa",
"PostCode": "60578",
"Latitude": 7.6103,
"Longitude": 80.3607
},
{
"Name": "Malagane",
"PostCode": "60404",
"Latitude": 7.6608,
"Longitude": 80.2839
},
{
"Name": "Mandapola",
"PostCode": "60434",
"Latitude": 7.6338,
"Longitude": 80.1061
},
{
"Name": "Maspotha",
"PostCode": "60344",
"Latitude": 7.8667,
"Longitude": 80.2167
},
{
"Name": "Mawathagama",
"PostCode": "60060",
"Latitude": 7.4086,
"Longitude": 80.3091
},
{
"Name": "Medivawa",
"PostCode": "60612",
"Latitude": 7.7498,
"Longitude": 80.3762
},
{
"Name": "Meegalawa",
"PostCode": "60750",
"Latitude": 7.9935,
"Longitude": 80.381
},
{
"Name": "Meetanwala",
"PostCode": "60066",
"Latitude": 7.2934,
"Longitude": 80.4557
},
{
"Name": "Meewellawa",
"PostCode": "60484",
"Latitude": 7.85,
"Longitude": 80.15
},
{
"Name": "Melsiripura",
"PostCode": "60540",
"Latitude": 7.6442,
"Longitude": 80.5095
},
{
"Name": "Metikumbura",
"PostCode": "60304",
"Latitude": 7.359,
"Longitude": 80.3139
},
{
"Name": "Metiyagane",
"PostCode": "60121",
"Latitude": 7.3972,
"Longitude": 80.1745
},
{
"Name": "Minhettiya",
"PostCode": "60004",
"Latitude": 7.584,
"Longitude": 80.3018
},
{
"Name": "Minuwangete",
"PostCode": "60406",
"Latitude": 7.7167,
"Longitude": 80.25
},
{
"Name": "Mirihanagama",
"PostCode": "60408",
"Latitude": 7.6532,
"Longitude": 80.2651
},
{
"Name": "Monnekulama",
"PostCode": "60495",
"Latitude": 7.8333,
"Longitude": 80.0667
},
{
"Name": "Moragane",
"PostCode": "60354",
"Latitude": 7.5501,
"Longitude": 80.1406
},
{
"Name": "Moragollagama",
"PostCode": "60640",
"Latitude": 7.75,
"Longitude": 80.3
},
{
"Name": "Morathiha",
"PostCode": "60038",
"Latitude": 7.5073,
"Longitude": 80.4875
},
{
"Name": "Munamaldeniya",
"PostCode": "60218",
"Latitude": 7.5469,
"Longitude": 80.0652
},
{
"Name": "Muruthenge",
"PostCode": "60122",
"Latitude": 7.3972,
"Longitude": 80.1745
},
{
"Name": "Nabadewa",
"PostCode": "60482",
"Latitude": 7.6833,
"Longitude": 80.0667
},
{
"Name": "Nagollagama",
"PostCode": "60590",
"Latitude": 7.7667,
"Longitude": 80.3
},
{
"Name": "Nagollagoda",
"PostCode": "60226",
"Latitude": 7.5255,
"Longitude": 80.0643
},
{
"Name": "Nakkawatta",
"PostCode": "60186",
"Latitude": 7.4541,
"Longitude": 80.1358
},
{
"Name": "Narammala",
"PostCode": "60100",
"Latitude": 7.4337,
"Longitude": 80.1971
},
{
"Name": "Narangoda",
"PostCode": "60152",
"Latitude": 7.3753,
"Longitude": 80.0813
},
{
"Name": "Nawatalwatta",
"PostCode": "60292",
"Latitude": 7.4558,
"Longitude": 80.0511
},
{
"Name": "Nelliya",
"PostCode": "60549",
"Latitude": 7.6833,
"Longitude": 80.45
},
{
"Name": "Nikadalupotha",
"PostCode": "60580",
"Latitude": 7.6097,
"Longitude": 80.3925
},
{
"Name": "Nikaweratiya",
"PostCode": "60470",
"Latitude": 7.7503,
"Longitude": 80.1159
},
{
"Name": "Padeniya",
"PostCode": "60461",
"Latitude": 7.6556,
"Longitude": 80.2223
},
{
"Name": "Padiwela",
"PostCode": "60236",
"Latitude": 7.5477,
"Longitude": 79.9797
},
{
"Name": "Pahalagiribawa",
"PostCode": "60735",
"Latitude": 8.0862,
"Longitude": 80.2271
},
{
"Name": "Pahamune",
"PostCode": "60112",
"Latitude": 7.4774,
"Longitude": 80.1961
},
{
"Name": "Palukadawala",
"PostCode": "60704",
"Latitude": 7.947,
"Longitude": 80.2811
},
{
"Name": "Panadaragama",
"PostCode": "60348",
"Latitude": 7.8667,
"Longitude": 80.2167
},
{
"Name": "Panagamuwa",
"PostCode": "60052",
"Latitude": 7.5551,
"Longitude": 80.4577
},
{
"Name": "Panaliya",
"PostCode": "60312",
"Latitude": 7.3391,
"Longitude": 80.335
},
{
"Name": "Panliyadda",
"PostCode": "60558",
"Latitude": 7.7061,
"Longitude": 80.4964
},
{
"Name": "Pannala",
"PostCode": "60160",
"Latitude": 7.333,
"Longitude": 80.0329
},
{
"Name": "Pansiyagama",
"PostCode": "60554",
"Latitude": 7.7061,
"Longitude": 80.4964
},
{
"Name": "Periyakadneluwa",
"PostCode": "60518",
"Latitude": 7.7417,
"Longitude": 80.4318
},
{
"Name": "Pihimbiya Ratmale",
"PostCode": "60439",
"Latitude": 7.6377,
"Longitude": 80.0637
},
{
"Name": "Pihimbuwa",
"PostCode": "60053",
"Latitude": 7.4607,
"Longitude": 80.5171
},
{
"Name": "Pilessa",
"PostCode": "60058",
"Latitude": 7.4546,
"Longitude": 80.4141
},
{
"Name": "Polgahawela",
"PostCode": "60300",
"Latitude": 7.3381,
"Longitude": 80.300299999999993
},
{
"Name": "Polpitigama",
"PostCode": "60620",
"Latitude": 7.8142,
"Longitude": 80.4042
},
{
"Name": "Pothuhera",
"PostCode": "60330",
"Latitude": 7.4214,
"Longitude": 80.3303
},
{
"Name": "Puswelitenna",
"PostCode": "60072",
"Latitude": 7.3746,
"Longitude": 80.3664
},
{
"Name": "Ridibendiella",
"PostCode": "60606",
"Latitude": 7.802,
"Longitude": 80.287
},
{
"Name": "Ridigama",
"PostCode": "60040",
"Latitude": 7.5473,
"Longitude": 80.4963
},
{
"Name": "Saliya Asokapura",
"PostCode": "60736",
"Latitude": 8.0862,
"Longitude": 80.2271
},
{
"Name": "Sandalankawa",
"PostCode": "60176",
"Latitude": 7.3389,
"Longitude": 79.9901
},
{
"Name": "Sirisetagama",
"PostCode": "60478",
"Latitude": 7.7777,
"Longitude": 80.1506
},
{
"Name": "Siyambalangamuwa",
"PostCode": "60646",
"Latitude": 7.6734,
"Longitude": 80.4748
},
{
"Name": "Solepura",
"PostCode": "60737",
"Latitude": 8.0862,
"Longitude": 80.2271
},
{
"Name": "Solewewa",
"PostCode": "60738",
"Latitude": 8.0862,
"Longitude": 80.2271
},
{
"Name": "Sunandapura",
"PostCode": "60436",
"Latitude": 7.6377,
"Longitude": 80.0637
},
{
"Name": "Talawattegedara",
"PostCode": "60306",
"Latitude": 7.3816,
"Longitude": 80.2989
},
{
"Name": "Tambutta",
"PostCode": "60734",
"Latitude": 8.0806,
"Longitude": 80.2311
},
{
"Name": "Thalahitimulla",
"PostCode": "60208",
"Latitude": 7.428,
"Longitude": 80.0194
},
{
"Name": "Thalakolawewa",
"PostCode": "60624",
"Latitude": 7.8,
"Longitude": 80.4333
},
{
"Name": "Thalwita",
"PostCode": "60572",
"Latitude": 7.583,
"Longitude": 80.3667
},
{
"Name": "Thambagalla",
"PostCode": "60584",
"Latitude": 7.6097,
"Longitude": 80.3925
},
{
"Name": "Tharana Udawela",
"PostCode": "60227",
"Latitude": 7.5255,
"Longitude": 80.0643
},
{
"Name": "Thimbiriyawa",
"PostCode": "60476",
"Latitude": 7.7667,
"Longitude": 80.1333
},
{
"Name": "Tisogama",
"PostCode": "60453",
"Latitude": 7.6049,
"Longitude": 79.9443
},
{
"Name": "Torayaya",
"PostCode": "60499",
"Latitude": 7.5069,
"Longitude": 80.4061
},
{
"Name": "Tuttiripitigama",
"PostCode": "60426",
"Latitude": 7.6023,
"Longitude": 80.1442
},
{
"Name": "Udubaddawa",
"PostCode": "60250",
"Latitude": 7.4759,
"Longitude": 79.9655
},
{
"Name": "Uhumiya",
"PostCode": "60094",
"Latitude": 7.463,
"Longitude": 80.2924
},
{
"Name": "Ulpotha Pallekele",
"PostCode": "60622",
"Latitude": 7.8071,
"Longitude": 80.4188
},
{
"Name": "Usgala Siyabmalangamuwa",
"PostCode": "60732",
"Latitude": 8.0862,
"Longitude": 80.2271
},
{
"Name": "Wadakada",
"PostCode": "60318",
"Latitude": 7.399,
"Longitude": 80.2641
},
{
"Name": "Wadumunnegedara",
"PostCode": "60204",
"Latitude": 7.4073,
"Longitude": 79.9731
},
{
"Name": "Walakumburumulla",
"PostCode": "60198",
"Latitude": 7.4217,
"Longitude": 80.0119
},
{
"Name": "Wannigama",
"PostCode": "60465",
"Latitude": 7.6556,
"Longitude": 80.2223
},
{
"Name": "Wannikudawewa",
"PostCode": "60721",
"Latitude": 8.0107,
"Longitude": 80.2979
},
{
"Name": "Wannilhalagama",
"PostCode": "60722",
"Latitude": 8.0107,
"Longitude": 80.2979
},
{
"Name": "Wannirasnayakapura",
"PostCode": "60490",
"Latitude": 7.6851,
"Longitude": 80.1541
},
{
"Name": "Warawewa",
"PostCode": "60739",
"Latitude": 8.1162,
"Longitude": 80.1565
},
{
"Name": "Wariyapola",
"PostCode": "60400",
"Latitude": 7.6177,
"Longitude": 80.245
},
{
"Name": "Watuwatta",
"PostCode": "60262",
"Latitude": 7.5241,
"Longitude": 79.9193
},
{
"Name": "Weerapokuna",
"PostCode": "60454",
"Latitude": 7.6476,
"Longitude": 79.9904
},
{
"Name": "Welawa Juncton",
"PostCode": "60464",
"Latitude": 7.6556,
"Longitude": 80.2223
},
{
"Name": "Welipennagahamulla",
"PostCode": "60240",
"Latitude": 7.4328,
"Longitude": 79.9253
},
{
"Name": "Wellagala",
"PostCode": "60402",
"Latitude": 7.6176,
"Longitude": 80.2815
},
{
"Name": "Wellarawa",
"PostCode": "60456",
"Latitude": 7.5666,
"Longitude": 79.908
},
{
"Name": "Wellawa",
"PostCode": "60570",
"Latitude": 7.5556,
"Longitude": 80.3728
},
{
"Name": "Welpalla",
"PostCode": "60206",
"Latitude": 7.4374,
"Longitude": 80.0554
},
{
"Name": "Wennoruwa",
"PostCode": "60284",
"Latitude": 7.3646,
"Longitude": 80.2183
},
{
"Name": "Weuda",
"PostCode": "60080",
"Latitude": 7.4104,
"Longitude": 80.4814
},
{
"Name": "Wewagama",
"PostCode": "60195",
"Latitude": 7.4167,
"Longitude": 80.1
},
{
"Name": "Yakwila",
"PostCode": "60202",
"Latitude": 7.3843,
"Longitude": 80.0355
},
{
"Name": "Yatigaloluwa",
"PostCode": "60314",
"Latitude": 7.3315,
"Longitude": 80.2633
}
]
}
]
},
{
"Name": "Kalutara",
"Code": "KT",
"Communities": [
{
"Places": [
{
"Name": "Agalawatta",
"PostCode": "12200",
"Latitude": 6.5422,
"Longitude": 80.1583
},
{
"Name": "Alubomulla",
"PostCode": "12524",
"Latitude": 6.7085,
"Longitude": 79.9489
},
{
"Name": "Alutgama",
"PostCode": "12080",
"Latitude": 6.4394,
"Longitude": 79.9895
},
{
"Name": "Anguruwatota",
"PostCode": "12320",
"Latitude": 6.6383,
"Longitude": 80.0861
},
{
"Name": "Baduraliya",
"PostCode": "12230",
"Latitude": 6.5084,
"Longitude": 80.2329
},
{
"Name": "Bandaragama",
"PostCode": "12530",
"Latitude": 6.7144,
"Longitude": 79.988
},
{
"Name": "Bellana",
"PostCode": "12224",
"Latitude": 6.5237,
"Longitude": 80.1765
},
{
"Name": "Beruwala",
"PostCode": "12070",
"Latitude": 6.4788,
"Longitude": 79.9828
},
{
"Name": "Bolossagama",
"PostCode": "12008",
"Latitude": 6.6053,
"Longitude": 79.9971
},
{
"Name": "Bombuwala",
"PostCode": "12024",
"Latitude": 6.5721,
"Longitude": 80.0096
},
{
"Name": "Boralugoda",
"PostCode": "12142",
"Latitude": 6.4336,
"Longitude": 80.2842
},
{
"Name": "Bulathsinhala",
"PostCode": "12300",
"Latitude": 6.6744,
"Longitude": 80.1934
},
{
"Name": "Danawala Thiniyawala",
"PostCode": "12148",
"Latitude": 6.4336,
"Longitude": 80.2842
},
{
"Name": "Delmella",
"PostCode": "12304",
"Latitude": 6.6881,
"Longitude": 80.2057
},
{
"Name": "Dharga Town",
"PostCode": "12090",
"Latitude": 6.424,
"Longitude": 80.0631
},
{
"Name": "Diwalakada",
"PostCode": "12308",
"Latitude": 6.6994,
"Longitude": 80.1521
},
{
"Name": "Dodangoda",
"PostCode": "12020",
"Latitude": 6.5531,
"Longitude": 80.0223
},
{
"Name": "Dombagoda",
"PostCode": "12416",
"Latitude": 6.6476,
"Longitude": 80.0471
},
{
"Name": "Galpatha",
"PostCode": "12005",
"Latitude": 6.6053,
"Longitude": 79.9971
},
{
"Name": "Gamagoda",
"PostCode": "12016",
"Latitude": 6.5909,
"Longitude": 80.0083
},
{
"Name": "Gonapola Junction",
"PostCode": "12410",
"Latitude": 6.6927,
"Longitude": 80.0326
},
{
"Name": "Govinna",
"PostCode": "12310",
"Latitude": 6.6743,
"Longitude": 80.1159
},
{
"Name": "Gurulubadda",
"PostCode": "12236",
"Latitude": 6.5218,
"Longitude": 80.248
},
{
"Name": "Halkandawila",
"PostCode": "12055",
"Latitude": 6.5075,
"Longitude": 80.0276
},
{
"Name": "Haltota",
"PostCode": "12538",
"Latitude": 6.7,
"Longitude": 80.0333
},
{
"Name": "Halwala",
"PostCode": "12118",
"Latitude": 6.4137,
"Longitude": 80.1097
},
{
"Name": "Halwatura",
"PostCode": "12306",
"Latitude": 6.6992,
"Longitude": 80.1914
},
{
"Name": "Hedigalla Colony",
"PostCode": "12234",
"Latitude": 6.5218,
"Longitude": 80.248
},
{
"Name": "Horana",
"PostCode": "12400",
"Latitude": 6.7159,
"Longitude": 80.0626
},
{
"Name": "Ittapana",
"PostCode": "12116",
"Latitude": 6.4217,
"Longitude": 80.0884
},
{
"Name": "Kalawila Kiranthidiya",
"PostCode": "12078",
"Latitude": 6.4657,
"Longitude": 79.9962
},
{
"Name": "Kalutara",
"PostCode": "12000",
"Latitude": 6.5831,
"Longitude": 79.9593
},
{
"Name": "Kananwila",
"PostCode": "12418",
"Latitude": 6.762,
"Longitude": 80.0589
},
{
"Name": "Kandanagama",
"PostCode": "12428",
"Latitude": 6.7648,
"Longitude": 80.0777
},
{
"Name": "Kehelwatta",
"PostCode": "12550",
"Latitude": 6.7517,
"Longitude": 79.9075
},
{
"Name": "Kelinkanda",
"PostCode": "12218",
"Latitude": 6.5777,
"Longitude": 80.2969
},
{
"Name": "Kitulgoda",
"PostCode": "12222",
"Latitude": 6.4996,
"Longitude": 80.1807
},
{
"Name": "Koholana",
"PostCode": "12007",
"Latitude": 6.6189,
"Longitude": 80.0219
},
{
"Name": "Kuda Uduwa",
"PostCode": "12426",
"Latitude": 6.7662,
"Longitude": 80.0784
},
{
"Name": "lngiriya",
"PostCode": "12440",
"Latitude": 6.728,
"Longitude": 80.0609
},
{
"Name": "Maggona",
"PostCode": "12060",
"Latitude": 6.5041,
"Longitude": 79.9811
},
{
"Name": "Mahagama",
"PostCode": "12210",
"Latitude": 6.6167,
"Longitude": 80.1667
},
{
"Name": "Mahakalupahana",
"PostCode": "12126",
"Latitude": 6.3949,
"Longitude": 80.1429
},
{
"Name": "Matugama",
"PostCode": "12100",
"Latitude": 6.5204,
"Longitude": 80.112799999999993
},
{
"Name": "Meegahatenna",
"PostCode": "12130",
"Latitude": 6.4394,
"Longitude": 80.1971
},
{
"Name": "Meegama",
"PostCode": "12094",
"Latitude": 6.424,
"Longitude": 80.0631
},
{
"Name": "Millaniya",
"PostCode": "12412",
"Latitude": 6.6927,
"Longitude": 80.0326
},
{
"Name": "Millewa",
"PostCode": "12422",
"Latitude": 6.7834,
"Longitude": 80.0625
},
{
"Name": "Miwanapalana",
"PostCode": "12424",
"Latitude": 6.7448,
"Longitude": 80.0922
},
{
"Name": "Molkawa",
"PostCode": "12216",
"Latitude": 6.609,
"Longitude": 80.233
},
{
"Name": "Morapitiya",
"PostCode": "12232",
"Latitude": 6.5352,
"Longitude": 80.263
},
{
"Name": "Morontuduwa",
"PostCode": "12564",
"Latitude": 6.6594,
"Longitude": 79.9726
},
{
"Name": "Nawattuduwa",
"PostCode": "12106",
"Latitude": 6.5042,
"Longitude": 80.0934
},
{
"Name": "Neboda",
"PostCode": "12030",
"Latitude": 6.5891,
"Longitude": 80.084
},
{
"Name": "Padagoda",
"PostCode": "12074",
"Latitude": 6.4526,
"Longitude": 80.0096
},
{
"Name": "Pahalahewessa",
"PostCode": "12144",
"Latitude": 6.4336,
"Longitude": 80.2842
},
{
"Name": "Paiyagala",
"PostCode": "12050",
"Latitude": 6.5075,
"Longitude": 80.0276
},
{
"Name": "Panadura",
"PostCode": "12500",
"Latitude": 6.7132,
"Longitude": 79.9026
},
{
"Name": "Pannila",
"PostCode": "12114",
"Latitude": 6.4399,
"Longitude": 80.1029
},
{
"Name": "Paragastota",
"PostCode": "12414",
"Latitude": 6.6685,
"Longitude": 79.9919
},
{
"Name": "Paragoda",
"PostCode": "12302",
"Latitude": 6.6109,
"Longitude": 80.2243
},
{
"Name": "Paraigama",
"PostCode": "12122",
"Latitude": 6.4052,
"Longitude": 80.1253
},
{
"Name": "Pelanda",
"PostCode": "12214",
"Latitude": 6.6011,
"Longitude": 80.2322
},
{
"Name": "Pelawatta",
"PostCode": "12138",
"Latitude": 6.4089,
"Longitude": 80.2166
},
{
"Name": "Pokunuwita",
"PostCode": "12404",
"Latitude": 6.7266,
"Longitude": 80.0369
},
{
"Name": "Polgampola",
"PostCode": "12136",
"Latitude": 6.4681,
"Longitude": 80.1924
},
{
"Name": "Poruwedanda",
"PostCode": "12432",
"Latitude": 6.7373,
"Longitude": 80.1178
},
{
"Name": "Remunagoda",
"PostCode": "12009",
"Latitude": 6.6138,
"Longitude": 80.01
},
{
"Name": "Tebuwana",
"PostCode": "12025",
"Latitude": 6.5829,
"Longitude": 80.0466
},
{
"Name": "Uduwara",
"PostCode": "12322",
"Latitude": 6.6167,
"Longitude": 80.0667
},
{
"Name": "Utumgama",
"PostCode": "12127",
"Latitude": 6.3949,
"Longitude": 80.1429
},
{
"Name": "Veyangalla",
"PostCode": "12204",
"Latitude": 6.5422,
"Longitude": 80.1583
},
{
"Name": "Wadduwa",
"PostCode": "12560",
"Latitude": 6.6686,
"Longitude": 79.9253
},
{
"Name": "Walagedara",
"PostCode": "12112",
"Latitude": 6.4485,
"Longitude": 80.078
},
{
"Name": "Walallawita",
"PostCode": "12134",
"Latitude": 6.3615,
"Longitude": 80.1931
},
{
"Name": "Waskaduwa",
"PostCode": "12580",
"Latitude": 6.6355,
"Longitude": 79.9472
},
{
"Name": "Welipenna",
"PostCode": "12108",
"Latitude": 6.465,
"Longitude": 80.1043
},
{
"Name": "Welmilla Junction",
"PostCode": "12534",
"Latitude": 6.7072,
"Longitude": 80.0107
},
{
"Name": "Yagirala",
"PostCode": "12124",
"Latitude": 6.3846,
"Longitude": 80.1605
},
{
"Name": "Yatadolawatta",
"PostCode": "12104",
"Latitude": 6.5273,
"Longitude": 80.0631
},
{
"Name": "Yatawara Junction",
"PostCode": "12006",
"Latitude": 6.6053,
"Longitude": 79.9971
}
]
}
]
},
{
"Name": "Kandy",
"Code": "KY",
"Communities": [
{
"Places": [
{
"Name": "Akurana",
"PostCode": "20850",
"Latitude": 7.3667,
"Longitude": 80.6167
},
{
"Name": "Alawatugoda",
"PostCode": "20140",
"Latitude": 7.4042,
"Longitude": 80.6087
},
{
"Name": "Aludeniya",
"PostCode": "20062",
"Latitude": 7.3686,
"Longitude": 80.4672
},
{
"Name": "Ambagahapelessa",
"PostCode": "20986",
"Latitude": 7.2197,
"Longitude": 80.9958
},
{
"Name": "Ambatenna",
"PostCode": "20136",
"Latitude": 7.3501,
"Longitude": 80.6211
},
{
"Name": "Ampitiya",
"PostCode": "20160",
"Latitude": 7.2715,
"Longitude": 80.656
},
{
"Name": "Ankumbura",
"PostCode": "20150",
"Latitude": 7.4333,
"Longitude": 80.5667
},
{
"Name": "Atabage",
"PostCode": "20574",
"Latitude": 7.1354,
"Longitude": 80.6091
},
{
"Name": "Balana",
"PostCode": "20308",
"Latitude": 7.2706,
"Longitude": 80.4832
},
{
"Name": "Bambaragahaela",
"PostCode": "20644",
"Latitude": 7.0447,
"Longitude": 80.5235
},
{
"Name": "Barawardhana Oya",
"PostCode": "20967",
"Latitude": 7.2879,
"Longitude": 80.9616
},
{
"Name": "Batagolladeniya",
"PostCode": "20154",
"Latitude": 7.4173,
"Longitude": 80.5617
},
{
"Name": "Batugoda",
"PostCode": "20132",
"Latitude": 7.362,
"Longitude": 80.5891
},
{
"Name": "Batumulla",
"PostCode": "20966",
"Latitude": 7.4167,
"Longitude": 80.9333
},
{
"Name": "Bawlana",
"PostCode": "20218",
"Latitude": 7.2278,
"Longitude": 80.7174
},
{
"Name": "Bopana",
"PostCode": "20932",
"Latitude": 7.3,
"Longitude": 80.9
},
{
"Name": "Danture",
"PostCode": "20465",
"Latitude": 7.2825,
"Longitude": 80.5352
},
{
"Name": "Dedunupitiya",
"PostCode": "20068",
"Latitude": 7.3353,
"Longitude": 80.4313
},
{
"Name": "Dekinda",
"PostCode": "20658",
"Latitude": 7.0167,
"Longitude": 80.5167
},