[
{
"Name": "Mun.Chisinau",
"Provinces": [
{
"Communities": [
{
"Places": [
{
"Name": "Bacioi",
"PostCode": "MD-6812",
"Latitude": 46.9122,
"Longitude": 28.8839
},
{
"Name": "Bic",
"PostCode": "MD-2081",
"Latitude": 46.9567,
"Longitude": 28.9422
},
{
"Name": "Braila",
"PostCode": "MD-6812",
"Latitude": 46.9156,
"Longitude": 28.8425
},
{
"Name": "Bubuieci",
"PostCode": "MD-2081",
"Latitude": 46.985,
"Longitude": 28.9422
},
{
"Name": "Budesti",
"PostCode": "MD-4814",
"Latitude": 47.0653,
"Longitude": 29.0067
},
{
"Name": "Bumbrava",
"PostCode": "MD-2071",
"Latitude": 47.0443,
"Longitude": 28.7651
},
{
"Name": "Buneti",
"PostCode": "MD-2092",
"Latitude": 47.0806,
"Longitude": 28.91
},
{
"Name": "Ceroborta",
"PostCode": "MD-2085",
"Latitude": 47.0936,
"Longitude": 28.9517
},
{
"Name": "Cheltuitori",
"PostCode": "MD-2092",
"Latitude": 47.0661,
"Longitude": 28.9211
},
{
"Name": "Chisinau",
"PostCode": "MD-2000",
"Latitude": 47.0056,
"Longitude": 28.8575
},
{
"Name": "Ciorescu",
"PostCode": "MD-2089",
"Latitude": 47.1294,
"Longitude": 28.8856
},
{
"Name": "Codru",
"PostCode": "MD-2011",
"Latitude": 46.9753,
"Longitude": 28.8194
},
{
"Name": "Colonita",
"PostCode": "MD-2082",
"Latitude": 47.0378,
"Longitude": 28.9583
},
{
"Name": "Condrita",
"PostCode": "MD-2083",
"Latitude": 47.0567,
"Longitude": 28.5686
},
{
"Name": "Cricova",
"PostCode": "MD-2084",
"Latitude": 47.1389,
"Longitude": 28.8619
},
{
"Name": "Cruzesti",
"PostCode": "MD-2085",
"Latitude": 47.0847,
"Longitude": 28.9736
},
{
"Name": "Dobrogea",
"PostCode": "MD-2086",
"Latitude": 46.8844,
"Longitude": 28.9892
},
{
"Name": "Durlesti",
"PostCode": "MD-2003",
"Latitude": 47.0178,
"Longitude": 28.7625
},
{
"Name": "Fauresti",
"PostCode": "MD-2089",
"Latitude": 47.145,
"Longitude": 28.8961
},
{
"Name": "Frumusica",
"PostCode": "MD-6812",
"Latitude": 46.9008,
"Longitude": 28.8917
},
{
"Name": "Ghidighici",
"PostCode": "MD-2088",
"Latitude": 47.0931,
"Longitude": 28.7686
},
{
"Name": "Goian",
"PostCode": "MD-2089",
"Latitude": 47.1336,
"Longitude": 28.9072
},
{
"Name": "Goianul Nou",
"PostCode": "MD-4823",
"Latitude": 47.1175,
"Longitude": 28.9008
},
{
"Name": "Gratiesti",
"PostCode": "MD-2093",
"Latitude": 47.0992,
"Longitude": 28.8167
},
{
"Name": "Hulboaca",
"PostCode": "MD-2093",
"Latitude": 47.1161,
"Longitude": 28.7972
},
{
"Name": "Humulesti",
"PostCode": "MD-2081",
"Latitude": 46.9975,
"Longitude": 28.9764
},
{
"Name": "Revaca",
"PostCode": "MD-2091",
"Latitude": 46.9086,
"Longitude": 28.9447
},
{
"Name": "Singera",
"PostCode": "MD-2091",
"Latitude": 46.9131,
"Longitude": 28.9775
},
{
"Name": "Stauceni",
"PostCode": "MD-4839",
"Latitude": 47.0875,
"Longitude": 28.8703
},
{
"Name": "Straisteni",
"PostCode": "MD-6812",
"Latitude": 46.9061,
"Longitude": 28.86
},
{
"Name": "Tohatin",
"PostCode": "MD-2092",
"Latitude": 47.0625,
"Longitude": 28.9453
},
{
"Name": "Truseni",
"PostCode": "MD-3733",
"Latitude": 47.0689,
"Longitude": 28.6797
},
{
"Name": "Vadul Lui Voda",
"PostCode": "MD-2046",
"Latitude": 47.0917,
"Longitude": 29.0756
},
{
"Name": "Vaduleni",
"PostCode": "MD-4814",
"Latitude": 47.0703,
"Longitude": 29.0836
},
{
"Name": "Vatra",
"PostCode": "MD-2055",
"Latitude": 47.0739,
"Longitude": 28.735
}
]
}
]
}
]
},
{
"Name": "Soroca",
"Provinces": [
{
"Communities": [
{
"Places": [
{
"Name": "Alexandru Cel Bun",
"PostCode": "MD-3050",
"Latitude": 48.0969,
"Longitude": 28.3406
},
{
"Name": "Badiceni",
"PostCode": "MD-3011",
"Latitude": 48.2033,
"Longitude": 28.0544
},
{
"Name": "Balinti",
"PostCode": "MD-3013",
"Latitude": 48.3206,
"Longitude": 28.0236
},
{
"Name": "Balintii Noi",
"PostCode": "MD-3013",
"Latitude": 48.3206,
"Longitude": 28.0236
},
{
"Name": "Baxani",
"PostCode": "MD-3012",
"Latitude": 48.1239,
"Longitude": 28.0947
},
{
"Name": "Bulboci",
"PostCode": "MD-3014",
"Latitude": 48.0397,
"Longitude": 28.0839
},
{
"Name": "Bulbocii Noi",
"PostCode": "MD-3014",
"Latitude": 48.0603,
"Longitude": 28.1186
},
{
"Name": "Cainarii Vechi",
"PostCode": "MD-3015",
"Latitude": 48.0081,
"Longitude": 28.125
},
{
"Name": "Cerlina",
"PostCode": "MD-6641",
"Latitude": 48.0814,
"Longitude": 28.6075
},
{
"Name": "Cosauti",
"PostCode": "MD-3016",
"Latitude": 48.2289,
"Longitude": 28.2911
},
{
"Name": "Cremenciug",
"PostCode": "MD-3052",
"Latitude": 48.2769,
"Longitude": 28.0853
},
{
"Name": "Curesnita",
"PostCode": "MD-3017",
"Latitude": 48.2278,
"Longitude": 28.1764
},
{
"Name": "Curesnita Noua",
"PostCode": "MD-3043",
"Latitude": 48.181399999999996,
"Longitude": 28.1225
},
{
"Name": "Darcauti",
"PostCode": "MD-3018",
"Latitude": 48.2278,
"Longitude": 27.9808
},
{
"Name": "Darcautii Noi",
"PostCode": "MD-3018",
"Latitude": 48.2097,
"Longitude": 28.0019
},
{
"Name": "Decebal",
"PostCode": "MD-5138",
"Latitude": 48.2969,
"Longitude": 27.9761
},
{
"Name": "Dubna",
"PostCode": "MD-3019",
"Latitude": 48.015,
"Longitude": 28.3153
},
{
"Name": "Dumbraveni",
"PostCode": "MD-3020",
"Latitude": 48.0506,
"Longitude": 28.2281
},
{
"Name": "Egoreni",
"PostCode": "MD-3021",
"Latitude": 48.2016,
"Longitude": 28.3595
},
{
"Name": "Floriceni",
"PostCode": "MD-3015",
"Latitude": 48.0208,
"Longitude": 28.0164
},
{
"Name": "Grigorauca",
"PostCode": "MD-3022",
"Latitude": 48.2078,
"Longitude": 28.0997
},
{
"Name": "Holosnita",
"PostCode": "MD-3023",
"Latitude": 48.2475,
"Longitude": 28.1769
},
{
"Name": "Hristici",
"PostCode": "MD-3024",
"Latitude": 48.1208,
"Longitude": 28.1839
},
{
"Name": "Iarova",
"PostCode": "MD-3025",
"Latitude": 48.3197,
"Longitude": 28.0494
},
{
"Name": "Inundeni",
"PostCode": "MD-3035",
"Latitude": 48.1247,
"Longitude": 28.3583
},
{
"Name": "Iorjnita",
"PostCode": "MD-3026",
"Latitude": 48.1933,
"Longitude": 28.2178
},
{
"Name": "Livezi",
"PostCode": "MD-3039",
"Latitude": 48.2358,
"Longitude": 28.0494
},
{
"Name": "Lugovoe",
"PostCode": "MD-3033",
"Latitude": 48.0703,
"Longitude": 28.1783
},
{
"Name": "Malcauti",
"PostCode": "MD-3018",
"Latitude": 48.2139,
"Longitude": 27.9408
},
{
"Name": "Nimereuca",
"PostCode": "MD-6647",
"Latitude": 48.1139,
"Longitude": 28.5356
},
{
"Name": "Niorcani",
"PostCode": "MD-5128",
"Latitude": 48.3072,
"Longitude": 27.9083
},
{
"Name": "Oclanda",
"PostCode": "MD-3027",
"Latitude": 48.2892,
"Longitude": 28.0603
},
{
"Name": "Ocolina",
"PostCode": "MD-3028",
"Latitude": 48.1256,
"Longitude": 28.2631
},
{
"Name": "Parcani",
"PostCode": "MD-3029",
"Latitude": 48.0619,
"Longitude": 28.2903
},
{
"Name": "Pirlita",
"PostCode": "MD-3030",
"Latitude": 48.0758,
"Longitude": 28.21
},
{
"Name": "Racovat",
"PostCode": "MD-3031",
"Latitude": 48.0825,
"Longitude": 28.4061
},
{
"Name": "Redi-Ceresnovat",
"PostCode": "MD-3032",
"Latitude": 48.0633,
"Longitude": 28.3175
},
{
"Name": "Regina Maria",
"PostCode": "MD-3033",
"Latitude": 48.0586,
"Longitude": 28.1408
},
{
"Name": "Rublenita",
"PostCode": "MD-3034",
"Latitude": 48.1683,
"Longitude": 28.2144
},
{
"Name": "Rublenita Noua",
"PostCode": "MD-3034",
"Latitude": 48.1536,
"Longitude": 28.1347
},
{
"Name": "Rudi",
"PostCode": "MD-5133",
"Latitude": 48.3344,
"Longitude": 27.8953
},
{
"Name": "Ruslanovca",
"PostCode": "MD-3035",
"Latitude": 48.1172,
"Longitude": 28.3725
},
{
"Name": "Schineni",
"PostCode": "MD-3036",
"Latitude": 48.0944,
"Longitude": 28.0958
},
{
"Name": "Schinenii Noi",
"PostCode": "MD-3036",
"Latitude": 48.0717,
"Longitude": 28.105
},
{
"Name": "Septelici",
"PostCode": "MD-3042",
"Latitude": 48.1997,
"Longitude": 28.1581
},
{
"Name": "Slobozia-Cremene",
"PostCode": "MD-3037",
"Latitude": 48.0406,
"Longitude": 28.4231
},
{
"Name": "Slobozia-Noua",
"PostCode": "MD-5135",
"Latitude": 48.2589,
"Longitude": 27.98
},
{
"Name": "Slobozia-Varancau",
"PostCode": "MD-3038",
"Latitude": 48.0664,
"Longitude": 28.4658
},
{
"Name": "Sobari",
"PostCode": "MD-3039",
"Latitude": 48.2319,
"Longitude": 28.0669
},
{
"Name": "Solcani",
"PostCode": "MD-3043",
"Latitude": 48.1733,
"Longitude": 28.1106
},
{
"Name": "Solonet",
"PostCode": "MD-3040",
"Latitude": 47.9958,
"Longitude": 28.4028
},
{
"Name": "Soroca 4",
"PostCode": "MD-3004",
"Latitude": 48.1558,
"Longitude": 28.2975
},
{
"Name": "Soroca 5",
"PostCode": "MD-3005",
"Latitude": 48.1558,
"Longitude": 28.2975
},
{
"Name": "Soroca 6",
"PostCode": "MD-3006",
"Latitude": 48.1558,
"Longitude": 28.2975
},
{
"Name": "Stoicani",
"PostCode": "MD-3041",
"Latitude": 48.0267,
"Longitude": 28.3639
},
{
"Name": "Tatarauca Noua",
"PostCode": "MD-5137",
"Latitude": 48.3164,
"Longitude": 27.9739
},
{
"Name": "Tatarauca Veche",
"PostCode": "MD-5138",
"Latitude": 48.2969,
"Longitude": 27.9761
},
{
"Name": "Tepilova",
"PostCode": "MD-3045",
"Latitude": 48.1253,
"Longitude": 28.2328
},
{
"Name": "Tolocanesti",
"PostCode": "MD-5128",
"Latitude": 48.3072,
"Longitude": 27.9083
},
{
"Name": "Trifauti",
"PostCode": "MD-3044",
"Latitude": 48.1617,
"Longitude": 28.3842
},
{
"Name": "Vadeni",
"PostCode": "MD-3047",
"Latitude": 48.0108,
"Longitude": 28.2272
},
{
"Name": "Valea",
"PostCode": "MD-3039",
"Latitude": 48.2433,
"Longitude": 28.0653
},
{
"Name": "Vantina",
"PostCode": "MD-3030",
"Latitude": 48.0967,
"Longitude": 28.1914
},
{
"Name": "Vantina Mica",
"PostCode": "MD-3030",
"Latitude": 48.0862,
"Longitude": 28.2007
},
{
"Name": "Varancau",
"PostCode": "MD-3048",
"Latitude": 48.0653,
"Longitude": 28.515
},
{
"Name": "Vasilcau",
"PostCode": "MD-3046",
"Latitude": 48.1383,
"Longitude": 28.4214
},
{
"Name": "Visoca",
"PostCode": "MD-5142",
"Latitude": 48.2469,
"Longitude": 27.9225
},
{
"Name": "Voloave",
"PostCode": "MD-3049",
"Latitude": 48.0936,
"Longitude": 28.2925
},
{
"Name": "Volovita",
"PostCode": "MD-3050",
"Latitude": 48.1031,
"Longitude": 28.3228
},
{
"Name": "Zastinca",
"PostCode": "MD-3051",
"Latitude": 48.1272,
"Longitude": 28.3061
}
]
}
]
}
]
},
{
"Name": "Balti",
"Provinces": [
{
"PostCode": "MD-3100",
"Communities": [
{
"Places": [
{
"Name": "Balti",
"PostCode": "MD-3100",
"Latitude": 47.7617,
"Longitude": 27.9289
}
],
"PostCode": "MD-3100"
}
]
}
]
},
{
"Name": "Mun.Balti",
"Provinces": [
{
"Communities": [
{
"Places": [
{
"Name": "Elizaveta",
"PostCode": "MD-3151",
"Latitude": 47.7842,
"Longitude": 28.0225
},
{
"Name": "Sadovoe",
"PostCode": "MD-4930",
"Latitude": 47.7764,
"Longitude": 27.7961
}
]
}
]
}
]
},
{
"Name": "Bender Tr.",
"Provinces": [
{
"Communities": [
{
"Places": [
{
"Name": "Bender",
"PostCode": "MD-3200",
"Latitude": 46.8306,
"Longitude": 29.4711
},
{
"Name": "Gisca 1",
"PostCode": "MD-4316",
"Latitude": 46.9982,
"Longitude": 28.8095
},
{
"Name": "Gisca 2",
"PostCode": "MD-4317",
"Latitude": 46.9982,
"Longitude": 28.8095
},
{
"Name": "Proteagailovca",
"PostCode": "MD-3252",
"Latitude": 46.8231,
"Longitude": 29.4419
},
{
"Name": "Varnita",
"PostCode": "MD-3251",
"Latitude": 46.8614,
"Longitude": 29.4692
}
]
}
]
}
]
},
{
"Name": "Tiraspol Tr.",
"Provinces": [
{
"Communities": [
{
"Places": [
{
"Name": "Cremenciug",
"PostCode": "MD-3351",
"Latitude": 46.7086,
"Longitude": 29.6739
},
{
"Name": "Dnestrovsc",
"PostCode": "MD-3352",
"Latitude": 46.6222,
"Longitude": 29.9133
},
{
"Name": "Tiraspol",
"PostCode": "MD-3300",
"Latitude": 46.8403,
"Longitude": 29.6433
},
{
"Name": "Tiraspolul Nou",
"PostCode": "MD-3311",
"Latitude": 46.8319,
"Longitude": 29.5767
}
]
}
]
}
]
},
{
"Name": "Hincesti",
"Provinces": [
{
"Communities": [
{
"Places": [
{
"Name": "Anini",
"PostCode": "MD-3411",
"Latitude": 46.8892,
"Longitude": 28.4664
},
{
"Name": "Balceana",
"PostCode": "MD-3412",
"Latitude": 46.8444,
"Longitude": 28.4047
},
{
"Name": "Bobeica",
"PostCode": "MD-3413",
"Latitude": 46.985,
"Longitude": 28.4622
},
{
"Name": "Boghiceni",
"PostCode": "MD-3414",
"Latitude": 46.9489,
"Longitude": 28.3253
},
{
"Name": "Bozieni",
"PostCode": "MD-3415",
"Latitude": 46.7494,
"Longitude": 28.6472
},
{
"Name": "Bratianovca",
"PostCode": "MD-3446",
"Latitude": 46.7406,
"Longitude": 28.4647
},
{
"Name": "Bujor",
"PostCode": "MD-3416",
"Latitude": 46.9225,
"Longitude": 28.2683
},
{
"Name": "Buteni",
"PostCode": "MD-3417",
"Latitude": 46.8242,
"Longitude": 28.675
},
{
"Name": "Calmatui",
"PostCode": "MD-3418",
"Latitude": 46.7833,
"Longitude": 28.2153
},
{
"Name": "Caracui",
"PostCode": "MD-3419",
"Latitude": 46.6986,
"Longitude": 28.5419
},
{
"Name": "Carpineanca",
"PostCode": "MD-3446",
"Latitude": 46.6961,
"Longitude": 28.4725
},
{
"Name": "Carpineni",
"PostCode": "MD-3420",
"Latitude": 46.7597,
"Longitude": 28.3531
},
{
"Name": "Cateleni",
"PostCode": "MD-6420",
"Latitude": 46.9178,
"Longitude": 28.1894
},
{
"Name": "Chetroseni",
"PostCode": "MD-3437",
"Latitude": 46.9631,
"Longitude": 28.2728
},
{
"Name": "Cioara",
"PostCode": "MD-3421",
"Latitude": 46.7325,
"Longitude": 28.2247
},
{
"Name": "Ciuciuleni",
"PostCode": "MD-6422",
"Latitude": 47.0217,
"Longitude": 28.4133
},
{
"Name": "Cococeni",
"PostCode": "MD-3452",
"Latitude": 46.6735,
"Longitude": 28.3031
},
{
"Name": "Cornesti",
"PostCode": "MD-3448",
"Latitude": 46.9981,
"Longitude": 28.3294
},
{
"Name": "Coroliovca",
"PostCode": "MD-3446",
"Latitude": 46.7108,
"Longitude": 28.4725
},
{
"Name": "Costesti",
"PostCode": "MD-3430",
"Latitude": 46.8733,
"Longitude": 28.2067
},
{
"Name": "Cotul Morii",
"PostCode": "MD-3422",
"Latitude": 46.8697,
"Longitude": 28.1189
},
{
"Name": "Crasnoarmeiscoe",
"PostCode": "MD-3423",
"Latitude": 46.8294,
"Longitude": 28.2822
},
{
"Name": "Dahnovici",
"PostCode": "MD-3413",
"Latitude": 46.9764,
"Longitude": 28.4822
},
{
"Name": "Dancu",
"PostCode": "MD-3424",
"Latitude": 46.7628,
"Longitude": 28.21
},
{
"Name": "Draguseni",
"PostCode": "MD-3425",
"Latitude": 46.9839,
"Longitude": 28.4503
},
{
"Name": "Dragusenii Noi",
"PostCode": "MD-6426",
"Latitude": 47.0444,
"Longitude": 28.4242
},
{
"Name": "Dubovca",
"PostCode": "MD-3426",
"Latitude": 46.7486,
"Longitude": 28.6083
},
{
"Name": "Feteasca",
"PostCode": "MD-3432",
"Latitude": 46.7878,
"Longitude": 28.1922
},
{
"Name": "Firladeni",
"PostCode": "MD-3427",
"Latitude": 46.7875,
"Longitude": 28.6875
},
{
"Name": "Frasin",
"PostCode": "MD-3430",
"Latitude": 46.89,
"Longitude": 28.195
},
{
"Name": "Fundul Galbenei",
"PostCode": "MD-3428",
"Latitude": 46.8825,
"Longitude": 28.6231
},
{
"Name": "Hincesti",
"PostCode": "MD-3401",
"Latitude": 46.8258,
"Longitude": 28.5936
},
{
"Name": "Horjesti",
"PostCode": "MD-3429",
"Latitude": 46.7128,
"Longitude": 28.3494
},
{
"Name": "Horodca",
"PostCode": "MD-6426",
"Latitude": 47.0561,
"Longitude": 28.4617
},
{
"Name": "Ivanovca",
"PostCode": "MD-3430",
"Latitude": 46.8769,
"Longitude": 28.1964
},
{
"Name": "Lapusna",
"PostCode": "MD-3431",
"Latitude": 46.8842,
"Longitude": 28.4119
},
{
"Name": "Leuseni",
"PostCode": "MD-3432",
"Latitude": 46.8092,
"Longitude": 28.1994
},
{
"Name": "Loganesti",
"PostCode": "MD-3434",
"Latitude": 46.9039,
"Longitude": 28.5453
},
{
"Name": "Marchet",
"PostCode": "MD-3445",
"Latitude": 46.7081,
"Longitude": 28.2342
},
{
"Name": "Mereseni",
"PostCode": "MD-3435",
"Latitude": 46.7967,
"Longitude": 28.5417
},
{
"Name": "Mingir",
"PostCode": "MD-3436",
"Latitude": 46.6667,
"Longitude": 28.3272
},
{
"Name": "Miresti",
"PostCode": "MD-3437",
"Latitude": 46.9697,
"Longitude": 28.255
},
{
"Name": "Negrea",
"PostCode": "MD-3438",
"Latitude": 46.8114,
"Longitude": 28.3981
},
{
"Name": "Nemteni",
"PostCode": "MD-3439",
"Latitude": 46.9086,
"Longitude": 28.1181
},
{
"Name": "Obileni",
"PostCode": "MD-3440",
"Latitude": 46.8786,
"Longitude": 28.1606
},
{
"Name": "Onesti",
"PostCode": "MD-3441",
"Latitude": 46.8603,
"Longitude": 28.2525
},
{
"Name": "Pascani",
"PostCode": "MD-3442",
"Latitude": 46.9769,
"Longitude": 28.3678
},
{
"Name": "Pereni",
"PostCode": "MD-3443",
"Latitude": 47.0028,
"Longitude": 28.3736
},
{
"Name": "Pervomaiscoe",
"PostCode": "MD-3444",
"Latitude": 46.8839,
"Longitude": 28.3231
},
{
"Name": "Poganesti",
"PostCode": "MD-3445",
"Latitude": 46.6928,
"Longitude": 28.2331
},
{
"Name": "Rusca",
"PostCode": "MD-3411",
"Latitude": 46.8761,
"Longitude": 28.4764
},
{
"Name": "Sarata Galbena",
"PostCode": "MD-3446",
"Latitude": 46.7275,
"Longitude": 28.515
},
{
"Name": "Sarata-Mereseni",
"PostCode": "MD-3447",
"Latitude": 46.8,
"Longitude": 28.5036
},
{
"Name": "Sarateni",
"PostCode": "MD-3440",
"Latitude": 46.8567,
"Longitude": 28.1686
},
{
"Name": "Secareni",
"PostCode": "MD-3448",
"Latitude": 47.0253,
"Longitude": 28.3325
},
{
"Name": "Secarenii Noi",
"PostCode": "MD-3448",
"Latitude": 47.0117,
"Longitude": 28.331
},
{
"Name": "Semionovca",
"PostCode": "MD-3452",
"Latitude": 46.6975,
"Longitude": 28.3044
},
{
"Name": "Sipoteni",
"PostCode": "MD-3451",
"Latitude": 46.9425,
"Longitude": 28.4564
},
{
"Name": "Sofia",
"PostCode": "MD-3449",
"Latitude": 46.8411,
"Longitude": 28.3803
},
{
"Name": "Stolniceni",
"PostCode": "MD-3450",
"Latitude": 46.9603,
"Longitude": 28.5
},
{
"Name": "Strimbeni",
"PostCode": "MD-3441",
"Latitude": 46.8672,
"Longitude": 28.265
},
{
"Name": "Talaiesti",
"PostCode": "MD-3423",
"Latitude": 46.8003,
"Longitude": 28.2664
},
{
"Name": "Topor",
"PostCode": "MD-3420",
"Latitude": 46.7597,
"Longitude": 28.3531
},
{
"Name": "Valea Florii",
"PostCode": "MD-3446",
"Latitude": 46.7128,
"Longitude": 28.4386
},
{
"Name": "Voinescu",
"PostCode": "MD-3452",
"Latitude": 46.6494,
"Longitude": 28.3017
}
]
}
]
}
]
},
{
"Name": "Orhei",
"Provinces": [
{
"Communities": [
{
"Places": [
{
"Name": "Andreevca",
"PostCode": "MD-3556",
"Latitude": 47.5389,
"Longitude": 28.8775
},
{
"Name": "Berezlogi",
"PostCode": "MD-3511",
"Latitude": 47.4364,
"Longitude": 28.9339
},
{
"Name": "Biesti",
"PostCode": "MD-3512",
"Latitude": 47.5156,
"Longitude": 28.8614
},
{
"Name": "Bolohan",
"PostCode": "MD-3513",
"Latitude": 47.4319,
"Longitude": 28.8731
},
{
"Name": "Branesti",
"PostCode": "MD-3515",
"Latitude": 47.3053,
"Longitude": 28.9267
},
{
"Name": "Braviceni",
"PostCode": "MD-3514",
"Latitude": 47.4336,
"Longitude": 28.6578
},
{
"Name": "Breanova",
"PostCode": "MD-3516",
"Latitude": 47.4158,
"Longitude": 28.6497
},
{
"Name": "Budai",
"PostCode": "MD-3547",
"Latitude": 47.4344,
"Longitude": 28.8211
},
{
"Name": "Bulaiesti",
"PostCode": "MD-3517",
"Latitude": 47.4769,
"Longitude": 28.9786
},
{
"Name": "Butuceni",
"PostCode": "MD-3552",
"Latitude": 47.3014,
"Longitude": 28.9725
},
{
"Name": "Camencea",
"PostCode": "MD-3526",
"Latitude": 47.2808,
"Longitude": 28.6875
},
{
"Name": "Chiperceni",
"PostCode": "MD-3518",
"Latitude": 47.525,
"Longitude": 28.8386
},
{
"Name": "Cihoreni",
"PostCode": "MD-3512",
"Latitude": 47.5061,
"Longitude": 28.8622
},
{
"Name": "Ciocilteni",
"PostCode": "MD-3519",
"Latitude": 47.493899999999996,
"Longitude": 28.6089
},
{
"Name": "Cismea",
"PostCode": "MD-3520",
"Latitude": 47.4164,
"Longitude": 28.7533
},
{
"Name": "Clisova",
"PostCode": "MD-3521",
"Latitude": 47.4731,
"Longitude": 28.5736
},
{
"Name": "Clisova Noua",
"PostCode": "MD-3519",
"Latitude": 47.491,
"Longitude": 28.6246
},
{
"Name": "Crihana",
"PostCode": "MD-3523",
"Latitude": 47.5228,
"Longitude": 28.7211
},
{
"Name": "Cucuruzeni",
"PostCode": "MD-3522",
"Latitude": 47.4883,
"Longitude": 28.7258
},
{
"Name": "Cucuruzenii De Sus",
"PostCode": "MD-3523",
"Latitude": 47.5456,
"Longitude": 28.6989
},
{
"Name": "Curchi",
"PostCode": "MD-3524",
"Latitude": 47.3358,
"Longitude": 28.6539
},
{
"Name": "Discova",
"PostCode": "MD-3525",
"Latitude": 47.3756,
"Longitude": 28.5975
},
{
"Name": "Donici",
"PostCode": "MD-3526",
"Latitude": 47.2844,
"Longitude": 28.67
},
{
"Name": "Fedoreuca",
"PostCode": "MD-3519",
"Latitude": 47.4881,
"Longitude": 28.6403
},
{
"Name": "Furceni",
"PostCode": "MD-3527",
"Latitude": 47.3364,
"Longitude": 28.9256
},
{
"Name": "Ghetlova",
"PostCode": "MD-3528",
"Latitude": 47.3719,
"Longitude": 28.5322
},
{
"Name": "Hijdieni",
"PostCode": "MD-3529",
"Latitude": 47.4594,
"Longitude": 28.9147
},
{
"Name": "Hulboaca",
"PostCode": "MD-3530",
"Latitude": 47.3786,
"Longitude": 28.555
},
{
"Name": "Inculet",
"PostCode": "MD-3557",
"Latitude": 47.4489,
"Longitude": 28.7219
},
{
"Name": "Isacova",
"PostCode": "MD-3531",
"Latitude": 47.3703,
"Longitude": 28.7181
},
{
"Name": "Ivancea",
"PostCode": "MD-3532",
"Latitude": 47.2847,
"Longitude": 28.8569
},
{
"Name": "Izvoare",
"PostCode": "MD-3533",
"Latitude": 47.5517,
"Longitude": 28.9572
},
{
"Name": "Jeloboc",
"PostCode": "MD-3542",
"Latitude": 47.3569,
"Longitude": 28.9047
},
{
"Name": "Jora De Jos",
"PostCode": "MD-3534",
"Latitude": 47.465,
"Longitude": 29.1083
},
{
"Name": "Jora De Mijloc",
"PostCode": "MD-3534",
"Latitude": 47.4756,
"Longitude": 29.0961
},
{
"Name": "Jora De Sus",
"PostCode": "MD-3535",
"Latitude": 47.4867,
"Longitude": 29.0761
},
{
"Name": "Lopatna",
"PostCode": "MD-3535",
"Latitude": 47.495,
"Longitude": 29.0522
},
{
"Name": "Lucaseuca",
"PostCode": "MD-3545",
"Latitude": 47.335,
"Longitude": 28.7558
},
{
"Name": "Malaiesti",
"PostCode": "MD-3536",
"Latitude": 47.4631,
"Longitude": 28.6636
},
{
"Name": "Mana",
"PostCode": "MD-3524",
"Latitude": 47.3389,
"Longitude": 28.6844
},
{
"Name": "Mirzaci",
"PostCode": "MD-3537",
"Latitude": 47.4894,
"Longitude": 28.9947
},
{
"Name": "Mirzesti",
"PostCode": "MD-3537",
"Latitude": 47.4986,
"Longitude": 28.995
},
{
"Name": "Mitoc",
"PostCode": "MD-3503",
"Latitude": 47.3867,
"Longitude": 28.785
},
{
"Name": "Morovaia",
"PostCode": "MD-3552",
"Latitude": 47.2992,
"Longitude": 28.9953
},
{
"Name": "Morozeni",
"PostCode": "MD-3538",
"Latitude": 47.3781,
"Longitude": 28.6342
},
{
"Name": "Neculaieuca",
"PostCode": "MD-3539",
"Latitude": 47.3603,
"Longitude": 28.6922
},
{
"Name": "Noroceni",
"PostCode": "MD-3528",
"Latitude": 47.3769,
"Longitude": 28.5181
},
{
"Name": "Ocnita-Razesi",
"PostCode": "MD-3522",
"Latitude": 47.4694,
"Longitude": 28.7203
},
{
"Name": "Ocnita-Tarani",
"PostCode": "MD-3557",
"Latitude": 47.4572,
"Longitude": 28.7228
},
{
"Name": "Orhei 2",
"PostCode": "MD-3502",
"Latitude": 47.3831,
"Longitude": 28.8231
},
{
"Name": "Orhei 3",
"PostCode": "MD-3503",
"Latitude": 47.3867,
"Longitude": 28.785
},
{
"Name": "Orhei 4",
"PostCode": "MD-3504",
"Latitude": 47.3831,
"Longitude": 28.8231
},
{
"Name": "Orhei 5",
"PostCode": "MD-3505",
"Latitude": 47.3831,
"Longitude": 28.8231
},
{
"Name": "Pelivan",
"PostCode": "MD-3540",
"Latitude": 47.4033,
"Longitude": 28.7742
},
{
"Name": "Peresecina",
"PostCode": "MD-3541",
"Latitude": 47.2522,
"Longitude": 28.7689
},
{
"Name": "Piatra",
"PostCode": "MD-3542",
"Latitude": 47.3667,
"Longitude": 28.8942
},
{
"Name": "Pocsesti",
"PostCode": "MD-3550",
"Latitude": 47.2492,
"Longitude": 28.6833
},
{
"Name": "Podgoreni",
"PostCode": "MD-3543",
"Latitude": 47.5594,
"Longitude": 28.7825
},
{
"Name": "Pohorniceni",
"PostCode": "MD-3542",
"Latitude": 47.3736,
"Longitude": 28.8844
},
{
"Name": "Pohrebeni",
"PostCode": "MD-3544",
"Latitude": 47.556399999999996,
"Longitude": 28.9092
},
{
"Name": "Putintei",
"PostCode": "MD-3554",
"Latitude": 47.3739,
"Longitude": 28.5761
},
{
"Name": "Samananca",
"PostCode": "MD-3550",
"Latitude": 47.265,
"Longitude": 28.7308
},
{
"Name": "Seliste",
"PostCode": "MD-3545",
"Latitude": 47.3333,
"Longitude": 28.7844
},
{
"Name": "Sercani",
"PostCode": "MD-3544",
"Latitude": 47.5119,
"Longitude": 28.9322
},
{
"Name": "Sirota",
"PostCode": "MD-3546",
"Latitude": 47.5278,
"Longitude": 28.7769
},
{
"Name": "Slobozia-Hodorogea",
"PostCode": "MD-3512",
"Latitude": 47.5083,
"Longitude": 28.8886
},
{
"Name": "Step-Soci",
"PostCode": "MD-3547",
"Latitude": 47.4553,
"Longitude": 28.7897
},
{
"Name": "Susleni",
"PostCode": "MD-3548",
"Latitude": 47.4111,
"Longitude": 28.9864
},
{
"Name": "Tabara",
"PostCode": "MD-3549",
"Latitude": 47.33,
"Longitude": 28.5647
},
{
"Name": "Teleseu",
"PostCode": "MD-3550",
"Latitude": 47.2661,
"Longitude": 28.7081
},
{
"Name": "Tirzieni",
"PostCode": "MD-3536",
"Latitude": 47.445,
"Longitude": 28.6236
},
{
"Name": "Trebujeni",
"PostCode": "MD-3552",
"Latitude": 47.3139,
"Longitude": 28.9736
},
{
"Name": "Vatici",
"PostCode": "MD-3553",
"Latitude": 47.3408,
"Longitude": 28.6219
},
{
"Name": "Viprova",
"PostCode": "MD-3554",
"Latitude": 47.3833,
"Longitude": 28.5706
},
{
"Name": "Viscauti",
"PostCode": "MD-3555",
"Latitude": 47.4325,
"Longitude": 29.0756
},
{
"Name": "Vorotet",
"PostCode": "MD-3556",
"Latitude": 47.5592,
"Longitude": 28.8547
},
{
"Name": "Zahoreni",
"PostCode": "MD-5439",
"Latitude": 47.5758,
"Longitude": 28.7275
},
{
"Name": "Zorile",
"PostCode": "MD-3557",
"Latitude": 47.4567,
"Longitude": 28.7381
}
]
}
]
}
]
},
{
"Name": "Ungheni",
"Provinces": [
{
"Communities": [
{
"Places": [
{
"Name": "Agronomova",
"PostCode": "MD-3611",
"Latitude": 47.3486,
"Longitude": 27.8964
},
{
"Name": "Alexeevca",
"PostCode": "MD-3612",
"Latitude": 47.2636,
"Longitude": 27.9297
},
{
"Name": "Blindesti",
"PostCode": "MD-3644",
"Latitude": 47.3131,
"Longitude": 27.6692
},
{
"Name": "Boghenii Noi",
"PostCode": "MD-3613",
"Latitude": 47.4253,
"Longitude": 28.0144
},
{
"Name": "Boghenii Vechi",
"PostCode": "MD-3614",
"Latitude": 47.3972,
"Longitude": 28.0261
},
{
"Name": "Buciumeni",
"PostCode": "MD-3627",
"Latitude": 47.3706,
"Longitude": 27.7136
},
{
"Name": "Buciumeni Loc.C.F.",
"PostCode": "MD-3627",
"Latitude": 47.3706,
"Longitude": 27.7136
},
{
"Name": "Bulhac",
"PostCode": "MD-3647",
"Latitude": 47.4281,
"Longitude": 27.7425
},
{
"Name": "Bumbata",
"PostCode": "MD-3615",
"Latitude": 47.3408,
"Longitude": 27.9744
},
{
"Name": "Busila",
"PostCode": "MD-3616",
"Latitude": 47.3875,
"Longitude": 27.8117
},
{
"Name": "Buzduganii De Jos",
"PostCode": "MD-3651",
"Latitude": 47.1436,
"Longitude": 27.8194
},
{
"Name": "Buzduganii De Sus",
"PostCode": "MD-3651",
"Latitude": 47.1608,
"Longitude": 27.8625
},
{
"Name": "Cetireni",
"PostCode": "MD-3617",
"Latitude": 47.2242,
"Longitude": 27.9033
},
{
"Name": "Chirileni",
"PostCode": "MD-3618",
"Latitude": 47.3808,
"Longitude": 27.7761
},
{
"Name": "Cioropcani",
"PostCode": "MD-3619",
"Latitude": 47.3978,
"Longitude": 27.6997
},
{
"Name": "Condratesti",
"PostCode": "MD-3620",
"Latitude": 47.4122,
"Longitude": 28.1122
},
{
"Name": "Cornesti Oras",
"PostCode": "MD-3608",
"Latitude": 47.3835,
"Longitude": 27.9869
},
{
"Name": "Cornesti Sat",
"PostCode": "MD-3621",
"Latitude": 47.2042,
"Longitude": 27.7958
},
{
"Name": "Cornova",
"PostCode": "MD-3622",
"Latitude": 47.3947,
"Longitude": 28.1717
},
{
"Name": "Coseni",
"PostCode": "MD-3624",
"Latitude": 47.4406,
"Longitude": 27.9261
},
{
"Name": "Costuleni",
"PostCode": "MD-3623",
"Latitude": 47.0781,
"Longitude": 27.9119
},
{
"Name": "Curtoaia",
"PostCode": "MD-3620",
"Latitude": 47.3928,
"Longitude": 28.1047
},
{
"Name": "Drujba",
"PostCode": "MD-3625",
"Latitude": 47.4328,
"Longitude": 28.0761
},
{
"Name": "Elizavetovca",
"PostCode": "MD-3606",
"Latitude": 47.2436,
"Longitude": 27.8228
},
{
"Name": "Floreni",
"PostCode": "MD-3644",
"Latitude": 47.3464,
"Longitude": 27.6639
},
{
"Name": "Floresti",
"PostCode": "MD-3627",
"Latitude": 47.3706,
"Longitude": 27.7136
},
{
"Name": "Floritoaia Noua",
"PostCode": "MD-3626",
"Latitude": 47.1672,
"Longitude": 27.9253
},
{
"Name": "Floritoaia Veche",
"PostCode": "MD-3626",
"Latitude": 47.2064,
"Longitude": 27.9078
},
{
"Name": "Frasinesti",
"PostCode": "MD-3628",
"Latitude": 47.0344,
"Longitude": 28.0128
},
{
"Name": "Gherman",
"PostCode": "MD-3629",
"Latitude": 47.3594,
"Longitude": 27.6025
},
{
"Name": "Graseni",
"PostCode": "MD-3630",
"Latitude": 47.3503,
"Longitude": 27.8353
},
{
"Name": "Grozasca",
"PostCode": "MD-3626",
"Latitude": 47.1811,
"Longitude": 27.8944
},
{
"Name": "Hircesti",
"PostCode": "MD-3631",
"Latitude": 47.3953,
"Longitude": 28.0864
},
{
"Name": "Hristoforovca",
"PostCode": "MD-3641",
"Latitude": 47.3547,
"Longitude": 27.9183
},
{
"Name": "Leordoaia",
"PostCode": "MD-3631",
"Latitude": 47.3367,
"Longitude": 28.1406
},
{
"Name": "Lidovca",
"PostCode": "MD-3612",
"Latitude": 47.2786,
"Longitude": 27.8944
},
{
"Name": "Macaresti",
"PostCode": "MD-3632",
"Latitude": 47.05,
"Longitude": 27.9747
},
{
"Name": "Magurele",
"PostCode": "MD-3633",
"Latitude": 47.4608,
"Longitude": 27.9711
},
{
"Name": "Manoilesti",
"PostCode": "MD-3634",
"Latitude": 47.2367,
"Longitude": 27.8831
},
{
"Name": "Medeleni",
"PostCode": "MD-3635",
"Latitude": 47.2956,
"Longitude": 27.6908
},
{
"Name": "Minzatesti",
"PostCode": "MD-3636",
"Latitude": 47.3942,
"Longitude": 28.065
},
{
"Name": "Mircesti",
"PostCode": "MD-3613",
"Latitude": 47.4031,
"Longitude": 27.9956
},
{
"Name": "Morenii Noi",
"PostCode": "MD-3637",
"Latitude": 47.1219,
"Longitude": 27.9197
},
{
"Name": "Morenii Vechi",
"PostCode": "MD-3637",
"Latitude": 47.125,
"Longitude": 27.8847
},
{
"Name": "Napadeni",
"PostCode": "MD-3638",
"Latitude": 47.4025,
"Longitude": 28.1506
},
{
"Name": "Negurenii Noi",
"PostCode": "MD-3639",
"Latitude": 47.4003,
"Longitude": 27.8886
},
{
"Name": "Negurenii Vechi",
"PostCode": "MD-3639",
"Latitude": 47.4161,
"Longitude": 27.8797
},
{
"Name": "Novaia Nicolaevca",
"PostCode": "MD-3606",
"Latitude": 47.2689,
"Longitude": 27.8458
},
{
"Name": "Petresti",
"PostCode": "MD-3640",
"Latitude": 47.3067,
"Longitude": 27.7453
},
{
"Name": "Petresti Loc.C.F.",
"PostCode": "MD-3640",
"Latitude": 47.3067,
"Longitude": 27.7453
},
{
"Name": "Pirlita",
"PostCode": "MD-3641",
"Latitude": 47.3194,
"Longitude": 27.8733
},
{
"Name": "Poiana",
"PostCode": "MD-3608",
"Latitude": 47.3917,
"Longitude": 28.0
},
{
"Name": "Pojarna",
"PostCode": "MD-3646",
"Latitude": 47.335,
"Longitude": 28.0856
},
{
"Name": "Radenii Vechi",
"PostCode": "MD-3642",
"Latitude": 47.2969,
"Longitude": 28.0
},
{
"Name": "Rezina",
"PostCode": "MD-3643",
"Latitude": 47.2144,
"Longitude": 27.8756
},
{
"Name": "Romanovca",
"PostCode": "MD-3608",
"Latitude": 47.3753,
"Longitude": 27.9739
},
{
"Name": "Saghieni",
"PostCode": "MD-3612",
"Latitude": 47.2461,
"Longitude": 27.9719
},
{
"Name": "Sculeni",
"PostCode": "MD-3644",
"Latitude": 47.3228,
"Longitude": 27.6314
},
{
"Name": "Semeni",
"PostCode": "MD-3645",
"Latitude": 47.2686,
"Longitude": 27.7519
},
{
"Name": "Sicovat",
"PostCode": "MD-3637",
"Latitude": 47.1061,
"Longitude": 27.9086
},
{
"Name": "Sinesti",
"PostCode": "MD-3646",
"Latitude": 47.3908,
"Longitude": 28.0489
},
{
"Name": "Stolniceni",
"PostCode": "MD-3647",
"Latitude": 47.4111,
"Longitude": 27.7139
},
{
"Name": "Tescureni",
"PostCode": "MD-3648",
"Latitude": 47.4117,
"Longitude": 27.9531
},
{
"Name": "Tighira",
"PostCode": "MD-3624",
"Latitude": 47.4447,
"Longitude": 27.9019
},
{
"Name": "Todiresti",
"PostCode": "MD-3649",
"Latitude": 47.3186,
"Longitude": 27.82
},
{
"Name": "Ungheni 2",
"PostCode": "MD-3602",
"Latitude": 47.2042,
"Longitude": 27.7958
},
{
"Name": "Ungheni 3",
"PostCode": "MD-3603",
"Latitude": 47.2042,
"Longitude": 27.7958
},
{
"Name": "Ungheni 4",
"PostCode": "MD-3604",
"Latitude": 47.2042,
"Longitude": 27.7958
},
{
"Name": "Ungheni 6",
"PostCode": "MD-3606",
"Latitude": 47.2563,
"Longitude": 27.8343
},
{
"Name": "Ungheni-Gara",
"PostCode": "MD-3601",
"Latitude": 47.2042,
"Longitude": 27.7958
},
{
"Name": "Untesti",
"PostCode": "MD-3650",
"Latitude": 47.2436,
"Longitude": 27.8228
},
{
"Name": "Valea Mare",
"PostCode": "MD-3651",
"Latitude": 47.1353,
"Longitude": 27.8608
},
{
"Name": "Vulpesti",
"PostCode": "MD-3634",
"Latitude": 47.2358,
"Longitude": 27.9081
},
{
"Name": "Zagarancea",
"PostCode": "MD-3652",
"Latitude": 47.2425,
"Longitude": 27.7611
},
{
"Name": "Zazulenii Noi",
"PostCode": "MD-3639",
"Latitude": 47.3819,
"Longitude": 27.8706
},
{
"Name": "Zazulenii Vechi",
"PostCode": "MD-3639",
"Latitude": 47.4114,
"Longitude": 27.8561
}
]
}
]
}
]
},
{
"Name": "Uhnheni",
"Provinces": [
{
"PostCode": "MD-3613",
"Communities": [
{
"Places": [
{
"Name": "Izvoreni",
"PostCode": "MD-3613",
"Latitude": 47.4308,
"Longitude": 27.9761
}
],
"PostCode": "MD-3613"
}
]
}
]
},
{
"Name": "Calarasi",
"Provinces": [
{
"Communities": [
{
"Places": [
{
"Name": "Bahmut",
"PostCode": "MD-4411",
"Latitude": 47.3225,
"Longitude": 28.1158
},
{
"Name": "Bahmut St.",
"PostCode": "MD-4412",
"Latitude": 47.3326,
"Longitude": 28.0879
},
{
"Name": "Bahu",
"PostCode": "MD-4413",
"Latitude": 47.4225,
"Longitude": 28.4667
},
{
"Name": "Bravicea",
"PostCode": "MD-4414",
"Latitude": 47.3611,
"Longitude": 28.4361
},
{
"Name": "Buda",
"PostCode": "MD-4415",
"Latitude": 47.2089,
"Longitude": 28.2189
},
{
"Name": "Bularda",
"PostCode": "MD-4418",
"Latitude": 47.3561,
"Longitude": 28.2222
},
{
"Name": "Cabaiesti",
"PostCode": "MD-4416",
"Latitude": 47.2164,
"Longitude": 28.1467
},
{
"Name": "Calarasi 1",
"PostCode": "MD-4401",
"Latitude": 47.2368,
"Longitude": 28.3079
},
{
"Name": "Calarasi 2",
"PostCode": "MD-4402",
"Latitude": 47.2544,
"Longitude": 28.3081
},
{
"Name": "Calarasi 4",
"PostCode": "MD-4403",
"Latitude": 47.2994,
"Longitude": 28.2361
},
{
"Name": "Codru (Sanat.)",
"PostCode": "MD-4417",
"Latitude": 46.9753,
"Longitude": 28.8194
},
{
"Name": "Dereneu",
"PostCode": "MD-4418",
"Latitude": 47.3817,
"Longitude": 28.2425
},
{
"Name": "Duma",
"PostCode": "MD-4418",
"Latitude": 47.368899999999996,
"Longitude": 28.2324
},
{
"Name": "Frumoasa",
"PostCode": "MD-4419",
"Latitude": 47.3289,
"Longitude": 28.4028
},
{
"Name": "Hirbovat",
"PostCode": "MD-4422",
"Latitude": 47.3533,
"Longitude": 28.2928
},
{
"Name": "Hirjauca",
"PostCode": "MD-4421",
"Latitude": 47.3242,
"Longitude": 28.2225
},
{
"Name": "Hirova",
"PostCode": "MD-4420",
"Latitude": 47.4131,
"Longitude": 28.2817
},
{
"Name": "Hoginesti",
"PostCode": "MD-4423",
"Latitude": 47.3733,
"Longitude": 28.3208
},
{
"Name": "Horodiste",
"PostCode": "MD-4424",
"Latitude": 47.2086,
"Longitude": 28.2519
},
{
"Name": "Leordoaia",
"PostCode": "MD-4421",
"Latitude": 47.3456,
"Longitude": 28.1533
},
{
"Name": "Meleseni",
"PostCode": "MD-4425",
"Latitude": 47.3756,
"Longitude": 28.3889
},
{
"Name": "Mindra",
"PostCode": "MD-4426",
"Latitude": 47.3194,
"Longitude": 28.2672
},
{
"Name": "Niscani",
"PostCode": "MD-4427",
"Latitude": 47.2672,
"Longitude": 28.3444
},
{
"Name": "Novaci",
"PostCode": "MD-4428",
"Latitude": 47.2361,
"Longitude": 28.2667
},
{
"Name": "Oniscani",
"PostCode": "MD-4429",
"Latitude": 47.3653,
"Longitude": 28.2881
},
{
"Name": "Oricova",
"PostCode": "MD-4403",
"Latitude": 47.2994,
"Longitude": 28.2361
},
{
"Name": "Palanca",
"PostCode": "MD-4421",
"Latitude": 47.3333,
"Longitude": 28.2014
},
{
"Name": "Parcani",
"PostCode": "MD-4434",
"Latitude": 47.2944,
"Longitude": 28.3736
},
{
"Name": "Paulesti",
"PostCode": "MD-4430",
"Latitude": 47.2681,
"Longitude": 28.3708
},
{
"Name": "Peticeni",
"PostCode": "MD-4431",
"Latitude": 47.2372,
"Longitude": 28.2072
},
{
"Name": "Pirjolteni",
"PostCode": "MD-4433",
"Latitude": 47.1969,
"Longitude": 28.2417
},
{
"Name": "Pitusca",
"PostCode": "MD-4432",
"Latitude": 47.2375,
"Longitude": 28.4197
},
{
"Name": "Podul Lung",
"PostCode": "MD-4438",
"Latitude": 47.2619,
"Longitude": 28.2503
},
{
"Name": "Raciula",
"PostCode": "MD-4435",
"Latitude": 47.3025,
"Longitude": 28.3436
},
{
"Name": "Radeni",
"PostCode": "MD-4435",
"Latitude": 47.3978,
"Longitude": 28.2167
},
{
"Name": "Sadova",
"PostCode": "MD-4436",
"Latitude": 47.1911,
"Longitude": 28.3447
},
{
"Name": "Saseni",
"PostCode": "MD-4437",
"Latitude": 47.3678,
"Longitude": 28.5014
},
{
"Name": "Schinoasa",
"PostCode": "MD-4441",
"Latitude": 47.2672,
"Longitude": 28.1289
},
{
"Name": "Selistea Noua",
"PostCode": "MD-4401",
"Latitude": 47.2319,
"Longitude": 28.3128
},
{
"Name": "Sipoteni",
"PostCode": "MD-4438",
"Latitude": 47.2772,
"Longitude": 28.1981
},
{
"Name": "Sverida",
"PostCode": "MD-4422",
"Latitude": 47.3533,
"Longitude": 28.2928
},
{
"Name": "Temeleuti",
"PostCode": "MD-4439",
"Latitude": 47.2539,
"Longitude": 28.0719
},
{
"Name": "Tibirica",
"PostCode": "MD-4440",
"Latitude": 47.3714,
"Longitude": 28.3689
},
{
"Name": "Tuzara",
"PostCode": "MD-4401",
"Latitude": 47.2417,
"Longitude": 28.3031
},
{
"Name": "Ursari",
"PostCode": "MD-4415",
"Latitude": 47.2214,
"Longitude": 28.1894
},
{
"Name": "Valcinet",
"PostCode": "MD-4441",
"Latitude": 47.2672,
"Longitude": 28.1289
},
{
"Name": "Varzarestii Noi",
"PostCode": "MD-4442",
"Latitude": 47.2322,
"Longitude": 28.445
},
{
"Name": "Vatamaneasca",
"PostCode": "MD-4403",
"Latitude": 47.2994,
"Longitude": 28.2361
},
{
"Name": "Veverita",
"PostCode": "MD-3631",
"Latitude": 47.3442,
"Longitude": 28.1056
}
]
}
]
}
]
},
{
"Name": "Straseni",
"Provinces": [
{
"Communities": [
{
"Places": [
{
"Name": "Bucovat",
"PostCode": "MD-3711",
"Latitude": 47.1886,
"Longitude": 28.4569
},
{
"Name": "Capriana",
"PostCode": "MD-3712",
"Latitude": 47.1175,
"Longitude": 28.5044
},
{
"Name": "Chirianca",
"PostCode": "MD-3713",
"Latitude": 47.2558,
"Longitude": 28.5328
},
{
"Name": "Ciobanca",
"PostCode": "MD-3725",
"Latitude": 47.145,
"Longitude": 28.5022
},
{
"Name": "Codreanca",
"PostCode": "MD-3714",
"Latitude": 47.2867,
"Longitude": 28.5897
},
{
"Name": "Cojusna",
"PostCode": "MD-3715",
"Latitude": 47.0928,
"Longitude": 28.6581
},
{
"Name": "Dolna",
"PostCode": "MD-6425",
"Latitude": 47.1219,
"Longitude": 28.2703
},
{
"Name": "Draguseni",
"PostCode": "MD-3716",
"Latitude": 47.2142,
"Longitude": 28.6642
},
{
"Name": "Fagureni",
"PostCode": "MD-3703",
"Latitude": 47.1453,
"Longitude": 28.5628
},
{
"Name": "Galesti",
"PostCode": "MD-3717",
"Latitude": 47.2281,
"Longitude": 28.4981
},
{
"Name": "Galestii Noi",
"PostCode": "MD-3717",
"Latitude": 47.2075,
"Longitude": 28.4956
},
{
"Name": "Ghelauza",
"PostCode": "MD-3718",
"Latitude": 47.1936,
"Longitude": 28.5967
},
{
"Name": "Gornoe",
"PostCode": "MD-3719",
"Latitude": 47.1907,
"Longitude": 28.7798
},
{
"Name": "Greblesi",
"PostCode": "MD-3720",
"Latitude": 47.2353,
"Longitude": 28.6069
},
{
"Name": "Huzun",
"PostCode": "MD-6431",
"Latitude": 47.1214,
"Longitude": 28.3217
},
{
"Name": "Lozova",
"PostCode": "MD-3721",
"Latitude": 47.1328,
"Longitude": 28.3858
},
{
"Name": "Lupa-Recea",
"PostCode": "MD-3714",
"Latitude": 47.3128,
"Longitude": 28.5925
},
{
"Name": "Martinesti",
"PostCode": "MD-3720",
"Latitude": 47.2353,
"Longitude": 28.6069
},
{
"Name": "Micauti",
"PostCode": "MD-3722",
"Latitude": 47.1722,
"Longitude": 28.7489
},
{
"Name": "Micleuseni",
"PostCode": "MD-6431",
"Latitude": 47.1228,
"Longitude": 28.3081
},
{
"Name": "Negresti",
"PostCode": "MD-3723",
"Latitude": 47.1778,
"Longitude": 28.6247
},
{
"Name": "Onesti",
"PostCode": "MD-3724",
"Latitude": 47.2786,
"Longitude": 28.5511
},
{
"Name": "Panasesti",
"PostCode": "MD-3725",
"Latitude": 47.1531,
"Longitude": 28.5186
},
{
"Name": "Radeni",
"PostCode": "MD-3726",
"Latitude": 47.2067,
"Longitude": 28.6992
},
{
"Name": "Rassvet",
"PostCode": "MD-4435",
"Latitude": 47.2031,
"Longitude": 28.4283
},
{
"Name": "Recea",
"PostCode": "MD-3727",
"Latitude": 47.2217,
"Longitude": 28.5806
},
{
"Name": "Romanesti",
"PostCode": "MD-3728",
"Latitude": 47.2258,
"Longitude": 28.7111
},
{
"Name": "Roscani",
"PostCode": "MD-3729",
"Latitude": 47.1475,
"Longitude": 28.6778
},
{
"Name": "Saca",
"PostCode": "MD-3718",
"Latitude": 47.1942,
"Longitude": 28.6108
},
{
"Name": "Scoreni",
"PostCode": "MD-3730",
"Latitude": 47.0647,
"Longitude": 28.6086
},
{
"Name": "Sireti",
"PostCode": "MD-3731",
"Latitude": 47.1339,
"Longitude": 28.7142
},
{
"Name": "Stejareni",
"PostCode": "MD-3721",
"Latitude": 47.1061,
"Longitude": 28.4164
},
{
"Name": "Straseni 1",
"PostCode": "MD-3701",
"Latitude": 47.1414,
"Longitude": 28.6103
},
{
"Name": "Straseni 2",
"PostCode": "MD-3702",
"Latitude": 47.1414,
"Longitude": 28.6103
},
{
"Name": "Tataresti",
"PostCode": "MD-3732",
"Latitude": 47.2044,
"Longitude": 28.5386
},
{
"Name": "Tiganesti",
"PostCode": "MD-3734",
"Latitude": 47.2989,
"Longitude": 28.5522
},
{
"Name": "Voinova",
"PostCode": "MD-3735",
"Latitude": 47.2706,
"Longitude": 28.4872
},
{
"Name": "Vorniceni",
"PostCode": "MD-3736",
"Latitude": 47.1497,
"Longitude": 28.4294
},
{
"Name": "Vorniceni-1",
"PostCode": "MD-3737",
"Latitude": 47.1497,
"Longitude": 28.4294
},
{
"Name": "Zamciogi",
"PostCode": "MD-3738",
"Latitude": 47.2044,
"Longitude": 28.7233
},
{
"Name": "Zubresti",
"PostCode": "MD-3739",
"Latitude": 47.2386,
"Longitude": 28.5258
}
]
}
]
}
]
},
{
"Name": "Comrat",
"Provinces": [
{
"Communities": [
{
"Places": [
{
"Name": "Alexeevca",
"PostCode": "MD-3822",
"Latitude": 46.0264,
"Longitude": 28.5675
},
{
"Name": "Avdarma",
"PostCode": "MD-3817",
"Latitude": 46.2542,
"Longitude": 28.8394
},
{
"Name": "Baurci",
"PostCode": "MD-6111",
"Latitude": 46.0939,
"Longitude": 28.6758
},
{
"Name": "Besalma",
"PostCode": "MD-3811",
"Latitude": 46.1728,
"Longitude": 28.6483
},
{
"Name": "Besghioz",
"PostCode": "MD-6112",
"Latitude": 46.1217,
"Longitude": 28.8722
},
{
"Name": "Bugeac",
"PostCode": "MD-3812",
"Latitude": 46.3658,
"Longitude": 28.6633
},
{
"Name": "Carbalia",
"PostCode": "MD-5355",
"Latitude": 45.8733,
"Longitude": 28.4458
},
{
"Name": "Cazaclia",
"PostCode": "MD-6113",
"Latitude": 46.0103,
"Longitude": 28.6628
},
{
"Name": "Ceadir-Lunga 1",
"PostCode": "MD-6101",
"Latitude": 46.055,
"Longitude": 28.8303
},
{
"Name": "Ceadir-Lunga 2",
"PostCode": "MD-6102",
"Latitude": 46.055,
"Longitude": 28.8303
},
{
"Name": "Ceadir-Lunga 3",
"PostCode": "MD-6103",
"Latitude": 46.055,
"Longitude": 28.8303
},
{
"Name": "Ceadir-Lunga 4",
"PostCode": "MD-6104",
"Latitude": 46.055,
"Longitude": 28.8303
},
{
"Name": "Chioselia Rusa",
"PostCode": "MD-3814",
"Latitude": 46.0833,
"Longitude": 28.5164
},
{
"Name": "Chiriet Lunga",
"PostCode": "MD-6117",
"Latitude": 46.2092,
"Longitude": 28.9442
},
{
"Name": "Chirsova",
"PostCode": "MD-3813",
"Latitude": 46.2339,
"Longitude": 28.6481
},
{
"Name": "Cioc-Maidan",
"PostCode": "MD-3818",
"Latitude": 46.3581,
"Longitude": 28.8219
},
{
"Name": "Cirlaneni",
"PostCode": "MD-3815",
"Latitude": 46.1606,
"Longitude": 28.5136
},
{
"Name": "Cismichioi",
"PostCode": "MD-5351",
"Latitude": 45.5444,
"Longitude": 28.3828
},
{
"Name": "Comrat 1",
"PostCode": "MD-3801",
"Latitude": 46.3003,
"Longitude": 28.6572
},
{
"Name": "Comrat 2",
"PostCode": "MD-3802",
"Latitude": 46.3003,
"Longitude": 28.6572
},
{
"Name": "Comrat 5",
"PostCode": "MD-3805",
"Latitude": 46.3003,
"Longitude": 28.6572
},
{
"Name": "Congaz",
"PostCode": "MD-3819",
"Latitude": 46.1092,
"Longitude": 28.6044
},
{
"Name": "Congaz 1",
"PostCode": "MD-3815",
"Latitude": 46.1606,
"Longitude": 28.5136
},
{
"Name": "Congazcic",
"PostCode": "MD-3816",
"Latitude": 46.3241,
"Longitude": 28.5506
},
{
"Name": "Congazcicul De Jos",
"PostCode": "MD-3816",
"Latitude": 46.3114,
"Longitude": 28.5714
},
{
"Name": "Congazcicul De Sus",
"PostCode": "MD-3816",
"Latitude": 46.3333,
"Longitude": 28.5664
},
{
"Name": "Copceac",
"PostCode": "MD-6118",
"Latitude": 45.8517,
"Longitude": 28.6925
},
{
"Name": "Cotovscoe-Cirlaneni",
"PostCode": "MD-3815",
"Latitude": 46.1606,
"Longitude": 28.5136
},
{
"Name": "Dezghingea",
"PostCode": "MD-3820",
"Latitude": 46.4244,
"Longitude": 28.6167
},
{
"Name": "Dudulesti",
"PostCode": "MD-3816",
"Latitude": 46.3275,
"Longitude": 28.5139
},
{
"Name": "Etulia",
"PostCode": "MD-5352",
"Latitude": 45.5392,
"Longitude": 28.4428
},
{
"Name": "Etulia Loc.C.F.",
"PostCode": "MD-5354",
"Latitude": 46.3003,
"Longitude": 28.6572
},
{
"Name": "Etulia Noua",
"PostCode": "MD-5353",
"Latitude": 45.5164,
"Longitude": 28.4389
},
{
"Name": "Ferapontievca",
"PostCode": "MD-3821",
"Latitude": 46.24,
"Longitude": 28.7744
},
{
"Name": "Gaidar",
"PostCode": "MD-6114",
"Latitude": 46.1028,
"Longitude": 28.765
},
{
"Name": "Joltai",
"PostCode": "MD-6115",
"Latitude": 46.1825,
"Longitude": 28.8761
},
{
"Name": "Svetlii",
"PostCode": "MD-3822",
"Latitude": 46.0164,
"Longitude": 28.5661
},
{
"Name": "Tomai",
"PostCode": "MD-6116",
"Latitude": 46.1817,
"Longitude": 28.7675
},
{
"Name": "Vulcanesti",
"PostCode": "MD-5301",
"Latitude": 45.6842,
"Longitude": 28.4028
},
{
"Name": "Vulcanesti St",
"PostCode": "MD-5302",
"Latitude": 45.6842,
"Longitude": 28.4028
}
]
}
]
}
]
},
{
"Name": "Cahul",
"Provinces": [
{
"Communities": [
{
"Places": [
{
"Name": "Alexandresti",
"PostCode": "MD-3916",
"Latitude": 46.0503,
"Longitude": 28.4125
},
{
"Name": "Alexandrfeld (Cimpeni)",
"PostCode": "MD-5314",
"Latitude": 45.8067,
"Longitude": 28.4278
},
{
"Name": "Alexandru Ioan Cuza",
"PostCode": "MD-5311",
"Latitude": 45.5992,
"Longitude": 28.4494
},
{
"Name": "Andrusul De Jos",
"PostCode": "MD-3911",
"Latitude": 45.9858,
"Longitude": 28.2211
},
{
"Name": "Andrusul De Sus",
"PostCode": "MD-3912",
"Latitude": 46.0075,
"Longitude": 28.2461
},
{
"Name": "Badicul Moldovenesc",
"PostCode": "MD-3913",
"Latitude": 46.0944,
"Longitude": 28.2706
},
{
"Name": "Baurci-Moldoveni",
"PostCode": "MD-3914",
"Latitude": 46.0331,
"Longitude": 28.2328
},
{
"Name": "Borceag",
"PostCode": "MD-7415",
"Latitude": 46.05,
"Longitude": 28.525
},
{
"Name": "Brinza",
"PostCode": "MD-5312",
"Latitude": 45.6778,
"Longitude": 28.1742
},
{
"Name": "Bucuria",
"PostCode": "MD-3915",
"Latitude": 45.9656,
"Longitude": 28.3489
},
{
"Name": "Burlaceni",
"PostCode": "MD-5313",
"Latitude": 45.7581,
"Longitude": 28.5069
},
{
"Name": "Burlacu",
"PostCode": "MD-3916",
"Latitude": 46.0447,
"Longitude": 28.4128
},
{
"Name": "Cahul 1",
"PostCode": "MD-3901",
"Latitude": 45.8881,
"Longitude": 28.1881
},
{
"Name": "Cahul 5",
"PostCode": "MD-3905",
"Latitude": 45.9221,
"Longitude": 28.2216
},
{
"Name": "Cahul 7",
"PostCode": "MD-3907",
"Latitude": 45.9198,
"Longitude": 28.1933
},
{
"Name": "Cahul 9",
"PostCode": "MD-3909",
"Latitude": 45.9066,
"Longitude": 28.1931
},
{
"Name": "Chioselia Mare",
"PostCode": "MD-3934",
"Latitude": 46.1,
"Longitude": 28.4903
},
{
"Name": "Chircani",
"PostCode": "MD-3919",
"Latitude": 46.0872,
"Longitude": 28.1722
},
{
"Name": "Cislita-Prut",
"PostCode": "MD-5315",
"Latitude": 45.5378,
"Longitude": 28.17
},
{
"Name": "Colibasi",
"PostCode": "MD-5316",
"Latitude": 45.7186,
"Longitude": 28.1803
},
{
"Name": "Cotihana",
"PostCode": "MD-3917",
"Latitude": 45.9381,
"Longitude": 28.2436
},
{
"Name": "Crihana Veche",
"PostCode": "MD-3918",
"Latitude": 45.8458,
"Longitude": 28.1947
},
{
"Name": "Cucoara",
"PostCode": "MD-3919",
"Latitude": 46.0569,
"Longitude": 28.1708
},
{
"Name": "Doina",
"PostCode": "MD-7323",
"Latitude": 46.1119,
"Longitude": 28.3289
},
{
"Name": "Frumusica",
"PostCode": "MD-3934",
"Latitude": 46.0814,
"Longitude": 28.4831
},
{
"Name": "Gavanoasa",
"PostCode": "MD-5317",
"Latitude": 45.7656,
"Longitude": 28.3833
},
{
"Name": "Gibani",
"PostCode": "MD-3914",
"Latitude": 46.0331,
"Longitude": 28.2328
},
{
"Name": "Giurgiulesti",
"PostCode": "MD-5318",
"Latitude": 45.4817,
"Longitude": 28.1972
},
{
"Name": "Greceni",
"PostCode": "MD-5313",
"Latitude": 45.7217,
"Longitude": 28.3917
},
{
"Name": "Huluboaia",
"PostCode": "MD-3920",
"Latitude": 46.0658,
"Longitude": 28.3333
},
{
"Name": "Hutulu",
"PostCode": "MD-3922",
"Latitude": 45.8631,
"Longitude": 28.3006
},
{
"Name": "Iasnaia Poleana",
"PostCode": "MD-7323",
"Latitude": 46.1411,
"Longitude": 28.3044
},
{
"Name": "Iujnoe",
"PostCode": "MD-5319",
"Latitude": 45.7525,
"Longitude": 28.4775
},
{
"Name": "Larga Noua",
"PostCode": "MD-3921",
"Latitude": 46.0725,
"Longitude": 28.2242
},
{
"Name": "Larga Veche",
"PostCode": "MD-3921",
"Latitude": 46.0708,
"Longitude": 28.2453
},
{
"Name": "Lebedenco",
"PostCode": "MD-3922",
"Latitude": 45.8561,
"Longitude": 28.2917
},
{
"Name": "Lopatica",
"PostCode": "MD-3923",
"Latitude": 45.9294,
"Longitude": 28.4122
},
{
"Name": "Lucesti",
"PostCode": "MD-3924",
"Latitude": 45.9889,
"Longitude": 28.3364
},
{
"Name": "Manta",
"PostCode": "MD-3925",
"Latitude": 45.8061,
"Longitude": 28.1833
},
{
"Name": "Moscovei",
"PostCode": "MD-3926",
"Latitude": 45.9342,
"Longitude": 28.3556
},
{
"Name": "Nicolaevca",
"PostCode": "MD-5317",
"Latitude": 45.7572,
"Longitude": 28.3772
},
{
"Name": "Paicu",
"PostCode": "MD-3933",
"Latitude": 46.0378,
"Longitude": 28.1553
},
{
"Name": "Pascani",
"PostCode": "MD-3934",
"Latitude": 45.825,
"Longitude": 28.1878
},
{
"Name": "Pelinei",
"PostCode": "MD-3927",
"Latitude": 45.8269,
"Longitude": 28.3219
},
{
"Name": "Rosu",
"PostCode": "MD-3928",
"Latitude": 45.9547,
"Longitude": 28.1942
},
{
"Name": "Rumeantev",
"PostCode": "MD-7333",
"Latitude": 46.1136,
"Longitude": 28.2822
},
{
"Name": "Satuc",
"PostCode": "MD-3927",
"Latitude": 45.8031,
"Longitude": 28.3528
},
{
"Name": "Spicoasa",
"PostCode": "MD-3916",
"Latitude": 46.0344,
"Longitude": 28.3769
},
{
"Name": "Taraclia De Salcie",
"PostCode": "MD-3929",
"Latitude": 46.0075,
"Longitude": 28.4153
},
{
"Name": "Tartaul De Salcie",
"PostCode": "MD-3930",
"Latitude": 45.9719,
"Longitude": 28.4119
},
{
"Name": "Tataresti",
"PostCode": "MD-3931",
"Latitude": 46.025,
"Longitude": 28.3453
},
{
"Name": "Tretesti",
"PostCode": "MD-3933",
"Latitude": 46.0,
"Longitude": 28.1667
},
{
"Name": "Trifestii Noi",
"PostCode": "MD-3926",
"Latitude": 45.9481,
"Longitude": 28.355
},
{
"Name": "Tudoresti",
"PostCode": "MD-3930",
"Latitude": 45.9642,
"Longitude": 28.4028
},
{
"Name": "Ursoaia",
"PostCode": "MD-3932",
"Latitude": 45.8531,
"Longitude": 28.3156
},
{
"Name": "Vadul Lui Isac",
"PostCode": "MD-5321",
"Latitude": 45.7611,
"Longitude": 28.1667
},
{
"Name": "Valeni",
"PostCode": "MD-5322",
"Latitude": 45.6406,
"Longitude": 28.1764
},
{
"Name": "Vladimirovca",
"PostCode": "MD-5323",
"Latitude": 45.7881,
"Longitude": 28.3653
},
{
"Name": "Zirnesti",
"PostCode": "MD-3933",
"Latitude": 46.0111,
"Longitude": 28.1631
}
]
}
]
}
]
},
{
"Name": "Grigoriopol Tr.",
"Provinces": [
{
"Communities": [
{
"Places": [
{
"Name": "Bicioc",
"PostCode": "MD-4011",
"Latitude": 46.925,
"Longitude": 29.4803
},
{
"Name": "Bruslachi",
"PostCode": "MD-4019",
"Latitude": 47.2811,
"Longitude": 29.38
},
{
"Name": "Butor",
"PostCode": "MD-4012",
"Latitude": 47.0414,
"Longitude": 29.4044
},
{
"Name": "Carmanova",
"PostCode": "MD-4013",
"Latitude": 47.2589,
"Longitude": 29.5036
},
{
"Name": "Cernita",
"PostCode": "MD-4014",
"Latitude": 47.0306,
"Longitude": 29.5178
},
{
"Name": "Colosova",
"PostCode": "MD-4015",
"Latitude": 47.3258,
"Longitude": 29.5664
},
{
"Name": "Cotovca",
"PostCode": "MD-4013",
"Latitude": 47.2853,
"Longitude": 29.4783
},
{
"Name": "Crasnaia Bessarabia",
"PostCode": "MD-4015",
"Latitude": 47.285,
"Longitude": 29.5869
},
{
"Name": "Crasnaia Gorca",
"PostCode": "MD-4016",
"Latitude": 47.1322,
"Longitude": 29.315
},
{
"Name": "Crasnoe",
"PostCode": "MD-4001",
"Latitude": 47.1808,
"Longitude": 29.3583
},
{
"Name": "Crasnogorca",
"PostCode": "MD-4017",
"Latitude": 46.9614,
"Longitude": 29.4653
},
{
"Name": "Delacau",
"PostCode": "MD-4018",
"Latitude": 47.1289,
"Longitude": 29.2989
},
{
"Name": "Fedoseevca",
"PostCode": "MD-4022",
"Latitude": 47.2333,
"Longitude": 29.5378
},
{
"Name": "Grigoriopol",
"PostCode": "MD-4001",
"Latitude": 47.1536,
"Longitude": 29.2964
},
{
"Name": "Hirtop",
"PostCode": "MD-4019",
"Latitude": 47.2397,
"Longitude": 29.3614
},
{
"Name": "Hlinaia",
"PostCode": "MD-4020",
"Latitude": 47.2281,
"Longitude": 29.415
},
{
"Name": "India",
"PostCode": "MD-4012",
"Latitude": 47.0461,
"Longitude": 29.3872
},
{
"Name": "Maiac",
"PostCode": "MD-4006",
"Latitude": 47.2375,
"Longitude": 29.3858
},
{
"Name": "Malaiesti",
"PostCode": "MD-4021",
"Latitude": 46.9825,
"Longitude": 29.5522
},
{
"Name": "Marian",
"PostCode": "MD-4019",
"Latitude": 47.2342,
"Longitude": 29.3319
},
{
"Name": "Mocearovca",
"PostCode": "MD-4022",
"Latitude": 47.2403,
"Longitude": 29.5497
},
{
"Name": "Mocreachi",
"PostCode": "MD-4019",
"Latitude": 47.2756,
"Longitude": 29.3836
},
{
"Name": "Novovladimirovca",
"PostCode": "MD-4023",
"Latitude": 46.9392,
"Longitude": 29.52
},
{
"Name": "Pobeda",
"PostCode": "MD-4015",
"Latitude": 47.35,
"Longitude": 29.5
},
{
"Name": "Sipca",
"PostCode": "MD-4025",
"Latitude": 47.1689,
"Longitude": 29.5075
},
{
"Name": "Speia",
"PostCode": "MD-4024",
"Latitude": 47.0067,
"Longitude": 29.2972
},
{
"Name": "Taslic",
"PostCode": "MD-4026",
"Latitude": 47.0722,
"Longitude": 29.3953
},
{
"Name": "Teiu",
"PostCode": "MD-4027",
"Latitude": 46.9581,
"Longitude": 29.3956
},
{
"Name": "Tocmagiu",
"PostCode": "MD-4027",
"Latitude": 46.9447,
"Longitude": 29.375
},
{
"Name": "Vesioloe",
"PostCode": "MD-4028",
"Latitude": 47.2019,
"Longitude": 29.5536
},
{
"Name": "Vinogradnoe",
"PostCode": "MD-4029",
"Latitude": 47.0833,
"Longitude": 29.4919
}
]
}
]
}
]
},
{
"Name": "Cimislia",
"Provinces": [
{
"Communities": [
{
"Places": [
{
"Name": "Abaclia",
"PostCode": "MD-6711",
"Latitude": 46.3619,
"Longitude": 28.9419
},
{
"Name": "Albina",
"PostCode": "MD-4111",
"Latitude": 46.7044,
"Longitude": 28.6419
},
{
"Name": "Artimonovca",
"PostCode": "MD-4123",
"Latitude": 46.5964,
"Longitude": 28.5908
},
{
"Name": "Basarabeasca 1",
"PostCode": "MD-6701",
"Latitude": 46.4167,
"Longitude": 28.9167
},
{
"Name": "Bascalia",
"PostCode": "MD-6712",
"Latitude": 46.3083,
"Longitude": 28.7844
},
{
"Name": "Batir",
"PostCode": "MD-7712",
"Latitude": 46.5775,
"Longitude": 29.0042
},
{
"Name": "Bogdanovca",
"PostCode": "MD-6715",
"Latitude": 46.5122,
"Longitude": 28.9342
},
{
"Name": "Bogdanovca Noua",
"PostCode": "MD-4112",
"Latitude": 46.4933,
"Longitude": 28.8444
},
{
"Name": "Bogdanovca Veche",
"PostCode": "MD-4112",
"Latitude": 46.4756,
"Longitude": 28.8256
},
{
"Name": "Carabetovca",
"PostCode": "MD-6713",
"Latitude": 46.4139,
"Longitude": 28.9128
},
{
"Name": "Carabiber",
"PostCode": "MD-6715",
"Latitude": 46.4722,
"Longitude": 28.9956
},
{
"Name": "Cenac",
"PostCode": "MD-4113",
"Latitude": 46.4753,
"Longitude": 28.6419
},
{
"Name": "Cimislia",
"PostCode": "MD-4101",
"Latitude": 46.52,
"Longitude": 28.7842
},
{
"Name": "Ciucur-Mingir",
"PostCode": "MD-4114",
"Latitude": 46.4408,
"Longitude": 28.7558
},
{
"Name": "Codreni",
"PostCode": "MD-7718",
"Latitude": 46.6756,
"Longitude": 28.8836
},
{
"Name": "Costangalia",
"PostCode": "MD-4115",
"Latitude": 46.6167,
"Longitude": 28.8031
},
{
"Name": "Dimitrovca",
"PostCode": "MD-4131",
"Latitude": 46.4853,
"Longitude": 28.7181
},
{
"Name": "Ecaterinovca",
"PostCode": "MD-4116",
"Latitude": 46.5839,
"Longitude": 28.7494
},
{
"Name": "Fetita",
"PostCode": "MD-4111",
"Latitude": 46.6933,
"Longitude": 28.6731
},
{
"Name": "Gradiste",
"PostCode": "MD-4117",
"Latitude": 46.6078,
"Longitude": 28.7589
},
{
"Name": "Gura Galbenei",
"PostCode": "MD-4118",
"Latitude": 46.6981,
"Longitude": 28.7058
},
{
"Name": "Hirtop",
"PostCode": "MD-4119",
"Latitude": 46.6522,
"Longitude": 28.685
},
{
"Name": "Ialpug",
"PostCode": "MD-4119",
"Latitude": 46.6517,
"Longitude": 28.5897
},
{
"Name": "Ialpujeni",
"PostCode": "MD-4120",
"Latitude": 46.5981,
"Longitude": 28.6186
},
{
"Name": "Iordanovca",
"PostCode": "MD-6714",
"Latitude": 46.3939,
"Longitude": 28.9092
},
{
"Name": "Iserlia",
"PostCode": "MD-6715",
"Latitude": 46.4864,
"Longitude": 28.9539
},
{
"Name": "Iurievca",
"PostCode": "MD-4121",
"Latitude": 46.6681,
"Longitude": 28.7642
},
{
"Name": "Ivanovca",
"PostCode": "MD-6715",
"Latitude": 46.5064,
"Longitude": 28.9492
},
{
"Name": "Ivanovca Noua",
"PostCode": "MD-4122",
"Latitude": 46.7456,
"Longitude": 28.6953
},
{
"Name": "Javgur",
"PostCode": "MD-4123",
"Latitude": 46.5392,
"Longitude": 28.6161
},
{
"Name": "Lipoveni",
"PostCode": "MD-4124",
"Latitude": 46.7342,
"Longitude": 28.7619
},
{
"Name": "Marienfeld",
"PostCode": "MD-4120",
"Latitude": 46.5981,
"Longitude": 28.6186
},
{
"Name": "Maximeni",
"PostCode": "MD-4123",
"Latitude": 46.5717,
"Longitude": 28.5969
},
{
"Name": "Mereni",
"PostCode": "MD-4111",
"Latitude": 46.6747,
"Longitude": 28.6492
},
{
"Name": "Mihailovca",
"PostCode": "MD-4125",
"Latitude": 46.5511,
"Longitude": 28.9319
},
{
"Name": "Munteni",
"PostCode": "MD-4124",
"Latitude": 46.7092,
"Longitude": 28.7747
},
{
"Name": "Porumbrei",
"PostCode": "MD-4126",
"Latitude": 46.6917,
"Longitude": 28.8161
},
{
"Name": "Prisaca",
"PostCode": "MD-4119",
"Latitude": 46.6561,
"Longitude": 28.6025
},
{
"Name": "Sadaclia",
"PostCode": "MD-6716",
"Latitude": 46.4492,
"Longitude": 28.8786
},
{
"Name": "Sagaidac",
"PostCode": "MD-4127",
"Latitude": 46.6617,
"Longitude": 28.8458
},
{
"Name": "Sagaidacul Nou",
"PostCode": "MD-7718",
"Latitude": 46.6931,
"Longitude": 28.8508
},
{
"Name": "Satul Nou",
"PostCode": "MD-4128",
"Latitude": 46.6178,
"Longitude": 28.9078
},
{
"Name": "Schinosica",
"PostCode": "MD-4124",
"Latitude": 46.7278,
"Longitude": 28.7875
},
{
"Name": "Selemet",
"PostCode": "MD-4129",
"Latitude": 46.5778,
"Longitude": 28.9264
},
{
"Name": "Suric",
"PostCode": "MD-4130",
"Latitude": 46.6303,
"Longitude": 28.8747
},
{
"Name": "Topala",
"PostCode": "MD-4131",
"Latitude": 46.4619,
"Longitude": 28.6744
},
{
"Name": "Troitcoe",
"PostCode": "MD-6717",
"Latitude": 46.5128,
"Longitude": 29.0281
},
{
"Name": "Valea Perjei",
"PostCode": "MD-4132",
"Latitude": 46.6231,
"Longitude": 28.7264
},
{
"Name": "Zloti",
"PostCode": "MD-7718",
"Latitude": 46.6939,
"Longitude": 28.8975
}
]
}
]
}
]
},
{
"Name": "Stefan-Voda",
"Provinces": [
{
"Communities": [
{
"Places": [
{
"Name": "Alava",
"PostCode": "MD-4211",
"Latitude": 46.5092,
"Longitude": 29.5678
},
{
"Name": "Antonesti",
"PostCode": "MD-4212",
"Latitude": 46.4961,
"Longitude": 29.8486
},
{
"Name": "Brezoaia",
"PostCode": "MD-4213",
"Latitude": 46.5208,
"Longitude": 29.4539
},
{
"Name": "Caplani",
"PostCode": "MD-4215",
"Latitude": 46.3872,
"Longitude": 29.8714
},
{
"Name": "Carahasani",
"PostCode": "MD-4214",
"Latitude": 46.4675,
"Longitude": 29.8122
},
{
"Name": "Cioburciu",
"PostCode": "MD-4216",
"Latitude": 46.6003,
"Longitude": 29.7083
},
{
"Name": "Copciac",
"PostCode": "MD-4217",
"Latitude": 46.5134,
"Longitude": 29.6677
},
{
"Name": "Crocmaz",
"PostCode": "MD-4218",
"Latitude": 46.4519,
"Longitude": 29.9825
},
{
"Name": "Ermoclia",
"PostCode": "MD-4219",
"Latitude": 46.5808,
"Longitude": 29.5097
},
{
"Name": "Festelita",
"PostCode": "MD-4220",
"Latitude": 46.5444,
"Longitude": 29.5656
},
{
"Name": "Hadjilari",
"PostCode": "MD-4224",
"Latitude": 46.5206,
"Longitude": 29.6014
},
{
"Name": "Lazo",
"PostCode": "MD-4222",
"Latitude": 46.4878,
"Longitude": 29.5764
},
{
"Name": "Marianca De Jos",
"PostCode": "MD-4224",
"Latitude": 46.5206,
"Longitude": 29.6014
},
{
"Name": "Olanesti 1",
"PostCode": "MD-4225",
"Latitude": 46.4956,
"Longitude": 29.9181
},
{
"Name": "Olanesti 2",
"PostCode": "MD-4226",
"Latitude": 46.4956,
"Longitude": 29.9181
},
{
"Name": "Palanca",
"PostCode": "MD-4227",
"Latitude": 46.4086,
"Longitude": 30.0961
},
{
"Name": "Popeasca",
"PostCode": "MD-4228",
"Latitude": 46.6025,
"Longitude": 29.5369
},
{
"Name": "Purcari",
"PostCode": "MD-4229",
"Latitude": 46.5369,
"Longitude": 29.8603
},
{
"Name": "Rascaieti",
"PostCode": "MD-4230",
"Latitude": 46.5744,
"Longitude": 29.7761
},
{
"Name": "Rascaietii Noi",
"PostCode": "MD-4231",
"Latitude": 46.5325,
"Longitude": 29.7733
},
{
"Name": "Semionovca",
"PostCode": "MD-4232",
"Latitude": 46.5167,
"Longitude": 29.5122
},
{
"Name": "Slobozia",
"PostCode": "MD-4233",
"Latitude": 46.5081,
"Longitude": 29.7403
},
{
"Name": "Stefanesti",
"PostCode": "MD-4236",
"Latitude": 46.4458,
"Longitude": 29.6878
},
{
"Name": "Stefan-Voda",
"PostCode": "MD-4201",
"Latitude": 46.5153,
"Longitude": 29.6631
},
{
"Name": "Talmaza 1",
"PostCode": "MD-4237",
"Latitude": 46.6358,
"Longitude": 29.6647
},
{
"Name": "Talmaza 2",
"PostCode": "MD-4238",
"Latitude": 46.6358,
"Longitude": 29.6647
},
{
"Name": "Tudora",
"PostCode": "MD-4239",
"Latitude": 46.435,
"Longitude": 30.0425
},
{
"Name": "Viisoara",
"PostCode": "MD-4240",
"Latitude": 46.5469,
"Longitude": 29.8256
},
{
"Name": "Volintiri",
"PostCode": "MD-4241",
"Latitude": 46.4267,
"Longitude": 29.6058
}
]
}
]
}
]
},
{
"Name": "Causeni",
"Provinces": [
{
"Communities": [
{
"Places": [
{
"Name": "Baccealia",
"PostCode": "MD-4311",
"Latitude": 46.6911,
"Longitude": 29.2806
},
{
"Name": "Baimaclia",
"PostCode": "MD-7711",
"Latitude": 46.5908,
"Longitude": 29.0928
},
{
"Name": "Baurci",
"PostCode": "MD-7714",
"Latitude": 46.6581,
"Longitude": 28.9522
},
{
"Name": "Cainari",
"PostCode": "MD-7701",
"Latitude": 46.6789,
"Longitude": 29.0461
},
{
"Name": "Cainari Gara",
"PostCode": "MD-7702",
"Latitude": 46.6442,
"Longitude": 29.4139
},
{
"Name": "Causeni 1",
"PostCode": "MD-4301",
"Latitude": 46.6442,
"Longitude": 29.4139
},
{
"Name": "Causeni 2",
"PostCode": "MD-4302",
"Latitude": 46.6442,
"Longitude": 29.4139
},
{
"Name": "Causeni 3",
"PostCode": "MD-4303",
"Latitude": 46.6442,
"Longitude": 29.4139
},
{
"Name": "Causeni 4",
"PostCode": "MD-4304",
"Latitude": 46.6442,
"Longitude": 29.4139
},
{
"Name": "Chircaesti",
"PostCode": "MD-4312",
"Latitude": 46.7181,
"Longitude": 29.5217
},
{
"Name": "Chircaestii Noi",
"PostCode": "MD-7714",
"Latitude": 46.6581,
"Longitude": 28.9522
},
{
"Name": "Cirnateni",
"PostCode": "MD-4313",
"Latitude": 46.6544,
"Longitude": 29.4919
},
{
"Name": "Cirnatenii Noi",
"PostCode": "MD-7717",
"Latitude": 46.6494,
"Longitude": 29.135
},
{
"Name": "Ciuflesti",
"PostCode": "MD-7716",
"Latitude": 46.6242,
"Longitude": 29.0019
},
{
"Name": "Constantinovca",
"PostCode": "MD-7719",
"Latitude": 46.7211,
"Longitude": 29.1094
},
{
"Name": "Copanca",
"PostCode": "MD-5716",
"Latitude": 46.7169,
"Longitude": 29.6206
},
{
"Name": "Coscalia",
"PostCode": "MD-7720",
"Latitude": 46.6856,
"Longitude": 29.1569
},
{
"Name": "Firladeni",
"PostCode": "MD-4314",
"Latitude": 46.7883,
"Longitude": 29.3669
},
{
"Name": "Firladenii Noi",
"PostCode": "MD-4315",
"Latitude": 46.7525,
"Longitude": 29.3011
},
{
"Name": "Florica",
"PostCode": "MD-7726",
"Latitude": 46.69,
"Longitude": 29.2222
},
{
"Name": "Gradinita",
"PostCode": "MD-4221",
"Latitude": 46.6531,
"Longitude": 29.5842
},
{
"Name": "Grigorievca",
"PostCode": "MD-4318",
"Latitude": 46.6897,
"Longitude": 29.3294
},
{
"Name": "Hagimus",
"PostCode": "MD-4319",
"Latitude": 46.7564,
"Longitude": 29.4797
},
{
"Name": "Leuntea",
"PostCode": "MD-4223",
"Latitude": 46.6628,
"Longitude": 29.5878
},
{
"Name": "Marianca De Sus",
"PostCode": "MD-4329",
"Latitude": 46.6483,
"Longitude": 29.3119
},
{
"Name": "Opaci",
"PostCode": "MD-4320",
"Latitude": 46.5797,
"Longitude": 29.35
},
{
"Name": "Pervomaisc",
"PostCode": "MD-7725",
"Latitude": 46.7011,
"Longitude": 29.0892
},
{
"Name": "Plop",
"PostCode": "MD-7726",
"Latitude": 46.7108,
"Longitude": 29.2197
},
{
"Name": "Plop-Stiubei",
"PostCode": "MD-4321",
"Latitude": 46.675,
"Longitude": 29.5144
},
{
"Name": "Saiti",
"PostCode": "MD-4322",
"Latitude": 46.4967,
"Longitude": 29.4075
},
{
"Name": "Salcuta",
"PostCode": "MD-4323",
"Latitude": 46.595,
"Longitude": 29.2444
},
{
"Name": "Salcuta Noua",
"PostCode": "MD-7717",
"Latitude": 46.6322,
"Longitude": 29.1906
},
{
"Name": "Stefanesti",
"PostCode": "MD-4325",
"Latitude": 46.7067,
"Longitude": 29.3708
},
{
"Name": "Surchiceni",
"PostCode": "MD-7729",
"Latitude": 46.6228,
"Longitude": 29.0536
},
{
"Name": "Tanatari",
"PostCode": "MD-4324",
"Latitude": 46.7222,
"Longitude": 29.4156
},
{
"Name": "Tanatarii Noi",
"PostCode": "MD-4325",
"Latitude": 46.7367,
"Longitude": 29.3208
},
{
"Name": "Taraclia",
"PostCode": "MD-7730",
"Latitude": 46.5703,
"Longitude": 29.1156
},
{
"Name": "Tocuz",
"PostCode": "MD-4326",
"Latitude": 46.5239,
"Longitude": 29.2961
},
{
"Name": "Tricolici",
"PostCode": "MD-4311",
"Latitude": 46.7372,
"Longitude": 29.2397
},
{
"Name": "Ucrainca",
"PostCode": "MD-4327",
"Latitude": 46.4311,
"Longitude": 29.2728
},
{
"Name": "Ursoaia",
"PostCode": "MD-4328",
"Latitude": 46.7058,
"Longitude": 29.4456
},
{
"Name": "Ursoaia Noua",
"PostCode": "MD-4325",
"Latitude": 46.7269,
"Longitude": 29.3389
},
{
"Name": "Valea Verde",
"PostCode": "MD-4223",
"Latitude": 46.6933,
"Longitude": 29.5883
},
{
"Name": "Zaim",
"PostCode": "MD-4329",
"Latitude": 46.6194,
"Longitude": 29.3464
},
{
"Name": "Zaim Loc.C.F.",
"PostCode": "MD-4329",
"Latitude": 46.6339,
"Longitude": 29.3292
},
{
"Name": "Zviozdocica",
"PostCode": "MD-4327",
"Latitude": 46.4797,
"Longitude": 29.3242
}
]
}
]
}
]
},
{
"Name": "Dubasari Tr.",
"Provinces": [
{
"Communities": [
{
"Places": [
{
"Name": "Afanasievca",
"PostCode": "MD-4513",
"Latitude": 47.3231,
"Longitude": 29.2536
},
{
"Name": "Alexandrovca Noua",
"PostCode": "MD-4513",
"Latitude": 47.3,
"Longitude": 29.3025
},
{
"Name": "Bosca",
"PostCode": "MD-4522",
"Latitude": 47.3061,
"Longitude": 29.3644
},
{
"Name": "Calinovca",
"PostCode": "MD-4513",
"Latitude": 47.3117,
"Longitude": 29.25
},
{
"Name": "Coicova",
"PostCode": "MD-4511",
"Latitude": 47.4117,
"Longitude": 29.2425
},
{
"Name": "Comisarovca Noua",
"PostCode": "MD-4512",
"Latitude": 47.3306,
"Longitude": 29.3472
},
{
"Name": "Cosnita Noua",
"PostCode": "MD-4512",
"Latitude": 47.3133,
"Longitude": 29.3308
},
{
"Name": "Crasnii Vinogradari",
"PostCode": "MD-4513",
"Latitude": 47.2983,
"Longitude": 29.2781
},
{
"Name": "Doibani 1",
"PostCode": "MD-4514",
"Latitude": 47.39,
"Longitude": 29.2064
},
{
"Name": "Doibani 2",
"PostCode": "MD-4515",
"Latitude": 47.4036,
"Longitude": 29.2136
},
{
"Name": "Dubasari 1",
"PostCode": "MD-4501",
"Latitude": 47.2772,
"Longitude": 29.1397
},
{
"Name": "Dubasari 2",
"PostCode": "MD-4502",
"Latitude": 47.7591,
"Longitude": 27.932
},
{
"Name": "Dubau",
"PostCode": "MD-4516",
"Latitude": 47.4303,
"Longitude": 29.2792
},
{
"Name": "Dzerjinscoe",
"PostCode": "MD-4517",
"Latitude": 47.2217,
"Longitude": 29.1811
},
{
"Name": "Goian",
"PostCode": "MD-4518",
"Latitude": 47.3772,
"Longitude": 29.16
},
{
"Name": "Goianul Nou",
"PostCode": "MD-4516",
"Latitude": 47.3853,
"Longitude": 29.3203
},
{
"Name": "Harmatca",
"PostCode": "MD-4519",
"Latitude": 47.4233,
"Longitude": 29.0928
},
{
"Name": "Iagorlic",
"PostCode": "MD-4518",
"Latitude": 47.3922,
"Longitude": 29.1608
},
{
"Name": "Lunga",
"PostCode": "MD-4520",
"Latitude": 47.2461,
"Longitude": 29.1667
},
{
"Name": "Lunga Noua",
"PostCode": "MD-4513",
"Latitude": 47.2858,
"Longitude": 29.2747
},
{
"Name": "Mahala",
"PostCode": "MD-4501",
"Latitude": 47.2667,
"Longitude": 29.1497
},
{
"Name": "Pohrebea Noua",
"PostCode": "MD-4522",
"Latitude": 47.3103,
"Longitude": 29.3783
},
{
"Name": "Roghi",
"PostCode": "MD-4523",
"Latitude": 47.3203,
"Longitude": 29.1356
},
{
"Name": "Tibuleuca",
"PostCode": "MD-4524",
"Latitude": 47.4056,
"Longitude": 29.1044
},
{
"Name": "Vasilievca",
"PostCode": "MD-4512",
"Latitude": 47.368899999999996,
"Longitude": 29.305
}
]
}
]
}
]
},
{
"Name": "Dubasari Cr.",
"Provinces": [
{
"Communities": [
{
"Places": [
{
"Name": "Cocieri",
"PostCode": "MD-4571",
"Latitude": 47.3075,
"Longitude": 29.1103
},
{
"Name": "Corjova",
"PostCode": "MD-4501",
"Latitude": 47.2878,
"Longitude": 29.1297
},
{
"Name": "Cosnita",
"PostCode": "MD-4572",
"Latitude": 47.1475,
"Longitude": 29.1333
},
{
"Name": "Dorotcaia",
"PostCode": "MD-4573",
"Latitude": 47.1722,
"Longitude": 29.2028
},
{
"Name": "Holercani",
"PostCode": "MD-4574",
"Latitude": 47.3119,
"Longitude": 29.0689
}
]
}
]
}
]
},
{
"Name": "Criuleni-Dub.",
"Provinces": [
{
"Communities": [
{
"Places": [
{
"Name": "Molovata Noua",
"PostCode": "MD-4576",
"Latitude": 47.3469,
"Longitude": 29.0911
},
{
"Name": "Oxentea",
"PostCode": "MD-4578",
"Latitude": 47.3833,
"Longitude": 29.1186
},
{
"Name": "Pirita",
"PostCode": "MD-4579",
"Latitude": 47.1008,
"Longitude": 29.1192
},
{
"Name": "Pohrebea",
"PostCode": "MD-4572",
"Latitude": 47.1819,
"Longitude": 29.1661
}
]
}
]
}
]
},
{
"Name": "Criuleni- Dub.",
"Provinces": [
{
"Communities": [
{
"Places": [
{
"Name": "Marcauti",
"PostCode": "MD-4575",
"Latitude": 47.3553,
"Longitude": 29.0583
},
{
"Name": "Molovata",
"PostCode": "MD-4577",
"Latitude": 47.3489,
"Longitude": 29.1144
}
]
}
]
}
]
},
{
"Name": "Criulenii-Dub.",
"Provinces": [
{
"PostCode": "MD-4580",
"Communities": [
{
"Places": [
{
"Name": "Ustia",
"PostCode": "MD-4580",
"Latitude": 47.2567,
"Longitude": 29.125
}
],
"PostCode": "MD-4580"
}
]
}
]
},
{
"Name": "Edinet",
"Provinces": [
{
"Communities": [
{
"Places": [
{
"Name": "Alexandreni",
"PostCode": "MD-4612",
"Latitude": 48.1472,
"Longitude": 27.2583
},
{
"Name": "Alexeevca",
"PostCode": "MD-4611",
"Latitude": 48.0936,
"Longitude": 27.2608
},
{
"Name": "Badragii Noi",
"PostCode": "MD-4614",
"Latitude": 48.0642,
"Longitude": 27.0747
},
{
"Name": "Badragii Vechi",
"PostCode": "MD-4613",
"Latitude": 48.0378,
"Longitude": 27.1064
},
{
"Name": "Blesteni",
"PostCode": "MD-4615",
"Latitude": 48.1225,
"Longitude": 27.2194
},
{
"Name": "Bratuseni",
"PostCode": "MD-4617",
"Latitude": 48.0772,
"Longitude": 27.3958
},
{
"Name": "Bratusenii Noi",
"PostCode": "MD-4618",
"Latitude": 48.0611,
"Longitude": 27.4839
},
{
"Name": "Brinzeni",
"PostCode": "MD-4619",
"Latitude": 48.0842,
"Longitude": 27.1756
},
{
"Name": "Burlanesti",
"PostCode": "MD-4620",
"Latitude": 48.1261,
"Longitude": 27.1303
},
{
"Name": "Buzdugeni",
"PostCode": "MD-4620",
"Latitude": 48.1078,
"Longitude": 27.1558
},
{
"Name": "Cepeleuti",
"PostCode": "MD-7115",
"Latitude": 48.3025,
"Longitude": 27.3072
},
{
"Name": "Chetrosica Noua",
"PostCode": "MD-4621",
"Latitude": 48.1192,
"Longitude": 27.4717
},
{
"Name": "Chetrosica Veche",
"PostCode": "MD-4626",
"Latitude": 48.1108,
"Longitude": 27.3853
},
{
"Name": "Chiurt",
"PostCode": "MD-4622",
"Latitude": 48.0594,
"Longitude": 27.3411
},
{
"Name": "Cliscauti",
"PostCode": "MD-4633",
"Latitude": 48.2844,
"Longitude": 27.3286
},
{
"Name": "Constantinovca",
"PostCode": "MD-4623",
"Latitude": 48.2492,
"Longitude": 27.11
},
{
"Name": "Corpaci",
"PostCode": "MD-4624",
"Latitude": 48.0069,
"Longitude": 27.1383
},
{
"Name": "Cuconestii Noi",
"PostCode": "MD-4625",
"Latitude": 47.9889,
"Longitude": 27.2075
},
{
"Name": "Cuconestii Vechi",
"PostCode": "MD-4625",
"Latitude": 47.9656,
"Longitude": 27.1567
},
{
"Name": "Cupcini",
"PostCode": "MD-4626",
"Latitude": 48.1108,
"Longitude": 27.3853
},
{
"Name": "Edinet",
"PostCode": "MD-4601",
"Latitude": 48.1681,
"Longitude": 27.305
},
{
"Name": "Fetesti",
"PostCode": "MD-4627",
"Latitude": 48.1667,
"Longitude": 27.0967
},
{
"Name": "Fintina Alba",
"PostCode": "MD-4628",
"Latitude": 48.1631,
"Longitude": 27.4283
},
{
"Name": "Gaspar",
"PostCode": "MD-4629",
"Latitude": 48.1569,
"Longitude": 27.4975
},
{
"Name": "Goleni",
"PostCode": "MD-4630",
"Latitude": 48.2106,
"Longitude": 27.4328
},
{
"Name": "Gordinesti",
"PostCode": "MD-4631",
"Latitude": 48.1644,
"Longitude": 27.165
},
{
"Name": "Gordinestii Noi",
"PostCode": "MD-4631",
"Latitude": 48.1706,
"Longitude": 27.2286
},
{
"Name": "Hancauti",
"PostCode": "MD-4632",
"Latitude": 48.0486,
"Longitude": 27.1889
},
{
"Name": "Heredeuca",
"PostCode": "MD-4620",
"Latitude": 48.1169,
"Longitude": 27.1431
},
{
"Name": "Hincauti",
"PostCode": "MD-4633",
"Latitude": 48.2739,
"Longitude": 27.3106
},
{
"Name": "Hlinaia",
"PostCode": "MD-4634",
"Latitude": 48.2233,
"Longitude": 27.2533
},
{
"Name": "Hlinaia Mica",
"PostCode": "MD-4638",
"Latitude": 48.2536,
"Longitude": 27.2694
},
{
"Name": "Iachimeni",
"PostCode": "MD-4623",
"Latitude": 48.2492,
"Longitude": 27.11
},
{
"Name": "Lopatnic",
"PostCode": "MD-4635",
"Latitude": 48.1364,
"Longitude": 27.0522
},
{
"Name": "Onesti",
"PostCode": "MD-4646",
"Latitude": 48.0642,
"Longitude": 27.2722
},
{
"Name": "Parcova",
"PostCode": "MD-4636",
"Latitude": 48.1531,
"Longitude": 27.4039
},
{
"Name": "Poiana",
"PostCode": "MD-4637",
"Latitude": 48.2522,
"Longitude": 27.3519
},
{
"Name": "Ringaci",
"PostCode": "MD-7115",
"Latitude": 48.3122,
"Longitude": 27.3361
},
{
"Name": "Rotunda",
"PostCode": "MD-4638",
"Latitude": 48.2442,
"Longitude": 27.3064
},
{
"Name": "Ruseni",
"PostCode": "MD-4639",
"Latitude": 48.2017,
"Longitude": 27.4158
},
{
"Name": "Slobodca",
"PostCode": "MD-4639",
"Latitude": 48.2075,
"Longitude": 27.3686
},
{
"Name": "Sofrincani",
"PostCode": "MD-4641",
"Latitude": 48.0489,
"Longitude": 27.4139
},
{
"Name": "Stolniceni",
"PostCode": "MD-4640",
"Latitude": 48.0381,
"Longitude": 27.3481
},
{
"Name": "Terebna",
"PostCode": "MD-4642",
"Latitude": 48.05,
"Longitude": 27.2514
},
{
"Name": "Tirnova",
"PostCode": "MD-4643",
"Latitude": 48.2067,
"Longitude": 27.1797
},
{
"Name": "Trinca",
"PostCode": "MD-4644",
"Latitude": 48.2083,
"Longitude": 27.1122
},
{
"Name": "Vancicauti",
"PostCode": "MD-7115",
"Latitude": 48.3074,
"Longitude": 27.3217
},
{
"Name": "Viisoara",
"PostCode": "MD-4645",
"Latitude": 48.0947,
"Longitude": 27.0447
},
{
"Name": "Volodeni",
"PostCode": "MD-4615",
"Latitude": 48.1142,
"Longitude": 27.2014
},
{
"Name": "Zabriceni",
"PostCode": "MD-4646",
"Latitude": 48.0728,
"Longitude": 27.2533
}
]
}
]
}
]
},
{
"Name": "Briceni",
"Provinces": [
{
"Communities": [
{
"Places": [
{
"Name": "Balasinesti",
"PostCode": "MD-4711",
"Latitude": 48.243899999999996,
"Longitude": 26.9606
},
{
"Name": "Balcauti",
"PostCode": "MD-4712",
"Latitude": 48.2833,
"Longitude": 27.2022
},
{
"Name": "Beleavinti",
"PostCode": "MD-4725",
"Latitude": 48.2886,
"Longitude": 26.9461
},
{
"Name": "Berlinti",
"PostCode": "MD-4713",
"Latitude": 48.3119,
"Longitude": 26.9358
},
{
"Name": "Bezeda",
"PostCode": "MD-4714",
"Latitude": 48.1608,
"Longitude": 27.0011
},
{
"Name": "Bocicauti",
"PostCode": "MD-4712",
"Latitude": 48.2922,
"Longitude": 27.1747
},
{
"Name": "Bogdanesti",
"PostCode": "MD-4715",
"Latitude": 48.1403,
"Longitude": 27.0019
},
{
"Name": "Briceni 1",
"PostCode": "MD-4701",
"Latitude": 48.3628,
"Longitude": 27.085
},
{
"Name": "Bulboaca",
"PostCode": "MD-4716",
"Latitude": 48.3717,
"Longitude": 27.1983
},
{
"Name": "Caracusenii Noi",
"PostCode": "MD-4717",
"Latitude": 48.3253,
"Longitude": 27.0242
},
{
"Name": "Caracusenii Vechi",
"PostCode": "MD-4718",
"Latitude": 48.27,
"Longitude": 27.0758
},
{
"Name": "Chirilovca",
"PostCode": "MD-4729",
"Latitude": 48.2586,
"Longitude": 27.1783
},
{
"Name": "Colicauti",
"PostCode": "MD-4719",
"Latitude": 48.3089,
"Longitude": 27.1539
},
{
"Name": "Corjeuti",
"PostCode": "MD-4720",
"Latitude": 48.2228,
"Longitude": 27.0422
},
{
"Name": "Coteala",
"PostCode": "MD-4721",
"Latitude": 48.3308,
"Longitude": 26.8619
},
{
"Name": "Cotiujeni",
"PostCode": "MD-4722",
"Latitude": 48.3444,
"Longitude": 26.9381
},
{
"Name": "Criva",
"PostCode": "MD-4723",
"Latitude": 48.2711,
"Longitude": 26.6722
},
{
"Name": "Drepcauti",
"PostCode": "MD-4724",
"Latitude": 48.2717,
"Longitude": 26.7242
},
{
"Name": "Ghilavat",
"PostCode": "MD-4725",
"Latitude": 48.2886,
"Longitude": 26.9461
},
{
"Name": "Grimancauti",
"PostCode": "MD-4726",
"Latitude": 48.3894,
"Longitude": 27.0897
},
{
"Name": "Grimesti",
"PostCode": "MD-4715",
"Latitude": 48.1331,
"Longitude": 26.9744
},
{
"Name": "Groznita",
"PostCode": "MD-4727",
"Latitude": 48.26,
"Longitude": 27.2372
},
{
"Name": "Halahora De Jos",
"PostCode": "MD-4728",
"Latitude": 48.2314,
"Longitude": 27.1697
},
{
"Name": "Halahora De Sus",
"PostCode": "MD-4729",
"Latitude": 48.2586,
"Longitude": 27.1783
},
{
"Name": "Hlina",
"PostCode": "MD-4730",
"Latitude": 48.2911,
"Longitude": 26.8781
},
{
"Name": "Larga",
"PostCode": "MD-4731",
"Latitude": 48.3722,
"Longitude": 26.8433
},
{
"Name": "Lipcani 1",
"PostCode": "MD-4706",
"Latitude": 48.2653,
"Longitude": 26.8039
},
{
"Name": "Lipcani 2",
"PostCode": "MD-4707",
"Latitude": 48.2653,
"Longitude": 26.8039
},
{
"Name": "Lipcani 3",
"PostCode": "MD-4708",
"Latitude": 48.2653,
"Longitude": 26.8039
},
{
"Name": "Marcauti",
"PostCode": "MD-4732",
"Latitude": 48.3139,
"Longitude": 27.2261
},
{
"Name": "Marcautii Noi",
"PostCode": "MD-4732",
"Latitude": 48.2975,
"Longitude": 27.2281
},
{
"Name": "Medveja",
"PostCode": "MD-4733",
"Latitude": 48.3619,
"Longitude": 26.7864
},
{
"Name": "Mihaileni",
"PostCode": "MD-4734",
"Latitude": 48.2472,
"Longitude": 27.2508
},
{
"Name": "Pavlovca",
"PostCode": "MD-4731",
"Latitude": 48.3808,
"Longitude": 26.8747
},
{
"Name": "Pererita",
"PostCode": "MD-4735",
"Latitude": 48.2072,
"Longitude": 26.9158
},
{
"Name": "Sirauti",
"PostCode": "MD-4736",
"Latitude": 48.2372,
"Longitude": 26.8425
},
{
"Name": "Slobozia-Medveja",
"PostCode": "MD-4733",
"Latitude": 48.3806,
"Longitude": 26.7525
},
{
"Name": "Slobozia-Sirauti",
"PostCode": "MD-4737",
"Latitude": 48.2425,
"Longitude": 26.8725
},
{
"Name": "Tabani",
"PostCode": "MD-4738",
"Latitude": 48.3122,
"Longitude": 27.0975
},
{
"Name": "Tetcani",
"PostCode": "MD-4739",
"Latitude": 48.1817,
"Longitude": 26.9756
},
{
"Name": "Trebisauti",
"PostCode": "MD-4740",
"Latitude": 48.3558,
"Longitude": 27.1908
},
{
"Name": "Trestieni",
"PostCode": "MD-4741",
"Latitude": 48.2697,
"Longitude": 27.1322
}
]
}
]
}
]
},
{
"Name": "Criuleni",
"Provinces": [
{
"Communities": [
{
"Places": [
{
"Name": "Balabanesti",
"PostCode": "MD-4811",
"Latitude": 47.0683,
"Longitude": 29.1319
},
{
"Name": "Balasesti",
"PostCode": "MD-4836",
"Latitude": 47.2656,
"Longitude": 29.0425
},
{
"Name": "Baltata",
"PostCode": "MD-4812",
"Latitude": 47.0514,
"Longitude": 29.0478
},
{
"Name": "Baltata De Sus",
"PostCode": "MD-4812",
"Latitude": 47.0664,
"Longitude": 29.0356
},
{
"Name": "Boscana",
"PostCode": "MD-4813",
"Latitude": 47.1244,
"Longitude": 29.0072
},
{
"Name": "Chetroasa",
"PostCode": "MD-4816",
"Latitude": 47.1222,
"Longitude": 28.9786
},
{
"Name": "Cimiseni",
"PostCode": "MD-4815",
"Latitude": 47.0119,
"Longitude": 29.1294
},
{
"Name": "Ciopleni",
"PostCode": "MD-4816",
"Latitude": 47.1303,
"Longitude": 28.9497
},
{
"Name": "Corjova",
"PostCode": "MD-4817",
"Latitude": 47.0964,
"Longitude": 29.1717
},
{
"Name": "Cosernita",
"PostCode": "MD-4818",
"Latitude": 47.1192,
"Longitude": 29.0472
},
{
"Name": "Criuleni",
"PostCode": "MD-4801",
"Latitude": 47.2144,
"Longitude": 29.1614
},
{
"Name": "Cruglic",
"PostCode": "MD-4819",
"Latitude": 47.2197,
"Longitude": 29.0267
},
{
"Name": "Dolinnoe",
"PostCode": "MD-4820",
"Latitude": 47.0222,
"Longitude": 28.995
},
{
"Name": "Drasliceni",
"PostCode": "MD-4821",
"Latitude": 47.1556,
"Longitude": 28.78
},
{
"Name": "Dubasarii Vechi",
"PostCode": "MD-4822",
"Latitude": 47.1339,
"Longitude": 29.1978
},
{
"Name": "Hirtopul Mare",
"PostCode": "MD-4824",
"Latitude": 47.2264,
"Longitude": 28.9428
},
{
"Name": "Hirtopul Mic",
"PostCode": "MD-4825",
"Latitude": 47.2469,
"Longitude": 28.9283
},
{
"Name": "Hrusova",
"PostCode": "MD-4816",
"Latitude": 47.1367,
"Longitude": 28.9519
},
{
"Name": "Isnovat",
"PostCode": "MD-4826",
"Latitude": 47.2314,
"Longitude": 28.8636
},
{
"Name": "Izbiste",
"PostCode": "MD-4827",
"Latitude": 47.2206,
"Longitude": 28.9964
},
{
"Name": "Jevreni",
"PostCode": "MD-4828",
"Latitude": 47.2583,
"Longitude": 29.0639
},
{
"Name": "Loganesti",
"PostCode": "MD-4835",
"Latitude": 47.1725,
"Longitude": 28.7842
},
{
"Name": "Magdacesti",
"PostCode": "MD-4829",
"Latitude": 47.1339,
"Longitude": 28.8256
},
{
"Name": "Malaiesti",
"PostCode": "MD-4811",
"Latitude": 47.0853,
"Longitude": 29.1333
},
{
"Name": "Malaiestii Noi",
"PostCode": "MD-4811",
"Latitude": 47.0768,
"Longitude": 29.1326
},
{
"Name": "Mardareuca",
"PostCode": "MD-4813",
"Latitude": 47.1175,
"Longitude": 29.0022
},
{
"Name": "Mascauti",
"PostCode": "MD-4830",
"Latitude": 47.2906,
"Longitude": 29.0039
},
{
"Name": "Miclesti",
"PostCode": "MD-4831",
"Latitude": 47.2386,
"Longitude": 28.8067
},
{
"Name": "Ohrincea",
"PostCode": "MD-4832",
"Latitude": 47.2208,
"Longitude": 29.0611
},
{
"Name": "Onitcani",
"PostCode": "MD-4833",
"Latitude": 47.1458,
"Longitude": 29.0686
},
{
"Name": "Pascani",
"PostCode": "MD-4834",
"Latitude": 47.1672,
"Longitude": 28.8325
},
{
"Name": "Porumbeni",
"PostCode": "MD-4829",
"Latitude": 47.1339,
"Longitude": 28.8256
},
{
"Name": "Raculesti",
"PostCode": "MD-4836",
"Latitude": 47.2706,
"Longitude": 29.0675
},
{
"Name": "Ratus",
"PostCode": "MD-4835",
"Latitude": 47.165,
"Longitude": 28.8067
},
{
"Name": "Riscova",
"PostCode": "MD-4837",
"Latitude": 47.2525,
"Longitude": 28.8461
},
{
"Name": "Sagaidac",
"PostCode": "MD-4812",
"Latitude": 47.0272,
"Longitude": 29.0239
},
{
"Name": "Sagaidacul De Sus",
"PostCode": "MD-4812",
"Latitude": 47.0497,
"Longitude": 29.0253
},
{
"Name": "Slobozia-Dusca",
"PostCode": "MD-4838",
"Latitude": 47.1644,
"Longitude": 29.12
},
{
"Name": "Stetcani",
"PostCode": "MD-4840",
"Latitude": 47.2364,
"Longitude": 28.825
},
{
"Name": "Valea Colonitei",
"PostCode": "MD-4820",
"Latitude": 47.01,
"Longitude": 28.9867
},
{
"Name": "Valea Satului",
"PostCode": "MD-4820",
"Latitude": 47.0353,
"Longitude": 29.0058
},
{
"Name": "Zaicana",
"PostCode": "MD-4841",
"Latitude": 47.1686,
"Longitude": 28.9522
},
{
"Name": "Zolonceni",
"PostCode": "MD-4801",
"Latitude": 47.2461,
"Longitude": 29.1383
}
]
}
]
}
]
},
{
"Name": "Glodeni",
"Provinces": [
{
"Communities": [
{
"Places": [
{
"Name": "Balatina",
"PostCode": "MD-4911",
"Latitude": 47.6933,
"Longitude": 27.3472
},
{
"Name": "Bisericani",
"PostCode": "MD-4912",
"Latitude": 47.6414,
"Longitude": 27.3289
},
{
"Name": "Brinzeni",
"PostCode": "MD-4915",
"Latitude": 47.8142,
"Longitude": 27.3639
},
{
"Name": "Butesti",
"PostCode": "MD-4913",
"Latitude": 47.7953,
"Longitude": 27.3333
},
{
"Name": "Cajba",
"PostCode": "MD-4914",
"Latitude": 47.7281,
"Longitude": 27.4397
},
{
"Name": "Camenca",
"PostCode": "MD-4915",
"Latitude": 47.8278,
"Longitude": 27.3642
},
{
"Name": "Camencuta",
"PostCode": "MD-4920",
"Latitude": 47.8386,
"Longitude": 27.4458
},
{
"Name": "Ciuciulea",
"PostCode": "MD-4916",
"Latitude": 47.6578,
"Longitude": 27.4839
},
{
"Name": "Clococenii Vechi",
"PostCode": "MD-4911",
"Latitude": 47.7164,
"Longitude": 27.4158
},
{
"Name": "Cobani",
"PostCode": "MD-4918",
"Latitude": 47.7661,
"Longitude": 27.3208
},
{
"Name": "Cot",
"PostCode": "MD-4912",
"Latitude": 47.6536,
"Longitude": 27.34
},
{
"Name": "Cuhnesti",
"PostCode": "MD-4919",
"Latitude": 47.6558,
"Longitude": 27.3744
},
{
"Name": "Danu",
"PostCode": "MD-4920",
"Latitude": 47.8306,
"Longitude": 27.4961
},
{
"Name": "Dusmani",
"PostCode": "MD-4921",
"Latitude": 47.7169,
"Longitude": 27.4814
},
{
"Name": "Fundurii Noi",
"PostCode": "MD-4922",
"Latitude": 47.7536,
"Longitude": 27.6569
},
{
"Name": "Fundurii Vechi",
"PostCode": "MD-4923",
"Latitude": 47.7411,
"Longitude": 27.7144
},
{
"Name": "Glodeni",
"PostCode": "MD-4901",
"Latitude": 47.7708,
"Longitude": 27.5144
},
{
"Name": "Hijdieni",
"PostCode": "MD-4924",
"Latitude": 47.7697,
"Longitude": 27.4603
},
{
"Name": "Iabloana",
"PostCode": "MD-4925",
"Latitude": 47.8061,
"Longitude": 27.6239
},
{
"Name": "Limbenii Noi",
"PostCode": "MD-4926",
"Latitude": 47.7239,
"Longitude": 27.6289
},
{
"Name": "Limbenii Vechi",
"PostCode": "MD-4927",
"Latitude": 47.6892,
"Longitude": 27.6103
},
{
"Name": "Lipovat",
"PostCode": "MD-4911",
"Latitude": 47.7275,
"Longitude": 27.3719
},
{
"Name": "Moara Domneasca",
"PostCode": "MD-4933",
"Latitude": 47.6228,
"Longitude": 27.4167
},
{
"Name": "Molesti",
"PostCode": "MD-4913",
"Latitude": 47.8008,
"Longitude": 27.3486
},
{
"Name": "Nicolaevca",
"PostCode": "MD-4928",
"Latitude": 47.8231,
"Longitude": 27.5536
},
{
"Name": "Petrunea",
"PostCode": "MD-4929",
"Latitude": 47.7475,
"Longitude": 27.5797
},
{
"Name": "Serghieni",
"PostCode": "MD-4912",
"Latitude": 47.6467,
"Longitude": 27.3522
},
{
"Name": "Soroca",
"PostCode": "MD-4901",
"Latitude": 47.805,
"Longitude": 27.5625
},
{
"Name": "Stircea",
"PostCode": "MD-4901",
"Latitude": 47.7922,
"Longitude": 27.5275
},
{
"Name": "Sturzovca",
"PostCode": "MD-4931",
"Latitude": 47.8017,
"Longitude": 27.7189
},
{
"Name": "Tomestii Noi",
"PostCode": "MD-4934",
"Latitude": 47.6667,
"Longitude": 27.35
},
{
"Name": "Tomestii Vechi",
"PostCode": "MD-4912",
"Latitude": 47.6567,
"Longitude": 27.3422
},
{
"Name": "Ustia",
"PostCode": "MD-4932",
"Latitude": 47.6619,
"Longitude": 27.595
},
{
"Name": "Viisoara",
"PostCode": "MD-4933",
"Latitude": 47.6158,
"Longitude": 27.4478
}
]
}
]
}
]
},
{
"Name": "Floresti",
"Provinces": [
{
"Communities": [
{
"Places": [
{
"Name": "Alexandrovca",
"PostCode": "MD-5039",
"Latitude": 47.9553,
"Longitude": 28.1289
},
{
"Name": "Alexeevca",
"PostCode": "MD-5011",
"Latitude": 47.9439,
"Longitude": 28.2858
},
{
"Name": "Antonovca",
"PostCode": "MD-5032",
"Latitude": 47.7869,
"Longitude": 28.2142
},
{
"Name": "Bahrinesti",
"PostCode": "MD-5012",
"Latitude": 47.8564,
"Longitude": 28.2422
},
{
"Name": "Bezeni",
"PostCode": "MD-5027",
"Latitude": 47.9822,
"Longitude": 28.1206
},
{
"Name": "Bobulesti",
"PostCode": "MD-5023",
"Latitude": 47.8794,
"Longitude": 28.3525
},
{
"Name": "Bursuc",
"PostCode": "MD-6645",
"Latitude": 47.9733,
"Longitude": 28.7356
},
{
"Name": "Capresti",
"PostCode": "MD-5033",
"Latitude": 47.7542,
"Longitude": 28.4633
},
{
"Name": "Casunca",
"PostCode": "MD-5013",
"Latitude": 47.785,
"Longitude": 28.3942
},
{
"Name": "Cenusa",
"PostCode": "MD-5036",
"Latitude": 47.8475,
"Longitude": 28.3864
},
{
"Name": "Cernita",
"PostCode": "MD-5014",
"Latitude": 47.9658,
"Longitude": 28.4669
},
{
"Name": "Chirilovca",
"PostCode": "MD-5019",
"Latitude": 47.9606,
"Longitude": 28.3292
},
{
"Name": "Ciripcau",
"PostCode": "MD-5015",
"Latitude": 47.9839,
"Longitude": 28.3822
},
{
"Name": "Ciutulesti",
"PostCode": "MD-5016",
"Latitude": 47.7614,
"Longitude": 28.3956
},
{
"Name": "Cosernita",
"PostCode": "MD-5017",
"Latitude": 47.9381,
"Longitude": 28.4644
},
{
"Name": "Cuhurestii De Jos",
"PostCode": "MD-6643",
"Latitude": 47.9294,
"Longitude": 28.5919
},
{
"Name": "Cuhurestii De Sus",
"PostCode": "MD-6642",
"Latitude": 47.9211,
"Longitude": 28.5536
},
{
"Name": "Cunicea",
"PostCode": "MD-6644",
"Latitude": 47.9092,
"Longitude": 28.6444
},
{
"Name": "Domulgeni",
"PostCode": "MD-5018",
"Latitude": 47.7936,
"Longitude": 28.4339
},
{
"Name": "Dumitreni",
"PostCode": "MD-5019",
"Latitude": 47.9714,
"Longitude": 28.3189
},
{
"Name": "Fagadau",
"PostCode": "MD-6652",
"Latitude": 47.9369,
"Longitude": 28.5253
},
{
"Name": "Floresti 1",
"PostCode": "MD-5001",
"Latitude": 47.8933,
"Longitude": 28.3014
},
{
"Name": "Floresti 2",
"PostCode": "MD-5002",
"Latitude": 47.8933,
"Longitude": 28.3014
},
{
"Name": "Frumusica",
"PostCode": "MD-5020",
"Latitude": 47.9617,
"Longitude": 28.1181
},
{
"Name": "Frumusica Noua",
"PostCode": "MD-5020",
"Latitude": 47.8772,
"Longitude": 28.0619
},
{
"Name": "Frunzesti",
"PostCode": "MD-5032",
"Latitude": 47.7847,
"Longitude": 28.1864
},
{
"Name": "Ghindesti Oras",
"PostCode": "MD-5021",
"Latitude": 47.8436,
"Longitude": 28.4053
},
{
"Name": "Ghindesti Sat",
"PostCode": "MD-5022",
"Latitude": 47.8933,
"Longitude": 28.3014
},
{
"Name": "Gura Cainarului",
"PostCode": "MD-5024",
"Latitude": 47.8669,
"Longitude": 28.1839
},
{
"Name": "Gura Camencii",
"PostCode": "MD-5023",
"Latitude": 47.8906,
"Longitude": 28.3569
},
{
"Name": "Gvozdova",
"PostCode": "MD-5023",
"Latitude": 47.9039,
"Longitude": 28.3536
},
{
"Name": "Hirtop",
"PostCode": "MD-5025",
"Latitude": 47.8828,
"Longitude": 28.46
},
{
"Name": "Iliciovca",
"PostCode": "MD-5026",
"Latitude": 48.1553,
"Longitude": 27.8794
},
{
"Name": "Ion Voda",
"PostCode": "MD-5031",
"Latitude": 47.7258,
"Longitude": 28.3283
},
{
"Name": "Ivanovca",
"PostCode": "MD-5037",
"Latitude": 47.9103,
"Longitude": 28.1586
},
{
"Name": "Izvoare",
"PostCode": "MD-5027",
"Latitude": 47.9772,
"Longitude": 28.1328
},
{
"Name": "Japca",
"PostCode": "MD-6645",
"Latitude": 47.9819,
"Longitude": 28.7036
},
{
"Name": "Lunga",
"PostCode": "MD-5007",
"Latitude": 47.8583,
"Longitude": 28.2197
},
{
"Name": "Maiscoe",
"PostCode": "MD-5029",
"Latitude": 47.9111,
"Longitude": 28.0492
},
{
"Name": "Marculesti(Oras)",
"PostCode": "MD-5008",
"Latitude": 47.8686,
"Longitude": 28.2475
},
{
"Name": "Marculesti(Sat)",
"PostCode": "MD-5030",
"Latitude": 47.8686,
"Longitude": 28.2475
},
{
"Name": "Marinesti",
"PostCode": "MD-5016",
"Latitude": 47.7314,
"Longitude": 28.3839
},
{
"Name": "Mihailovca",
"PostCode": "MD-5032",
"Latitude": 47.8017,
"Longitude": 28.2625
},
{
"Name": "Napadova",
"PostCode": "MD-6646",
"Latitude": 48.0194,
"Longitude": 28.5983
},
{
"Name": "Nicolaevca",
"PostCode": "MD-5031",
"Latitude": 47.7539,
"Longitude": 28.2969
},
{
"Name": "Nicolaevca",
"PostCode": "MD-6642",
"Latitude": 47.9192,
"Longitude": 28.5272
},
{
"Name": "Octeabrscoe",
"PostCode": "MD-6652",
"Latitude": 47.7128,
"Longitude": 27.9514
},
{
"Name": "Prajila",
"PostCode": "MD-5032",
"Latitude": 47.8414,
"Longitude": 28.2039
},
{
"Name": "Prodanesti",
"PostCode": "MD-5033",
"Latitude": 47.7431,
"Longitude": 28.4822
},
{
"Name": "Prodanestii Vechi",
"PostCode": "MD-5038",
"Latitude": 47.7161,
"Longitude": 28.4428
},
{
"Name": "Putinesti",
"PostCode": "MD-5034",
"Latitude": 47.835,
"Longitude": 28.1242
},
{
"Name": "Radulenii Noi",
"PostCode": "MD-5011",
"Latitude": 47.9567,
"Longitude": 28.2464
},
{
"Name": "Radulenii Vechi",
"PostCode": "MD-5035",
"Latitude": 47.9856,
"Longitude": 28.2636
},
{
"Name": "Rosietici",
"PostCode": "MD-5036",
"Latitude": 47.8311,
"Longitude": 28.4031
},
{
"Name": "Rosieticii Vechi",
"PostCode": "MD-5036",
"Latitude": 47.8131,
"Longitude": 28.4
},
{
"Name": "Sanatauca",
"PostCode": "MD-6648",
"Latitude": 48.0122,
"Longitude": 28.6822
},
{
"Name": "Scaieni",
"PostCode": "MD-5027",
"Latitude": 47.9694,
"Longitude": 28.1261
},
{
"Name": "Sevirova",
"PostCode": "MD-5037",
"Latitude": 47.9272,
"Longitude": 28.1508
},
{
"Name": "Sirbesti",
"PostCode": "MD-5031",
"Latitude": 47.8022,
"Longitude": 28.3247
},
{
"Name": "Stefanesti",
"PostCode": "MD-5038",
"Latitude": 47.7336,
"Longitude": 28.4389
},
{
"Name": "Stirceni",
"PostCode": "MD-5023",
"Latitude": 47.8756,
"Longitude": 28.3642
},
{
"Name": "Temeleuti",
"PostCode": "MD-6649",
"Latitude": 47.98,
"Longitude": 28.4972
},
{
"Name": "Tipordei",
"PostCode": "MD-6651",
"Latitude": 47.9353,
"Longitude": 28.6142
},
{
"Name": "Tira",
"PostCode": "MD-5021",
"Latitude": 47.8436,
"Longitude": 28.4053
},
{
"Name": "Tira Loc.C.F.",
"PostCode": "MD-5021",
"Latitude": 47.8436,
"Longitude": 28.4053
},
{
"Name": "Tirgul-Vertiujeni",
"PostCode": "MD-6650",
"Latitude": 48.0308,
"Longitude": 28.5347
},
{
"Name": "Trifanesti",
"PostCode": "MD-5039",
"Latitude": 47.7444,
"Longitude": 28.0983
},
{
"Name": "Unchitesti",
"PostCode": "MD-6642",
"Latitude": 47.9292,
"Longitude": 28.5258
},
{
"Name": "Unchitesti Loc.C.F.",
"PostCode": "MD-6642",
"Latitude": 47.9231,
"Longitude": 28.5356
},
{
"Name": "Valea Radoaiei",
"PostCode": "MD-5031",
"Latitude": 47.7556,
"Longitude": 28.2639
},
{
"Name": "Varvareuca",
"PostCode": "MD-5040",
"Latitude": 47.8789,
"Longitude": 28.3103
},
{
"Name": "Vascauti",
"PostCode": "MD-6652",
"Latitude": 47.9539,
"Longitude": 28.5117
},
{
"Name": "Vertiujeni",
"PostCode": "MD-6653",
"Latitude": 47.9933,
"Longitude": 28.54
},
{
"Name": "Zaluceni",
"PostCode": "MD-6654",
"Latitude": 48.0494,
"Longitude": 28.5564
},
{
"Name": "Zarojeni",
"PostCode": "MD-5024",
"Latitude": 47.8669,
"Longitude": 28.1611
}
]
}
]
}
]
},
{
"Name": "Singerei",
"Provinces": [
{
"Communities": [
{
"Places": [
{
"Name": "Alexandreni",
"PostCode": "MD-6211",
"Latitude": 47.8056,
"Longitude": 28.0758
},
{
"Name": "Alexeuca",
"PostCode": "MD-6220",
"Latitude": 47.6872,
"Longitude": 28.2936
},
{
"Name": "Antonovca",
"PostCode": "MD-6235",
"Latitude": 47.6775,
"Longitude": 28.2383
},
{
"Name": "Balasesti",
"PostCode": "MD-6212",
"Latitude": 47.6611,
"Longitude": 28.3525
},
{
"Name": "Bilicenii Noi",
"PostCode": "MD-6213",
"Latitude": 47.6969,
"Longitude": 28.0367
},
{
"Name": "Bilicenii Vechi",
"PostCode": "MD-6214",
"Latitude": 47.6564,
"Longitude": 28.0472
},
{
"Name": "Biruinta",
"PostCode": "MD-6202",
"Latitude": 47.8161,
"Longitude": 28.0686
},
{
"Name": "Bobletici",
"PostCode": "MD-6219",
"Latitude": 47.4664,
"Longitude": 28.0544
},
{
"Name": "Bocancea-Schit",
"PostCode": "MD-6224",
"Latitude": 47.5111,
"Longitude": 28.1358
},
{
"Name": "Brejeni",
"PostCode": "MD-6217",
"Latitude": 47.5817,
"Longitude": 28.1403
},
{
"Name": "Bursuceni",
"PostCode": "MD-6215",
"Latitude": 47.4897,
"Longitude": 28.0139
},
{
"Name": "Chirileni",
"PostCode": "MD-6228",
"Latitude": 47.6911,
"Longitude": 28.1978
},
{
"Name": "Chiscareni",
"PostCode": "MD-6216",
"Latitude": 47.5594,
"Longitude": 28.0156
},
{
"Name": "Ciuciuieni",
"PostCode": "MD-6217",
"Latitude": 47.5581,
"Longitude": 28.1281
},
{
"Name": "Cliscauti",
"PostCode": "MD-6230",
"Latitude": 47.6097,
"Longitude": 28.2919
},
{
"Name": "Coada Iazului",
"PostCode": "MD-6214",
"Latitude": 47.6553,
"Longitude": 27.9936
},
{
"Name": "Copaceni",
"PostCode": "MD-6218",
"Latitude": 47.6178,
"Longitude": 28.2344
},
{
"Name": "Coscodeni",
"PostCode": "MD-6219",
"Latitude": 47.4886,
"Longitude": 28.0536
},
{
"Name": "Cotiujenii Mici",
"PostCode": "MD-6220",
"Latitude": 47.7033,
"Longitude": 28.3081
},
{
"Name": "Cotovca",
"PostCode": "MD-6222",
"Latitude": 47.8522,
"Longitude": 27.975
},
{
"Name": "Cubolta",
"PostCode": "MD-6221",
"Latitude": 47.8742,
"Longitude": 28.0389
},
{
"Name": "Dobrogea Noua",
"PostCode": "MD-6222",
"Latitude": 47.8278,
"Longitude": 27.9483
},
{
"Name": "Dobrogea Veche",
"PostCode": "MD-6222",
"Latitude": 47.8417,
"Longitude": 27.9319
},
{
"Name": "Draganesti",
"PostCode": "MD-6223",
"Latitude": 47.7214,
"Longitude": 28.2542
},
{
"Name": "Dumbravita",
"PostCode": "MD-6224",
"Latitude": 47.4808,
"Longitude": 28.1106
},
{
"Name": "Evghenievca",
"PostCode": "MD-6235",
"Latitude": 47.67,
"Longitude": 28.2231
},
{
"Name": "Flaminzeni",
"PostCode": "MD-6219",
"Latitude": 47.4989,
"Longitude": 28.09
},
{
"Name": "Gavrilovca",
"PostCode": "MD-6235",
"Latitude": 47.6439,
"Longitude": 28.2583
},
{
"Name": "Grigorauca",
"PostCode": "MD-6225",
"Latitude": 47.6214,
"Longitude": 28.1981
},
{
"Name": "Grigoresti",
"PostCode": "MD-6211",
"Latitude": 47.8003,
"Longitude": 28.0606
},
{
"Name": "Gura-Oituz",
"PostCode": "MD-6220",
"Latitude": 47.7019,
"Longitude": 28.3475
},
{
"Name": "Heciul Nou",
"PostCode": "MD-6226",
"Latitude": 47.7742,
"Longitude": 28.0606
},
{
"Name": "Heciul Vechi",
"PostCode": "MD-6211",
"Latitude": 47.7983,
"Longitude": 28.1006
},
{
"Name": "Iezarenii Noi",
"PostCode": "MD-6227",
"Latitude": 47.5886,
"Longitude": 28.0972
},
{
"Name": "Iezarenii Vechi",
"PostCode": "MD-6227",
"Latitude": 47.5653,
"Longitude": 28.0894
},
{
"Name": "Izvoare",
"PostCode": "MD-6228",
"Latitude": 47.7194,
"Longitude": 28.1967
},
{
"Name": "Lipovanca",
"PostCode": "MD-6213",
"Latitude": 47.6789,
"Longitude": 27.9844
},
{
"Name": "Marasesti",
"PostCode": "MD-5020",
"Latitude": 47.8642,
"Longitude": 28.0692
},
{
"Name": "Marinesti",
"PostCode": "MD-6229",
"Latitude": 47.725,
"Longitude": 28.0589
},
{
"Name": "Mihailovca",
"PostCode": "MD-6230",
"Latitude": 47.5914,
"Longitude": 28.2603
},
{
"Name": "Mindrestii Noi",
"PostCode": "MD-6231",
"Latitude": 47.7169,
"Longitude": 28.0336
},
{
"Name": "Nicolaevca",
"PostCode": "MD-6232",
"Latitude": 47.7539,
"Longitude": 28.2969
},
{
"Name": "Octeabrscoe",
"PostCode": "MD-6233",
"Latitude": 47.7128,
"Longitude": 27.9514
},
{
"Name": "Palaria",
"PostCode": "MD-6241",
"Latitude": 47.6867,
"Longitude": 27.9394
},
{
"Name": "Pepeni",
"PostCode": "MD-6234",
"Latitude": 47.6386,
"Longitude": 28.3406
},
{
"Name": "Pepenii Noi",
"PostCode": "MD-6234",
"Latitude": 47.6525,
"Longitude": 28.3397
},
{
"Name": "Petropavlovca",
"PostCode": "MD-6225",
"Latitude": 47.5925,
"Longitude": 28.2108
},
{
"Name": "Petrovca",
"PostCode": "MD-6235",
"Latitude": 47.6608,
"Longitude": 28.225
},
{
"Name": "Prepelita",
"PostCode": "MD-6236",
"Latitude": 47.5897,
"Longitude": 28.3414
},
{
"Name": "Radoaia",
"PostCode": "MD-6237",
"Latitude": 47.7281,
"Longitude": 28.16
},
{
"Name": "Razalai",
"PostCode": "MD-6234",
"Latitude": 47.6422,
"Longitude": 28.3592
},
{
"Name": "Romanovca",
"PostCode": "MD-6234",
"Latitude": 47.6581,
"Longitude": 28.2961
},
{
"Name": "Sacarovca",
"PostCode": "MD-6223",
"Latitude": 47.7069,
"Longitude": 28.2103
},
{
"Name": "Sestaci",
"PostCode": "MD-6230",
"Latitude": 47.6236,
"Longitude": 28.2911
},
{
"Name": "Singerei",
"PostCode": "MD-6201",
"Latitude": 47.6406,
"Longitude": 28.1419
},
{
"Name": "Singereii Noi",
"PostCode": "MD-6238",
"Latitude": 47.7208,
"Longitude": 28.0867
},
{
"Name": "Slobozia-Chiscareni",
"PostCode": "MD-6239",
"Latitude": 47.5731,
"Longitude": 28.0097
},
{
"Name": "Slobozia-Magura",
"PostCode": "MD-6215",
"Latitude": 47.485,
"Longitude": 27.965
},
{
"Name": "Sloveanca",
"PostCode": "MD-6212",
"Latitude": 47.6589,
"Longitude": 28.3822
},
{
"Name": "Tambula",
"PostCode": "MD-6241",
"Latitude": 47.6961,
"Longitude": 27.9247
},
{
"Name": "Taura Noua",
"PostCode": "MD-6240",
"Latitude": 47.5483,
"Longitude": 27.9081
},
{
"Name": "Taura Veche",
"PostCode": "MD-6240",
"Latitude": 47.5369,
"Longitude": 27.9519
},
{
"Name": "Tiplesti",
"PostCode": "MD-6242",
"Latitude": 47.8233,
"Longitude": 28.1547
},
{
"Name": "Tipletesti",
"PostCode": "MD-6242",
"Latitude": 47.8183,
"Longitude": 28.1236
},
{
"Name": "Trifanesti",
"PostCode": "MD-6238",
"Latitude": 47.7444,
"Longitude": 28.0983
},
{
"Name": "Valea Lui Vlad",
"PostCode": "MD-6224",
"Latitude": 47.4828,
"Longitude": 28.1308
},
{
"Name": "Valea Norocului",
"PostCode": "MD-6243",
"Latitude": 47.7656,
"Longitude": 28.2025
},
{
"Name": "Vladimireuca",
"PostCode": "MD-6235",
"Latitude": 47.6569,
"Longitude": 28.2322
},
{
"Name": "Vranesti",
"PostCode": "MD-6203",
"Latitude": 47.6231,
"Longitude": 28.1019
}
]
}
]
}
]
},
{
"Name": "Donduseni",
"Provinces": [
{
"Communities": [
{
"Places": [
{
"Name": "Arionesti",
"PostCode": "MD-5111",
"Latitude": 48.3753,
"Longitude": 27.8431
},
{
"Name": "Baraboi",
"PostCode": "MD-5112",
"Latitude": 48.0858,
"Longitude": 27.6175
},
{
"Name": "Boroseni",
"PostCode": "MD-5121",
"Latitude": 47.9872,
"Longitude": 27.4725
},
{
"Name": "Braicau",
"PostCode": "MD-5113",
"Latitude": 48.3039,
"Longitude": 27.7317
},
{
"Name": "Briceni",
"PostCode": "MD-5114",
"Latitude": 48.3572,
"Longitude": 27.7036
},
{
"Name": "Briceva",
"PostCode": "MD-5115",
"Latitude": 48.1147,
"Longitude": 27.6486
},
{
"Name": "Caraiman",
"PostCode": "MD-5123",
"Latitude": 48.1067,
"Longitude": 27.5614
},
{
"Name": "Cernoleuca",
"PostCode": "MD-5116",
"Latitude": 48.3133,
"Longitude": 27.5544
},
{
"Name": "Climauti",
"PostCode": "MD-5117",
"Latitude": 48.3108,
"Longitude": 27.6075
},
{
"Name": "Codrenii Noi",
"PostCode": "MD-5118",
"Latitude": 48.1433,
"Longitude": 27.5728
},
{
"Name": "Corbu",
"PostCode": "MD-5119",
"Latitude": 48.2672,
"Longitude": 27.5725
},
{
"Name": "Criscauti",
"PostCode": "MD-5120",
"Latitude": 48.2664,
"Longitude": 27.8542
},
{
"Name": "Donduseni",
"PostCode": "MD-5106",
"Latitude": 48.2244,
"Longitude": 27.5853
},
{
"Name": "Donduseni 1",
"PostCode": "MD-5101",
"Latitude": 48.2427,
"Longitude": 27.6101
},
{
"Name": "Donduseni 2",
"PostCode": "MD-5102",
"Latitude": 48.2427,
"Longitude": 27.6101
},
{
"Name": "Elenovca",
"PostCode": "MD-5115",
"Latitude": 48.1247,
"Longitude": 27.6261
},
{
"Name": "Elizavetovca",
"PostCode": "MD-5121",
"Latitude": 48.2808,
"Longitude": 27.7086
},
{
"Name": "Frasin",
"PostCode": "MD-5123",
"Latitude": 48.1383,
"Longitude": 27.5444
},
{
"Name": "Horodiste",
"PostCode": "MD-5124",
"Latitude": 48.265,
"Longitude": 27.7892
},
{
"Name": "Mosana",
"PostCode": "MD-5127",
"Latitude": 48.3233,
"Longitude": 27.6892
},
{
"Name": "Octeabrscoe",
"PostCode": "MD-5127",
"Latitude": 48.3397,
"Longitude": 27.6683
},
{
"Name": "Pivniceni",
"PostCode": "MD-5129",
"Latitude": 48.2806,
"Longitude": 27.5261
},
{
"Name": "Plop",
"PostCode": "MD-5130",
"Latitude": 48.2553,
"Longitude": 27.7003
},
{
"Name": "Pocrovca",
"PostCode": "MD-5131",
"Latitude": 48.3314,
"Longitude": 27.8569
},
{
"Name": "Rediul Mare",
"PostCode": "MD-5132",
"Latitude": 48.2286,
"Longitude": 27.5153
},
{
"Name": "Scaieni",
"PostCode": "MD-5134",
"Latitude": 48.1764,
"Longitude": 27.5767
},
{
"Name": "Sudarca",
"PostCode": "MD-5136",
"Latitude": 48.3053,
"Longitude": 27.7869
},
{
"Name": "Taul",
"PostCode": "MD-5141",
"Latitude": 48.2158,
"Longitude": 27.6728
},
{
"Name": "Teleseuca",
"PostCode": "MD-5139",
"Latitude": 48.2789,
"Longitude": 27.8992
},
{
"Name": "Teleseuca Noua",
"PostCode": "MD-5139",
"Latitude": 48.2814,
"Longitude": 27.8886
},
{
"Name": "Tirnova",
"PostCode": "MD-5140",
"Latitude": 48.1678,
"Longitude": 27.6556
}
]
}
]
}
]
},
{
"Name": "Drochia",
"Provinces": [
{
"Communities": [
{
"Places": [
{
"Name": "Antoneuca",
"PostCode": "MD-5211",
"Latitude": 48.0764,
"Longitude": 27.6908
},
{
"Name": "Baroncea",
"PostCode": "MD-5212",
"Latitude": 48.0364,
"Longitude": 27.9133
},
{
"Name": "Baroncea Noua",
"PostCode": "MD-5202",
"Latitude": 48.0008,
"Longitude": 27.8583
},
{
"Name": "Ceapaevca",
"PostCode": "MD-5231",
"Latitude": 48.2047,
"Longitude": 27.8703
},
{
"Name": "Chetrosu",
"PostCode": "MD-5213",
"Latitude": 48.0778,
"Longitude": 27.8861
},
{
"Name": "Cotova",
"PostCode": "MD-5214",
"Latitude": 48.1631,
"Longitude": 27.9511
},
{
"Name": "Dominteni",
"PostCode": "MD-5215",
"Latitude": 47.9572,
"Longitude": 27.9544
},
{
"Name": "Drochia 1",
"PostCode": "MD-5201",
"Latitude": 48.0661,
"Longitude": 27.7994
},
{
"Name": "Drochia 2",
"PostCode": "MD-5202",
"Latitude": 48.0008,
"Longitude": 27.8583
},
{
"Name": "Drochia Sat",
"PostCode": "MD-5216",
"Latitude": 48.035,
"Longitude": 27.8161
},
{
"Name": "Fintinita",
"PostCode": "MD-5122",
"Latitude": 48.1075,
"Longitude": 27.6911
},
{
"Name": "Ghizdita Loc.C.F.",
"PostCode": "MD-5122",
"Latitude": 48.1075,
"Longitude": 27.6911
},
{
"Name": "Gribova (Nadusita)",
"PostCode": "MD-5223",
"Latitude": 48.0172,
"Longitude": 27.93
},
{
"Name": "Hasnasenii Mari",
"PostCode": "MD-5217",
"Latitude": 47.9167,
"Longitude": 27.9903
},
{
"Name": "Hasnasenii Noi",
"PostCode": "MD-5218",
"Latitude": 47.8556,
"Longitude": 27.9072
},
{
"Name": "Holosnita Noua",
"PostCode": "MD-5226",
"Latitude": 48.1161,
"Longitude": 27.9358
},
{
"Name": "Iliciovca",
"PostCode": "MD-5231",
"Latitude": 48.1553,
"Longitude": 27.8794
},
{
"Name": "Macareuca",
"PostCode": "MD-5220",
"Latitude": 48.1422,
"Longitude": 27.9717
},
{
"Name": "Maramonovca",
"PostCode": "MD-5125",
"Latitude": 48.2044,
"Longitude": 27.7958
},
{
"Name": "Miciurin",
"PostCode": "MD-5221",
"Latitude": 47.9861,
"Longitude": 27.7922
},
{
"Name": "Mindic",
"PostCode": "MD-5126",
"Latitude": 48.1511,
"Longitude": 27.7928
},
{
"Name": "Moara De Piatra",
"PostCode": "MD-5222",
"Latitude": 47.895,
"Longitude": 28.0069
},
{
"Name": "Nadusita (Gribova)",
"PostCode": "MD-5223",
"Latitude": 48.0172,
"Longitude": 27.93
},
{
"Name": "Nicoreni",
"PostCode": "MD-5224",
"Latitude": 47.9661,
"Longitude": 27.7
},
{
"Name": "Ochiul Alb",
"PostCode": "MD-5225",
"Latitude": 48.0219,
"Longitude": 27.6717
},
{
"Name": "Palanca",
"PostCode": "MD-5226",
"Latitude": 48.1228,
"Longitude": 27.9083
},
{
"Name": "Pelinia",
"PostCode": "MD-5629",
"Latitude": 47.8781,
"Longitude": 27.8344
},
{
"Name": "Pelinia Loc.C.F.",
"PostCode": "MD-5629",
"Latitude": 47.8781,
"Longitude": 27.8344
},
{
"Name": "Pervomaiscoe",
"PostCode": "MD-5227",
"Latitude": 48.0892,
"Longitude": 27.7175
},
{
"Name": "Petreni",
"PostCode": "MD-5228",
"Latitude": 47.9431,
"Longitude": 27.9567
},
{
"Name": "Popestii De Jos",
"PostCode": "MD-5229",
"Latitude": 48.0733,
"Longitude": 28.0306
},
{
"Name": "Popestii De Sus",
"PostCode": "MD-5230",
"Latitude": 48.0881,
"Longitude": 28.0256
},
{
"Name": "Popestii Noi",
"PostCode": "MD-5228",
"Latitude": 47.9758,
"Longitude": 27.9897
},
{
"Name": "Salvirii Noi",
"PostCode": "MD-5226",
"Latitude": 48.1447,
"Longitude": 27.9192
},
{
"Name": "Salvirii Vechi",
"PostCode": "MD-5231",
"Latitude": 48.1978,
"Longitude": 27.8464
},
{
"Name": "Sergheuca",
"PostCode": "MD-5227",
"Latitude": 48.0647,
"Longitude": 27.7269
},
{
"Name": "Sofia",
"PostCode": "MD-5235",
"Latitude": 47.9442,
"Longitude": 27.8675
},
{
"Name": "Suri",
"PostCode": "MD-5232",
"Latitude": 48.0964,
"Longitude": 27.8556
},
{
"Name": "Surii Noi",
"PostCode": "MD-5201",
"Latitude": 48.0661,
"Longitude": 27.7994
},
{
"Name": "Tarigrad",
"PostCode": "MD-5233",
"Latitude": 48.0447,
"Longitude": 27.7508
},
{
"Name": "Zgurita",
"PostCode": "MD-5234",
"Latitude": 48.115,
"Longitude": 28.0206
}
]
}
]
}
]
},
{
"Name": "Lazo",
"Provinces": [
{
"PostCode": "MD-5219",
"Communities": [
{
"Places": [
{
"Name": "Lazo",
"PostCode": "MD-5219",
"Latitude": 47.8892,
"Longitude": 27.925
}
],
"PostCode": "MD-5219"
}
]
}
]
},
{
"Name": "Riscani",
"Provinces": [
{
"Communities": [
{
"Places": [
{
"Name": "Alexandresti",
"PostCode": "MD-5611",
"Latitude": 47.8944,
"Longitude": 27.4311
},
{
"Name": "Alunis",
"PostCode": "MD-5612",
"Latitude": 47.8486,
"Longitude": 27.6494
},
{
"Name": "Armanca",
"PostCode": "MD-5642",
"Latitude": 47.9869,
"Longitude": 27.5269
},
{
"Name": "Avrameni",
"PostCode": "MD-5614",
"Latitude": 47.7861,
"Longitude": 27.2625
},
{
"Name": "Balanul Nou",
"PostCode": "MD-5603",
"Latitude": 47.9606,
"Longitude": 27.5025
},
{
"Name": "Borosenii Noi",
"PostCode": "MD-5613",
"Latitude": 47.9872,
"Longitude": 27.4725
},
{
"Name": "Braniste",
"PostCode": "MD-5614",
"Latitude": 47.7967,
"Longitude": 27.2558
},
{
"Name": "Bulhac",
"PostCode": "MD-5640",
"Latitude": 47.9233,
"Longitude": 27.675
},
{
"Name": "Ceparia",
"PostCode": "MD-5640",
"Latitude": 47.9322,
"Longitude": 27.7153
},
{
"Name": "Ciobanovca",
"PostCode": "MD-5621",
"Latitude": 47.8906,
"Longitude": 27.7586
},
{
"Name": "Ciubara",
"PostCode": "MD-5615",
"Latitude": 48.0778,
"Longitude": 27.5339
},
{
"Name": "Corlateni",
"PostCode": "MD-5616",
"Latitude": 47.8281,
"Longitude": 27.8392
},
{
"Name": "Costesti",
"PostCode": "MD-5617",
"Latitude": 47.8583,
"Longitude": 27.2586
},
{
"Name": "Cucuietii Noi",
"PostCode": "MD-5611",
"Latitude": 47.8944,
"Longitude": 27.42
},
{
"Name": "Cucuietii Vechi",
"PostCode": "MD-5611",
"Latitude": 47.9058,
"Longitude": 27.4356
},
{
"Name": "Damascani",
"PostCode": "MD-5618",
"Latitude": 47.8669,
"Longitude": 27.3056
},
{
"Name": "Druta",
"PostCode": "MD-5633",
"Latitude": 47.9667,
"Longitude": 27.2961
},
{
"Name": "Dumeni",
"PostCode": "MD-5619",
"Latitude": 47.9114,
"Longitude": 27.2031
},
{
"Name": "Duruitoarea",
"PostCode": "MD-5618",
"Latitude": 47.8694,
"Longitude": 27.26
},
{
"Name": "Duruitoarea Noua",
"PostCode": "MD-5619",
"Latitude": 47.8928,
"Longitude": 27.2475
},
{
"Name": "Galaseni",
"PostCode": "MD-5620",
"Latitude": 47.868899999999996,
"Longitude": 27.3425
},
{
"Name": "Grinauti",
"PostCode": "MD-5621",
"Latitude": 47.8811,
"Longitude": 27.7783
},
{
"Name": "Hiliuti",
"PostCode": "MD-5622",
"Latitude": 47.9289,
"Longitude": 27.3869
},
{
"Name": "Horodiste",
"PostCode": "MD-5623",
"Latitude": 47.9539,
"Longitude": 27.2639
},
{
"Name": "Ivanesti",
"PostCode": "MD-5614",
"Latitude": 47.8878,
"Longitude": 27.4172
},
{
"Name": "Luparia",
"PostCode": "MD-5625",
"Latitude": 47.8758,
"Longitude": 27.5539
},
{
"Name": "Malaiesti",
"PostCode": "MD-5624",
"Latitude": 47.8828,
"Longitude": 27.3497
},
{
"Name": "Malinovscoe",
"PostCode": "MD-5625",
"Latitude": 47.885,
"Longitude": 27.5075
},
{
"Name": "Mihaileni",
"PostCode": "MD-5626",
"Latitude": 48.0408,
"Longitude": 27.6139
},
{
"Name": "Mihailenii Noi",
"PostCode": "MD-5642",
"Latitude": 48.0336,
"Longitude": 27.5325
},
{
"Name": "Moseni",
"PostCode": "MD-5627",
"Latitude": 48.0278,
"Longitude": 27.4469
},
{
"Name": "Nihoreni",
"PostCode": "MD-5626",
"Latitude": 47.9356,
"Longitude": 27.5619
},
{
"Name": "Pascauti",
"PostCode": "MD-5628",
"Latitude": 47.8353,
"Longitude": 27.2808
},
{
"Name": "Petruseni",
"PostCode": "MD-5630",
"Latitude": 47.8478,
"Longitude": 27.3131
},
{
"Name": "Pirjota",
"PostCode": "MD-5631",
"Latitude": 47.9572,
"Longitude": 27.4267
},
{
"Name": "Pociumbauti",
"PostCode": "MD-5632",
"Latitude": 47.9958,
"Longitude": 27.3236
},
{
"Name": "Pociumbeni",
"PostCode": "MD-5633",
"Latitude": 47.9781,
"Longitude": 27.3033
},
{
"Name": "Proscureni",
"PostCode": "MD-5618",
"Latitude": 47.8672,
"Longitude": 27.285
},
{
"Name": "Racaria",
"PostCode": "MD-5634",
"Latitude": 47.9097,
"Longitude": 27.6147
},
{
"Name": "Ramazan",
"PostCode": "MD-5635",
"Latitude": 47.9847,
"Longitude": 27.6153
},
{
"Name": "Recea",
"PostCode": "MD-5636",
"Latitude": 47.8964,
"Longitude": 27.6719
},
{
"Name": "Reteni",
"PostCode": "MD-5614",
"Latitude": 47.8117,
"Longitude": 27.2517
},
{
"Name": "Reteni-Vasileuti",
"PostCode": "MD-5614",
"Latitude": 47.8067,
"Longitude": 27.2614
},
{
"Name": "Riscani",
"PostCode": "MD-5601",
"Latitude": 47.9572,
"Longitude": 27.5539
},
{
"Name": "Saptebani",
"PostCode": "MD-5638",
"Latitude": 47.8972,
"Longitude": 27.3517
},
{
"Name": "Singureni",
"PostCode": "MD-5616",
"Latitude": 47.8242,
"Longitude": 27.8544
},
{
"Name": "Slobozia-Recea",
"PostCode": "MD-5636",
"Latitude": 47.8533,
"Longitude": 27.7019
},
{
"Name": "Stepanovca",
"PostCode": "MD-5222",
"Latitude": 47.895,
"Longitude": 28.0069
},
{
"Name": "Stiubeieni",
"PostCode": "MD-5642",
"Latitude": 48.0317,
"Longitude": 27.5114
},
{
"Name": "Sturzeni",
"PostCode": "MD-5639",
"Latitude": 47.915,
"Longitude": 27.4606
},
{
"Name": "Sumna",
"PostCode": "MD-5640",
"Latitude": 47.9211,
"Longitude": 27.7044
},
{
"Name": "Sverdiac",
"PostCode": "MD-5637",
"Latitude": 47.8958,
"Longitude": 27.7278
},
{
"Name": "Usurei",
"PostCode": "MD-5641",
"Latitude": 47.8908,
"Longitude": 27.5953
},
{
"Name": "Varatic",
"PostCode": "MD-5643",
"Latitude": 47.9169,
"Longitude": 27.2633
},
{
"Name": "Vasileuti",
"PostCode": "MD-5642",
"Latitude": 48.0072,
"Longitude": 27.5069
},
{
"Name": "Zaicani",
"PostCode": "MD-5644",
"Latitude": 47.97,
"Longitude": 27.3678
}
]
}
]
}
]
},
{
"Name": "Canul",
"Provinces": [
{
"PostCode": "MD-5320",
"Communities": [
{
"Places": [
{
"Name": "Slobozia Mare",
"PostCode": "MD-5320",
"Latitude": 45.5764,
"Longitude": 28.1739
}
],
"PostCode": "MD-5320"
}
]
}
]
},
{
"Name": "Rezina",
"Provinces": [
{
"Communities": [
{
"Places": [
{
"Name": "Bosernita",
"PostCode": "MD-5401",
"Latitude": 47.7844,
"Longitude": 28.9806
},
{
"Name": "Buciusca",
"PostCode": "MD-5432",
"Latitude": 47.6389,
"Longitude": 28.9869
},
{
"Name": "Busauca",
"PostCode": "MD-5411",
"Latitude": 47.5936,
"Longitude": 28.7886
},
{
"Name": "Ciniseuti",
"PostCode": "MD-5412",
"Latitude": 47.6956,
"Longitude": 28.855
},
{
"Name": "Ciorna",
"PostCode": "MD-5401",
"Latitude": 47.7708,
"Longitude": 28.9747
},
{
"Name": "Cogilniceni",
"PostCode": "MD-5414",
"Latitude": 47.6347,
"Longitude": 28.8225
},
{
"Name": "Cuizauca",
"PostCode": "MD-5415",
"Latitude": 47.6144,
"Longitude": 28.8128
},
{
"Name": "Echimauti",
"PostCode": "MD-5416",
"Latitude": 47.6942,
"Longitude": 28.9003
},
{
"Name": "Ghiduleni",
"PostCode": "MD-5417",
"Latitude": 47.6108,
"Longitude": 28.7447
},
{
"Name": "Gordinesti",
"PostCode": "MD-5418",
"Latitude": 47.6967,
"Longitude": 28.8011
},
{
"Name": "Horodiste",
"PostCode": "MD-5419",
"Latitude": 47.6147,
"Longitude": 28.9431
},
{
"Name": "Ignatei",
"PostCode": "MD-5420",
"Latitude": 47.6825,
"Longitude": 28.6617
},
{
"Name": "Lalova",
"PostCode": "MD-5421",
"Latitude": 47.5639,
"Longitude": 29.0192
},
{
"Name": "Lipceni",
"PostCode": "MD-5422",
"Latitude": 47.806399999999996,
"Longitude": 28.8703
},
{
"Name": "Mateuti",
"PostCode": "MD-5423",
"Latitude": 47.8092,
"Longitude": 28.9328
},
{
"Name": "Meseni",
"PostCode": "MD-5424",
"Latitude": 47.6647,
"Longitude": 28.6381
},
{
"Name": "Mincenii De Jos",
"PostCode": "MD-5425",
"Latitude": 47.6358,
"Longitude": 28.8758
},
{
"Name": "Mincenii De Sus",
"PostCode": "MD-5425",
"Latitude": 47.6494,
"Longitude": 28.8939
},
{
"Name": "Nistreni",
"PostCode": "MD-5421",
"Latitude": 47.5411,
"Longitude": 29.01
},
{
"Name": "Otac",
"PostCode": "MD-5426",
"Latitude": 47.5894,
"Longitude": 28.8297
},
{
"Name": "Papauti",
"PostCode": "MD-5427",
"Latitude": 47.7978,
"Longitude": 28.9233
},
{
"Name": "Peciste",
"PostCode": "MD-5428",
"Latitude": 47.7156,
"Longitude": 28.7108
},
{
"Name": "Pereni",
"PostCode": "MD-5429",
"Latitude": 47.6556,
"Longitude": 28.7767
},
{
"Name": "Piscaresti",
"PostCode": "MD-5433",
"Latitude": 47.7592,
"Longitude": 28.8103
},
{
"Name": "Pripiceni-Curchi",
"PostCode": "MD-5430",
"Latitude": 47.6828,
"Longitude": 28.7836
},
{
"Name": "Pripiceni-Razesi",
"PostCode": "MD-5430",
"Latitude": 47.6858,
"Longitude": 28.7631
},
{
"Name": "Rezina 1",
"PostCode": "MD-5401",
"Latitude": 47.7776,
"Longitude": 28.9776
},
{
"Name": "Rezina 3",
"PostCode": "MD-5403",
"Latitude": 47.6667,
"Longitude": 28.8333
},
{
"Name": "Roscani",
"PostCode": "MD-5429",
"Latitude": 47.6539,
"Longitude": 28.7408
},
{
"Name": "Roscanii De Jos",
"PostCode": "MD-5417",
"Latitude": 47.6467,
"Longitude": 28.7375
},
{
"Name": "Roscanii De Sus",
"PostCode": "MD-5417",
"Latitude": 47.6289,
"Longitude": 28.7689
},
{
"Name": "Saharna",
"PostCode": "MD-5431",
"Latitude": 47.6936,
"Longitude": 28.9703
},
{
"Name": "Saharna Noua",
"PostCode": "MD-5432",
"Latitude": 47.6758,
"Longitude": 28.9561
},
{
"Name": "Sircova",
"PostCode": "MD-5433",
"Latitude": 47.7414,
"Longitude": 28.7836
},
{
"Name": "Slobozia-Horodiste",
"PostCode": "MD-5419",
"Latitude": 47.5983,
"Longitude": 28.9356
},
{
"Name": "Solonceni",
"PostCode": "MD-5434",
"Latitude": 47.8283,
"Longitude": 29.0039
},
{
"Name": "Stohnaia",
"PostCode": "MD-5400",
"Latitude": 47.6667,
"Longitude": 28.8333
},
{
"Name": "Tahnauti",
"PostCode": "MD-5437",
"Latitude": 47.7411,
"Longitude": 28.8619
},
{
"Name": "Tarasova",
"PostCode": "MD-5435",
"Latitude": 47.8772,
"Longitude": 28.9636
},
{
"Name": "Tareuca",
"PostCode": "MD-5438",
"Latitude": 47.7514,
"Longitude": 28.8783
},
{
"Name": "Tipova",
"PostCode": "MD-5421",
"Latitude": 47.605,
"Longitude": 28.9794
},
{
"Name": "Trifesti",
"PostCode": "MD-5436",
"Latitude": 47.6764,
"Longitude": 28.8028
}
]
}
]
}
]
},
{
"Name": "Ribnita Tr.",
"Provinces": [
{
"Communities": [
{
"Places": [
{
"Name": "Andreevca",
"PostCode": "MD-5511",
"Latitude": 47.7631,
"Longitude": 29.1711
},
{
"Name": "Basarabca",
"PostCode": "MD-5525",
"Latitude": 47.5764,
"Longitude": 29.1611
},
{
"Name": "Beloci",
"PostCode": "MD-5512",
"Latitude": 47.8892,
"Longitude": 28.9781
},
{
"Name": "Brosteni",
"PostCode": "MD-5513",
"Latitude": 47.8797,
"Longitude": 29.2614
},
{
"Name": "Buschi",
"PostCode": "MD-5503",
"Latitude": 47.7175,
"Longitude": 29.0778
},
{
"Name": "Butuceni",
"PostCode": "MD-5514",
"Latitude": 47.5336,
"Longitude": 29.0258
},
{
"Name": "Chirov",
"PostCode": "MD-5536",
"Latitude": 47.6511,
"Longitude": 29.0972
},
{
"Name": "Cobasna",
"PostCode": "MD-5515",
"Latitude": 47.7844,
"Longitude": 29.2061
},
{
"Name": "Cobasna Loc.C.F.",
"PostCode": "MD-5515",
"Latitude": 47.7844,
"Longitude": 29.2061
},
{
"Name": "Crasnencoe",
"PostCode": "MD-5516",
"Latitude": 47.8486,
"Longitude": 29.1397
},
{
"Name": "Dimitrova",
"PostCode": "MD-5516",
"Latitude": 47.8769,
"Longitude": 29.1433
},
{
"Name": "Ghersunovca",
"PostCode": "MD-5535",
"Latitude": 47.7211,
"Longitude": 29.1683
},
{
"Name": "Ghidirim",
"PostCode": "MD-5517",
"Latitude": 47.715,
"Longitude": 28.9747
},
{
"Name": "Haraba",
"PostCode": "MD-5518",
"Latitude": 47.8961,
"Longitude": 29.0881
},
{
"Name": "Hirjau",
"PostCode": "MD-5519",
"Latitude": 47.8069,
"Longitude": 29.0081
},
{
"Name": "Ivanovca",
"PostCode": "MD-5520",
"Latitude": 47.8778,
"Longitude": 29.1736
},
{
"Name": "Jura",
"PostCode": "MD-5521",
"Latitude": 47.5178,
"Longitude": 29.0431
},
{
"Name": "Lenin",
"PostCode": "MD-5522",
"Latitude": 47.6656,
"Longitude": 29.1903
},
{
"Name": "Lisaia Gora",
"PostCode": "MD-5533",
"Latitude": 47.7392,
"Longitude": 29.0686
},
{
"Name": "Mihailovca",
"PostCode": "MD-5524",
"Latitude": 47.4847,
"Longitude": 29.1192
},
{
"Name": "Mihailovca Noua",
"PostCode": "MD-5523",
"Latitude": 47.7953,
"Longitude": 29.1217
},
{
"Name": "Mocra",
"PostCode": "MD-5525",
"Latitude": 47.6303,
"Longitude": 29.1517
},
{
"Name": "Molochisul Mare",
"PostCode": "MD-5526",
"Latitude": 47.8564,
"Longitude": 29.0558
},
{
"Name": "Molochisul Mic",
"PostCode": "MD-5527",
"Latitude": 47.9358,
"Longitude": 29.0342
},
{
"Name": "Novaia Jizni",
"PostCode": "MD-5528",
"Latitude": 47.6578,
"Longitude": 29.0833
},
{
"Name": "Ofatinti",
"PostCode": "MD-5528",
"Latitude": 47.6689,
"Longitude": 28.9961
},
{
"Name": "Pervomaisc",
"PostCode": "MD-5522",
"Latitude": 47.68,
"Longitude": 29.2114
},
{
"Name": "Picalova",
"PostCode": "MD-5511",
"Latitude": 47.7628,
"Longitude": 29.1097
},
{
"Name": "Plopi",
"PostCode": "MD-5529",
"Latitude": 47.9553,
"Longitude": 29.1639
},
{
"Name": "Pobeda",
"PostCode": "MD-5522",
"Latitude": 47.6192,
"Longitude": 29.1942
},
{
"Name": "Popencu",
"PostCode": "MD-5530",
"Latitude": 47.5958,
"Longitude": 29.0136
},
{
"Name": "Ribnita 1",
"PostCode": "MD-5501",
"Latitude": 47.7664,
"Longitude": 29.0011
},
{
"Name": "Ribnita 2",
"PostCode": "MD-5502",
"Latitude": 47.7664,
"Longitude": 29.0011
},
{
"Name": "Ribnita 3",
"PostCode": "MD-5503",
"Latitude": 47.7175,
"Longitude": 29.0778
},
{
"Name": "Ribnita 4",
"PostCode": "MD-5504",
"Latitude": 47.7664,
"Longitude": 29.0011
},
{
"Name": "Ribnita 5",
"PostCode": "MD-5505",
"Latitude": 47.7664,
"Longitude": 29.0011
},
{
"Name": "Ribnita 6",
"PostCode": "MD-5506",
"Latitude": 47.7664,
"Longitude": 29.0011
},
{
"Name": "Ribnita 7",
"PostCode": "MD-5507",
"Latitude": 47.7664,
"Longitude": 29.0011
},
{
"Name": "Ribnita 8",
"PostCode": "MD-5508",
"Latitude": 47.7664,
"Longitude": 29.0011
},
{
"Name": "Ribnita 9",
"PostCode": "MD-5509",
"Latitude": 47.7664,
"Longitude": 29.0011
},
{
"Name": "Saratei",
"PostCode": "MD-5519",
"Latitude": 47.8283,
"Longitude": 29.0208
},
{
"Name": "Sevcenco",
"PostCode": "MD-5525",
"Latitude": 47.5878,
"Longitude": 29.1839
},
{
"Name": "Smalena",
"PostCode": "MD-5511",
"Latitude": 47.7578,
"Longitude": 29.0758
},
{
"Name": "Sovietscoe",
"PostCode": "MD-5531",
"Latitude": 47.9542,
"Longitude": 29.145
},
{
"Name": "Stanislavca",
"PostCode": "MD-5522",
"Latitude": 47.6944,
"Longitude": 29.2069
},
{
"Name": "Stroiesti",
"PostCode": "MD-5532",
"Latitude": 47.8928,
"Longitude": 28.9325
},
{
"Name": "Suhaia Ribnita",
"PostCode": "MD-5515",
"Latitude": 47.7844,
"Longitude": 29.2061
},
{
"Name": "Ulmu",
"PostCode": "MD-5533",
"Latitude": 47.7467,
"Longitude": 29.1044
},
{
"Name": "Ulmul Mic",
"PostCode": "MD-5533",
"Latitude": 47.7528,
"Longitude": 29.1219
},
{
"Name": "Vadul Turcului",
"PostCode": "MD-5534",
"Latitude": 47.9403,
"Longitude": 28.9883
},
{
"Name": "Varancau",
"PostCode": "MD-5535",
"Latitude": 47.7056,
"Longitude": 29.1192
},
{
"Name": "Vasilievca",
"PostCode": "MD-5531",
"Latitude": 47.9406,
"Longitude": 29.1094
},
{
"Name": "Vladimirovca",
"PostCode": "MD-5536",
"Latitude": 47.6231,
"Longitude": 29.0961
},
{
"Name": "Zaporojet",
"PostCode": "MD-5525",
"Latitude": 47.5903,
"Longitude": 29.1372
},
{
"Name": "Zazuleni",
"PostCode": "MD-5530",
"Latitude": 47.6167,
"Longitude": 28.9919
}
]
}
]
}
]
},
{
"Name": "Slobozia Tr.",
"Provinces": [
{
"Communities": [
{
"Places": [
{
"Name": "Andriasevca Noua",
"PostCode": "MD-5711",
"Latitude": 46.8336,
"Longitude": 29.9558
},
{
"Name": "Andriasevca Veche",
"PostCode": "MD-5711",
"Latitude": 46.8228,
"Longitude": 29.9706
},
{
"Name": "Blijnii Hutor",
"PostCode": "MD-5712",
"Latitude": 46.8842,
"Longitude": 29.6433
},
{
"Name": "Caragas",
"PostCode": "MD-5713",
"Latitude": 46.7778,
"Longitude": 29.6797
},
{
"Name": "Chitcani",
"PostCode": "MD-5714",
"Latitude": 46.7856,
"Longitude": 29.6086
},
{
"Name": "Cioburciu",
"PostCode": "MD-5715",
"Latitude": 46.6831,
"Longitude": 29.7492
},
{
"Name": "Constantinovca",
"PostCode": "MD-5728",
"Latitude": 46.8522,
"Longitude": 29.8458
},
{
"Name": "Corotna",
"PostCode": "MD-5717",
"Latitude": 46.6292,
"Longitude": 29.8594
},
{
"Name": "Crasnoe",
"PostCode": "MD-5706",
"Latitude": 46.6514,
"Longitude": 29.8047
},
{
"Name": "Frunza",
"PostCode": "MD-5718",
"Latitude": 46.8283,
"Longitude": 29.8803
},
{
"Name": "Hlinaia",
"PostCode": "MD-5719",
"Latitude": 46.6342,
"Longitude": 29.8139
},
{
"Name": "Merenesti",
"PostCode": "MD-5714",
"Latitude": 46.7767,
"Longitude": 29.5378
},
{
"Name": "Nezavertailovca",
"PostCode": "MD-5720",
"Latitude": 46.6078,
"Longitude": 29.9314
},
{
"Name": "Nicolscoie",
"PostCode": "MD-5728",
"Latitude": 46.8483,
"Longitude": 29.8353
},
{
"Name": "Novocotovsc",
"PostCode": "MD-5721",
"Latitude": 46.7656,
"Longitude": 29.955
},
{
"Name": "Novosavitcaia Loc.C.F.",
"PostCode": "MD-5718",
"Latitude": 46.8142,
"Longitude": 29.9068
},
{
"Name": "Parcani",
"PostCode": "MD-5722",
"Latitude": 46.8522,
"Longitude": 29.5097
},
{
"Name": "Pervomaisc",
"PostCode": "MD-5723",
"Latitude": 46.7339,
"Longitude": 29.9586
},
{
"Name": "Pervomaisc 1",
"PostCode": "MD-5724",
"Latitude": 46.7339,
"Longitude": 29.9586
},
{
"Name": "Prioziornoe",
"PostCode": "MD-5718",
"Latitude": 46.8,
"Longitude": 29.9333
},
{
"Name": "Slobozia 1",
"PostCode": "MD-5701",
"Latitude": 46.7281,
"Longitude": 29.7078
},
{
"Name": "Slobozia 2",
"PostCode": "MD-5702",
"Latitude": 46.7281,
"Longitude": 29.7078
},
{
"Name": "Sucleia",
"PostCode": "MD-5725",
"Latitude": 46.8211,
"Longitude": 29.6597
},
{
"Name": "Suleia 1",
"PostCode": "MD-5726",
"Latitude": 46.8211,
"Longitude": 29.6597
},
{
"Name": "Tirnauca",
"PostCode": "MD-5727",
"Latitude": 46.8114,
"Longitude": 29.5506
},
{
"Name": "Uiutnoie",
"PostCode": "MD-5728",
"Latitude": 46.8483,
"Longitude": 29.8353
},
{
"Name": "Vladimirovca",
"PostCode": "MD-5728",
"Latitude": 46.8444,
"Longitude": 29.8247
},
{
"Name": "Zahorna",
"PostCode": "MD-5714",
"Latitude": 46.7431,
"Longitude": 29.5947
}
]
}
]
}
]
},
{
"Name": "Telenesti",
"Provinces": [
{
"Communities": [
{
"Places": [
{
"Name": "Banesti",
"PostCode": "MD-5811",
"Latitude": 47.5722,
"Longitude": 28.3783
},
{
"Name": "Banestii Noi",
"PostCode": "MD-5811",
"Latitude": 47.5867,
"Longitude": 28.4033
},
{
"Name": "Bogzesti",
"PostCode": "MD-5812",
"Latitude": 47.4247,
"Longitude": 28.4283
},
{
"Name": "Bondareuca",
"PostCode": "MD-5839",
"Latitude": 47.5728,
"Longitude": 28.1658
},
{
"Name": "Brinzenii Noi",
"PostCode": "MD-5813",
"Latitude": 47.6572,
"Longitude": 28.4864
},
{
"Name": "Brinzenii Vechi",
"PostCode": "MD-5813",
"Latitude": 47.6583,
"Longitude": 28.4725
},
{
"Name": "Budai",
"PostCode": "MD-5810",
"Latitude": 47.4567,
"Longitude": 28.3494
},
{
"Name": "Cazanesti",
"PostCode": "MD-5814",
"Latitude": 47.6153,
"Longitude": 28.4728
},
{
"Name": "Chersac",
"PostCode": "MD-5827",
"Latitude": 47.6375,
"Longitude": 28.5842
},
{
"Name": "Chistelnita",
"PostCode": "MD-5815",
"Latitude": 47.5681,
"Longitude": 28.6608
},
{
"Name": "Chitcanii Noi",
"PostCode": "MD-5816",
"Latitude": 47.5653,
"Longitude": 28.4819
},
{
"Name": "Chitcanii Vechi",
"PostCode": "MD-5816",
"Latitude": 47.5928,
"Longitude": 28.5011
},
{
"Name": "Ciofu",
"PostCode": "MD-5839",
"Latitude": 47.5642,
"Longitude": 28.2217
},
{
"Name": "Cisla",
"PostCode": "MD-5817",
"Latitude": 47.4947,
"Longitude": 28.2269
},
{
"Name": "Ciulucani",
"PostCode": "MD-5840",
"Latitude": 47.5053,
"Longitude": 28.3431
},
{
"Name": "Codru",
"PostCode": "MD-5824",
"Latitude": 47.4656,
"Longitude": 28.2692
},
{
"Name": "Codrul Nou",
"PostCode": "MD-5834",
"Latitude": 47.5478,
"Longitude": 28.5772
},
{
"Name": "Coropceni",
"PostCode": "MD-5838",
"Latitude": 47.4761,
"Longitude": 28.5222
},
{
"Name": "Cozesti",
"PostCode": "MD-5839",
"Latitude": 47.5692,
"Longitude": 28.1817
},
{
"Name": "Crasnaseni",
"PostCode": "MD-5818",
"Latitude": 47.4333,
"Longitude": 28.3989
},
{
"Name": "Cucioaia",
"PostCode": "MD-5841",
"Latitude": 47.4603,
"Longitude": 28.1858
},
{
"Name": "Cucioaia Noua",
"PostCode": "MD-5841",
"Latitude": 47.4856,
"Longitude": 28.1667
},
{
"Name": "Dobrusa",
"PostCode": "MD-5827",
"Latitude": 47.6144,
"Longitude": 28.5567
},
{
"Name": "Flutura",
"PostCode": "MD-5833",
"Latitude": 47.6883,
"Longitude": 28.5475
},
{
"Name": "Ghermanesti",
"PostCode": "MD-5819",
"Latitude": 47.4403,
"Longitude": 28.5172
},
{
"Name": "Ghiliceni",
"PostCode": "MD-5820",
"Latitude": 47.4794,
"Longitude": 28.2067
},
{
"Name": "Hiriseni",
"PostCode": "MD-5821",
"Latitude": 47.4353,
"Longitude": 28.2867
},
{
"Name": "Hirtop",
"PostCode": "MD-5828",
"Latitude": 47.7053,
"Longitude": 28.4839
},
{
"Name": "Inesti",
"PostCode": "MD-5822",
"Latitude": 47.5028,
"Longitude": 28.3981
},
{
"Name": "Izvoras",
"PostCode": "MD-5801",
"Latitude": 47.4997,
"Longitude": 28.3656
},
{
"Name": "Leuseni",
"PostCode": "MD-5823",
"Latitude": 47.4828,
"Longitude": 28.4353
},
{
"Name": "Mihalasa",
"PostCode": "MD-5802",
"Latitude": 47.495,
"Longitude": 28.34
},
{
"Name": "Mihalasa Noua",
"PostCode": "MD-5802",
"Latitude": 47.5078,
"Longitude": 28.3283
},
{
"Name": "Mindra",
"PostCode": "MD-5829",
"Latitude": 47.535,
"Longitude": 28.5261
},
{
"Name": "Mindresti",
"PostCode": "MD-5825",
"Latitude": 47.5072,
"Longitude": 28.2769
},
{
"Name": "Moara",
"PostCode": "MD-5828",
"Latitude": 47.6951,
"Longitude": 28.4715
},
{
"Name": "Negureni",
"PostCode": "MD-5826",
"Latitude": 47.6017,
"Longitude": 28.5111
},
{
"Name": "Nucareni",
"PostCode": "MD-5827",
"Latitude": 47.5936,
"Longitude": 28.5833
},
{
"Name": "Ordasei",
"PostCode": "MD-5828",
"Latitude": 47.6833,
"Longitude": 28.4964
},
{
"Name": "Pistruieni",
"PostCode": "MD-5828",
"Latitude": 47.6922,
"Longitude": 28.4881
},
{
"Name": "Pistruienii Noi",
"PostCode": "MD-5828",
"Latitude": 47.6994,
"Longitude": 28.4178
},
{
"Name": "Ratus",
"PostCode": "MD-5829",
"Latitude": 47.5369,
"Longitude": 28.5033
},
{
"Name": "Saratenii Noi",
"PostCode": "MD-5832",
"Latitude": 47.5092,
"Longitude": 28.5014
},
{
"Name": "Saratenii Vechi",
"PostCode": "MD-5830",
"Latitude": 47.5261,
"Longitude": 28.5531
},
{
"Name": "Scorteni",
"PostCode": "MD-5831",
"Latitude": 47.6414,
"Longitude": 28.6464
},
{
"Name": "Suhuluceni",
"PostCode": "MD-5832",
"Latitude": 47.4664,
"Longitude": 28.5183
},
{
"Name": "Telenesti",
"PostCode": "MD-5801",
"Latitude": 47.4997,
"Longitude": 28.3656
},
{
"Name": "Tintareni",
"PostCode": "MD-5834",
"Latitude": 47.5703,
"Longitude": 28.5625
},
{
"Name": "Tirsitei",
"PostCode": "MD-5833",
"Latitude": 47.6922,
"Longitude": 28.5772
},
{
"Name": "Vadul-Leca",
"PostCode": "MD-5814",
"Latitude": 47.6242,
"Longitude": 28.465
},
{
"Name": "Vadul-Leca Nou",
"PostCode": "MD-5814",
"Latitude": 47.6181,
"Longitude": 28.4361
},
{
"Name": "Vasieni",
"PostCode": "MD-5835",
"Latitude": 47.4608,
"Longitude": 28.4444
},
{
"Name": "Verejeni",
"PostCode": "MD-5836",
"Latitude": 47.5342,
"Longitude": 28.4706
},
{
"Name": "Zahareuca",
"PostCode": "MD-5830",
"Latitude": 47.5317,
"Longitude": 28.5994
},
{
"Name": "Zaicani",
"PostCode": "MD-5829",
"Latitude": 47.5214,
"Longitude": 28.5081
},
{
"Name": "Zaicanii Noi",
"PostCode": "MD-5829",
"Latitude": 47.5311,
"Longitude": 28.5125
},
{
"Name": "Zgardesti",
"PostCode": "MD-5837",
"Latitude": 47.5314,
"Longitude": 28.1944
}
]
}
]
}
]
},
{
"Name": "Falesti",
"Provinces": [
{
"Communities": [
{
"Places": [
{
"Name": "Albinetul Nou",
"PostCode": "MD-5911",
"Latitude": 47.5806,
"Longitude": 27.6211
},
{
"Name": "Albinetul Vechi",
"PostCode": "MD-5911",
"Latitude": 47.556399999999996,
"Longitude": 27.6375
},
{
"Name": "Beleuti",
"PostCode": "MD-5936",
"Latitude": 47.6644,
"Longitude": 27.9061
},
{
"Name": "Bocani",
"PostCode": "MD-5912",
"Latitude": 47.5183,
"Longitude": 27.8914
},
{
"Name": "Bocsa",
"PostCode": "MD-5946",
"Latitude": 47.4711,
"Longitude": 27.6497
},
{
"Name": "Burghelea",
"PostCode": "MD-5920",
"Latitude": 47.5386,
"Longitude": 27.8653
},
{
"Name": "Calinesti",
"PostCode": "MD-5913",
"Latitude": 47.5642,
"Longitude": 27.4864
},
{
"Name": "Calugar",
"PostCode": "MD-5914",
"Latitude": 47.5403,
"Longitude": 27.6864
},
{
"Name": "Catranic",
"PostCode": "MD-5915",
"Latitude": 47.6,
"Longitude": 27.8
},
{
"Name": "Catranic Loc.C.F.",
"PostCode": "MD-5916",
"Latitude": 47.6342,
"Longitude": 27.7911
},
{
"Name": "Chetris",
"PostCode": "MD-5917",
"Latitude": 47.5958,
"Longitude": 27.4472
},
{
"Name": "Chetrisul Nou",
"PostCode": "MD-5917",
"Latitude": 47.6244,
"Longitude": 27.5111
},
{
"Name": "Ciolacu Nou",
"PostCode": "MD-5918",
"Latitude": 47.4867,
"Longitude": 27.8267
},
{
"Name": "Ciolacu Vechi",
"PostCode": "MD-5919",
"Latitude": 47.4728,
"Longitude": 27.8644
},
{
"Name": "Ciuluc",
"PostCode": "MD-5916",
"Latitude": 47.6342,
"Longitude": 27.7911
},
{
"Name": "Comarovca",
"PostCode": "MD-5936",
"Latitude": 47.6928,
"Longitude": 27.9044
},
{
"Name": "Cuzmenii Vechi",
"PostCode": "MD-5944",
"Latitude": 47.5264,
"Longitude": 27.5678
},
{
"Name": "Doltu",
"PostCode": "MD-5920",
"Latitude": 47.5372,
"Longitude": 27.8231
},
{
"Name": "Drujineni",
"PostCode": "MD-5944",
"Latitude": 47.5258,
"Longitude": 27.5358
},
{
"Name": "Egorovca",
"PostCode": "MD-5921",
"Latitude": 47.6181,
"Longitude": 27.7556
},
{
"Name": "Fagadau",
"PostCode": "MD-5922",
"Latitude": 47.4411,
"Longitude": 27.8039
},
{
"Name": "Falesti 1",
"PostCode": "MD-5901",
"Latitude": 47.573,
"Longitude": 27.7069
},
{
"Name": "Falesti 2",
"PostCode": "MD-5902",
"Latitude": 47.573,
"Longitude": 27.7069
},
{
"Name": "Falesti 3",
"PostCode": "MD-5903",
"Latitude": 47.573,
"Longitude": 27.7069
},
{
"Name": "Falesti St",
"PostCode": "MD-5904",
"Latitude": 47.573,
"Longitude": 27.7069
},
{
"Name": "Falestii Noi",
"PostCode": "MD-5923",
"Latitude": 47.5719,
"Longitude": 27.7469
},
{
"Name": "Frumusica",
"PostCode": "MD-5914",
"Latitude": 47.5142,
"Longitude": 27.6878
},
{
"Name": "Glinjeni",
"PostCode": "MD-5924",
"Latitude": 47.5986,
"Longitude": 27.89
},
{
"Name": "Hiliuti",
"PostCode": "MD-5925",
"Latitude": 47.6667,
"Longitude": 27.7647
},
{
"Name": "Hincesti",
"PostCode": "MD-5913",
"Latitude": 47.5481,
"Longitude": 27.505
},
{
"Name": "Hirtop",
"PostCode": "MD-5949",
"Latitude": 47.4806,
"Longitude": 27.7078
},
{
"Name": "Hitresti",
"PostCode": "MD-5926",
"Latitude": 47.5492,
"Longitude": 27.7761
},
{
"Name": "Horesti",
"PostCode": "MD-5927",
"Latitude": 47.4322,
"Longitude": 27.5806
},
{
"Name": "Hrubna Noua",
"PostCode": "MD-5928",
"Latitude": 47.4061,
"Longitude": 27.615
},
{
"Name": "Ilenuta",
"PostCode": "MD-5929",
"Latitude": 47.6344,
"Longitude": 27.7131
},
{
"Name": "Iscalau",
"PostCode": "MD-5930",
"Latitude": 47.5731,
"Longitude": 27.8178
},
{
"Name": "Ivanovca",
"PostCode": "MD-5936",
"Latitude": 47.6586,
"Longitude": 27.8814
},
{
"Name": "Izvoare",
"PostCode": "MD-5931",
"Latitude": 47.4333,
"Longitude": 27.6672
},
{
"Name": "Logofteni",
"PostCode": "MD-5932",
"Latitude": 47.6256,
"Longitude": 27.5681
},
{
"Name": "Lucaceni",
"PostCode": "MD-5927",
"Latitude": 47.4572,
"Longitude": 27.5964
},
{
"Name": "Magura",
"PostCode": "MD-5939",
"Latitude": 47.4872,
"Longitude": 27.9344
},
{
"Name": "Magura Noua",
"PostCode": "MD-5939",
"Latitude": 47.5072,
"Longitude": 27.9531
},
{
"Name": "Magureanca",
"PostCode": "MD-5949",
"Latitude": 47.4825,
"Longitude": 27.7175
},
{
"Name": "Marandeni",
"PostCode": "MD-5933",
"Latitude": 47.6625,
"Longitude": 27.8322
},
{
"Name": "Moldoveanca",
"PostCode": "MD-5934",
"Latitude": 47.618899999999996,
"Longitude": 27.6114
},
{
"Name": "Musteata",
"PostCode": "MD-5935",
"Latitude": 47.5108,
"Longitude": 27.6447
},
{
"Name": "Natalievca",
"PostCode": "MD-5936",
"Latitude": 47.7006,
"Longitude": 27.8883
},
{
"Name": "Navirnet",
"PostCode": "MD-5937",
"Latitude": 47.5892,
"Longitude": 27.5619
},
{
"Name": "Nicolaevca",
"PostCode": "MD-5949",
"Latitude": 47.4994,
"Longitude": 27.7039
},
{
"Name": "Obreja Noua",
"PostCode": "MD-5938",
"Latitude": 47.6742,
"Longitude": 27.6931
},
{
"Name": "Obreja Veche",
"PostCode": "MD-5938",
"Latitude": 47.6747,
"Longitude": 27.6592
},
{
"Name": "Pervomaisc",
"PostCode": "MD-5942",
"Latitude": 47.6297,
"Longitude": 27.9783
},
{
"Name": "Pietrosu",
"PostCode": "MD-5939",
"Latitude": 47.5014,
"Longitude": 27.9208
},
{
"Name": "Pietrosul Nou",
"PostCode": "MD-5923",
"Latitude": 47.5814,
"Longitude": 27.7686
},
{
"Name": "Pinzareni",
"PostCode": "MD-5940",
"Latitude": 47.6186,
"Longitude": 27.6767
},
{
"Name": "Pinzarenii Noi",
"PostCode": "MD-5940",
"Latitude": 47.5994,
"Longitude": 27.6483
},
{
"Name": "Pirlita",
"PostCode": "MD-5941",
"Latitude": 47.7403,
"Longitude": 27.8033
},
{
"Name": "Pocrovca",
"PostCode": "MD-5919",
"Latitude": 47.4653,
"Longitude": 27.875
},
{
"Name": "Pompa",
"PostCode": "MD-5942",
"Latitude": 47.6547,
"Longitude": 27.9425
},
{
"Name": "Popovca",
"PostCode": "MD-5943",
"Latitude": 47.7058,
"Longitude": 27.8656
},
{
"Name": "Pruteni",
"PostCode": "MD-5944",
"Latitude": 47.5028,
"Longitude": 27.5489
},
{
"Name": "Rautel",
"PostCode": "MD-5945",
"Latitude": 47.7142,
"Longitude": 27.8258
},
{
"Name": "Rautelul Nou",
"PostCode": "MD-5925",
"Latitude": 47.7014,
"Longitude": 27.7464
},
{
"Name": "Rediul De Jos",
"PostCode": "MD-5911",
"Latitude": 47.5089,
"Longitude": 27.6042
},
{
"Name": "Rediul De Sus",
"PostCode": "MD-5911",
"Latitude": 47.5247,
"Longitude": 27.6081
},
{
"Name": "Risipeni",
"PostCode": "MD-5946",
"Latitude": 47.46,
"Longitude": 27.6661
},
{
"Name": "Sarata Noua",
"PostCode": "MD-5948",
"Latitude": 47.4992,
"Longitude": 27.7914
},
{
"Name": "Sarata Veche",
"PostCode": "MD-5947",
"Latitude": 47.51,
"Longitude": 27.7389
},
{
"Name": "Scumpia",
"PostCode": "MD-5949",
"Latitude": 47.4675,
"Longitude": 27.7408
},
{
"Name": "Socii Noi",
"PostCode": "MD-5914",
"Latitude": 47.5394,
"Longitude": 27.6439
},
{
"Name": "Socii Vechi",
"PostCode": "MD-5914",
"Latitude": 47.5283,
"Longitude": 27.6747
},
{
"Name": "Soltoaia",
"PostCode": "MD-5922",
"Latitude": 47.4633,
"Longitude": 27.8147
},
{
"Name": "Suvorovca",
"PostCode": "MD-5942",
"Latitude": 47.6394,
"Longitude": 27.89
},
{
"Name": "Tapoc",
"PostCode": "MD-5936",
"Latitude": 47.7067,
"Longitude": 27.8975
},
{
"Name": "Taxobeni",
"PostCode": "MD-5950",
"Latitude": 47.3903,
"Longitude": 27.5917
},
{
"Name": "Unteni",
"PostCode": "MD-5927",
"Latitude": 47.4156,
"Longitude": 27.5825
},
{
"Name": "Valea Rusului",
"PostCode": "MD-5951",
"Latitude": 47.47,
"Longitude": 27.5819
},
{
"Name": "Vranesti",
"PostCode": "MD-5928",
"Latitude": 47.4092,
"Longitude": 27.6006
}
]
}
]
}
]
},
{
"Name": "Leova",
"Provinces": [
{
"Communities": [
{
"Places": [
{
"Name": "Baius",
"PostCode": "MD-6311",
"Latitude": 46.4589,
"Longitude": 28.4825
},
{
"Name": "Bertovca",
"PostCode": "MD-6324",
"Latitude": 46.4908,
"Longitude": 28.39
},
{
"Name": "Bestemac",
"PostCode": "MD-6312",
"Latitude": 46.5275,
"Longitude": 28.5275
},
{
"Name": "Borogani",
"PostCode": "MD-6335",
"Latitude": 46.3692,
"Longitude": 28.5183
},
{
"Name": "Bulgarica",
"PostCode": "MD-6324",
"Latitude": 46.4908,
"Longitude": 28.39
},
{
"Name": "Cazangic",
"PostCode": "MD-6313",
"Latitude": 46.5094,
"Longitude": 28.4367
},
{
"Name": "Ceadir",
"PostCode": "MD-6314",
"Latitude": 46.6717,
"Longitude": 28.4072
},
{
"Name": "Cimpul Drept",
"PostCode": "MD-6327",
"Latitude": 46.5644,
"Longitude": 28.515
},
{
"Name": "Cizlar",
"PostCode": "MD-6315",
"Latitude": 46.6508,
"Longitude": 28.525
},
{
"Name": "Cneazevca",
"PostCode": "MD-6315",
"Latitude": 46.6292,
"Longitude": 28.4878
},
{
"Name": "Cociulia Noua",
"PostCode": "MD-6311",
"Latitude": 46.4419,
"Longitude": 28.4733
},
{
"Name": "Colibabovca",
"PostCode": "MD-6316",
"Latitude": 46.6467,
"Longitude": 28.4311
},
{
"Name": "Covurlui",
"PostCode": "MD-6317",
"Latitude": 46.5908,
"Longitude": 28.4028
},
{
"Name": "Cupcui",
"PostCode": "MD-6318",
"Latitude": 46.5158,
"Longitude": 28.3578
},
{
"Name": "Cuporani",
"PostCode": "MD-6329",
"Latitude": 46.3736,
"Longitude": 28.3597
},
{
"Name": "Filipeni",
"PostCode": "MD-6319",
"Latitude": 46.44,
"Longitude": 28.3319
},
{
"Name": "Frumusica",
"PostCode": "MD-6313",
"Latitude": 46.5569,
"Longitude": 28.4286
},
{
"Name": "Hanasenii Noi",
"PostCode": "MD-6320",
"Latitude": 46.4192,
"Longitude": 28.2558
},
{
"Name": "Hirtop",
"PostCode": "MD-6311",
"Latitude": 46.6522,
"Longitude": 28.685
},
{
"Name": "Iargara",
"PostCode": "MD-6321",
"Latitude": 46.4275,
"Longitude": 28.4367
},
{
"Name": "Leova",
"PostCode": "MD-6301",
"Latitude": 46.4786,
"Longitude": 28.2553
},
{
"Name": "Meseni",
"PostCode": "MD-6321",
"Latitude": 46.4172,
"Longitude": 28.4667
},
{
"Name": "Nicolaevca",
"PostCode": "MD-6320",
"Latitude": 46.3906,
"Longitude": 28.2544
},
{
"Name": "Orac",
"PostCode": "MD-6322",
"Latitude": 46.6683,
"Longitude": 28.4631
},
{
"Name": "Pitesti",
"PostCode": "MD-6312",
"Latitude": 46.5031,
"Longitude": 28.5458
},
{
"Name": "Romanovca",
"PostCode": "MD-6319",
"Latitude": 46.4594,
"Longitude": 28.3531
},
{
"Name": "Sarata Noua",
"PostCode": "MD-6324",
"Latitude": 46.4908,
"Longitude": 28.39
},
{
"Name": "Sarata Razesi",
"PostCode": "MD-6325",
"Latitude": 46.6142,
"Longitude": 28.2667
},
{
"Name": "Sarateni",
"PostCode": "MD-6326",
"Latitude": 46.6108,
"Longitude": 28.4675
},
{
"Name": "Saratica Noua",
"PostCode": "MD-6327",
"Latitude": 46.5725,
"Longitude": 28.5483
},
{
"Name": "Saratica Veche",
"PostCode": "MD-6332",
"Latitude": 46.6008,
"Longitude": 28.5333
},
{
"Name": "Seliste",
"PostCode": "MD-6313",
"Latitude": 46.5264,
"Longitude": 28.4314
},
{
"Name": "Sirma",
"PostCode": "MD-6328",
"Latitude": 46.5269,
"Longitude": 28.2525
},
{
"Name": "Tigheci",
"PostCode": "MD-6329",
"Latitude": 46.3861,
"Longitude": 28.3764
},
{
"Name": "Tochile-Raducani",
"PostCode": "MD-6330",
"Latitude": 46.5775,
"Longitude": 28.2447
},
{
"Name": "Tomai",
"PostCode": "MD-6331",
"Latitude": 46.6228,
"Longitude": 28.5528
},
{
"Name": "Tomaiul Nou",
"PostCode": "MD-6332",
"Latitude": 46.6228,
"Longitude": 28.5528
},
{
"Name": "Troian",
"PostCode": "MD-6333",
"Latitude": 46.5425,
"Longitude": 28.4633
},
{
"Name": "Troita",
"PostCode": "MD-6333",
"Latitude": 46.565,
"Longitude": 28.4661
},
{
"Name": "Victoria",
"PostCode": "MD-6326",
"Latitude": 46.6161,
"Longitude": 28.4156
},
{
"Name": "Vozneseni",
"PostCode": "MD-6334",
"Latitude": 46.5844,
"Longitude": 28.4703
}
]
}
]
}
]
},
{
"Name": "Nisporeni",
"Provinces": [
{
"Communities": [
{
"Places": [
{
"Name": "Bacseni",
"PostCode": "MD-6411",
"Latitude": 47.0842,
"Longitude": 28.0167
},
{
"Name": "Balanesti",
"PostCode": "MD-6412",
"Latitude": 47.2061,
"Longitude": 28.0658
},
{
"Name": "Balauresti",
"PostCode": "MD-6413",
"Latitude": 46.9392,
"Longitude": 28.1403
},
{
"Name": "Barboieni",
"PostCode": "MD-6414",
"Latitude": 47.0197,
"Longitude": 28.0575
},
{
"Name": "Bolduresti",
"PostCode": "MD-6415",
"Latitude": 47.1353,
"Longitude": 28.0597
},
{
"Name": "Boltun",
"PostCode": "MD-6416",
"Latitude": 47.0278,
"Longitude": 28.29
},
{
"Name": "Bratuleni",
"PostCode": "MD-6417",
"Latitude": 47.1392,
"Longitude": 27.9756
},
{
"Name": "Bursuc",
"PostCode": "MD-6442",
"Latitude": 47.0944,
"Longitude": 28.3025
},
{
"Name": "Calimanesti",
"PostCode": "MD-6419",
"Latitude": 46.9444,
"Longitude": 28.195
},
{
"Name": "Chilisoaia",
"PostCode": "MD-6415",
"Latitude": 47.1136,
"Longitude": 28.0247
},
{
"Name": "Cioresti",
"PostCode": "MD-6421",
"Latitude": 47.165,
"Longitude": 28.2225
},
{
"Name": "Cirnesti",
"PostCode": "MD-6417",
"Latitude": 47.1742,
"Longitude": 28.0039
},
{
"Name": "Ciutesti",
"PostCode": "MD-6423",
"Latitude": 47.1758,
"Longitude": 28.1239
},
{
"Name": "Cornesti",
"PostCode": "MD-6416",
"Latitude": 46.9981,
"Longitude": 28.3294
},
{
"Name": "Cristesti",
"PostCode": "MD-6424",
"Latitude": 47.056399999999996,
"Longitude": 28.2819
},
{
"Name": "Drojdieni",
"PostCode": "MD-6437",
"Latitude": 46.9372,
"Longitude": 28.2272
},
{
"Name": "Gaureni",
"PostCode": "MD-6418",
"Latitude": 47.2019,
"Longitude": 28.0894
},
{
"Name": "Grozesti",
"PostCode": "MD-6427",
"Latitude": 46.9986,
"Longitude": 28.0794
},
{
"Name": "Helesteni",
"PostCode": "MD-6430",
"Latitude": 46.9625,
"Longitude": 28.1858
},
{
"Name": "Isaicani",
"PostCode": "MD-6428",
"Latitude": 47.0664,
"Longitude": 28.0206
},
{
"Name": "Iurceni",
"PostCode": "MD-6429",
"Latitude": 47.0811,
"Longitude": 28.2592
},
{
"Name": "Luminita",
"PostCode": "MD-6438",
"Latitude": 47.0842,
"Longitude": 28.0744
},
{
"Name": "Marinici",
"PostCode": "MD-6430",
"Latitude": 46.9661,
"Longitude": 28.1603
},
{
"Name": "Milesti",
"PostCode": "MD-6432",
"Latitude": 47.2233,
"Longitude": 28.0386
},
{
"Name": "Mirzoaia",
"PostCode": "MD-6416",
"Latitude": 47.0322,
"Longitude": 28.2653
},
{
"Name": "Nisporeni",
"PostCode": "MD-6401",
"Latitude": 47.0814,
"Longitude": 28.1783
},
{
"Name": "Odaia",
"PostCode": "MD-6437",
"Latitude": 46.9558,
"Longitude": 28.2192
},
{
"Name": "Odobesti",
"PostCode": "MD-6438",
"Latitude": 47.0519,
"Longitude": 28.0683
},
{
"Name": "Paruceni",
"PostCode": "MD-6433",
"Latitude": 47.1494,
"Longitude": 28.1006
},
{
"Name": "Seliste",
"PostCode": "MD-6434",
"Latitude": 47.1689,
"Longitude": 28.1367
},
{
"Name": "Selisteni",
"PostCode": "MD-6438",
"Latitude": 47.0617,
"Longitude": 28.0694
},
{
"Name": "Sendreni",
"PostCode": "MD-6436",
"Latitude": 47.1258,
"Longitude": 28.1858
},
{
"Name": "Siscani",
"PostCode": "MD-6437",
"Latitude": 46.9744,
"Longitude": 28.2111
},
{
"Name": "Soltanesti",
"PostCode": "MD-6435",
"Latitude": 47.0594,
"Longitude": 28.11
},
{
"Name": "Valea Nirnovei",
"PostCode": "MD-6433",
"Latitude": 47.1494,
"Longitude": 28.1006
},
{
"Name": "Valea-Trestieni",
"PostCode": "MD-6438",
"Latitude": 47.0717,
"Longitude": 28.0708
},
{
"Name": "Varzaresti",
"PostCode": "MD-6439",
"Latitude": 47.1086,
"Longitude": 28.1961
},
{
"Name": "Vinatori",
"PostCode": "MD-6440",
"Latitude": 47.1858,
"Longitude": 28.1028
},
{
"Name": "Vulcanesti",
"PostCode": "MD-6421",
"Latitude": 47.1525,
"Longitude": 28.1917
},
{
"Name": "Zberoaia",
"PostCode": "MD-6441",
"Latitude": 46.9686,
"Longitude": 28.1069
}
]
}
]
}
]
},
{
"Name": "Anenii Noi",
"Provinces": [
{
"Communities": [
{
"Places": [
{
"Name": "Albinita",
"PostCode": "MD-6531",
"Latitude": 46.8906,
"Longitude": 29.1739
},
{
"Name": "Anenii Noi",
"PostCode": "MD-6501",
"Latitude": 46.8789,
"Longitude": 29.2247
},
{
"Name": "Balmaz",
"PostCode": "MD-6537",
"Latitude": 46.7981,
"Longitude": 29.285
},
{
"Name": "Batic",
"PostCode": "MD-6516",
"Latitude": 46.7956,
"Longitude": 29.1914
},
{
"Name": "Beriozchi",
"PostCode": "MD-6501",
"Latitude": 46.8733,
"Longitude": 29.2625
},
{
"Name": "Botnaresti",
"PostCode": "MD-6511",
"Latitude": 46.9347,
"Longitude": 29.1622
},
{
"Name": "Botnarestii Noi",
"PostCode": "MD-6511",
"Latitude": 46.9203,
"Longitude": 29.1669
},
{
"Name": "Bulboaca",
"PostCode": "MD-6512",
"Latitude": 46.8831,
"Longitude": 29.3097
},
{
"Name": "Calfa",
"PostCode": "MD-6513",
"Latitude": 46.9042,
"Longitude": 29.3753
},
{
"Name": "Calfa Noua",
"PostCode": "MD-6513",
"Latitude": 46.9125,
"Longitude": 29.3614
},
{
"Name": "Chetrosu",
"PostCode": "MD-6514",
"Latitude": 46.9164,
"Longitude": 29.0436
},
{
"Name": "Chirca",
"PostCode": "MD-6515",
"Latitude": 46.9225,
"Longitude": 29.1092
},
{
"Name": "Ciobanovca",
"PostCode": "MD-6516",
"Latitude": 46.8144,
"Longitude": 29.19
},
{
"Name": "Cobusca Noua",
"PostCode": "MD-6517",
"Latitude": 46.931399999999996,
"Longitude": 29.2069
},
{
"Name": "Cobusca Veche",
"PostCode": "MD-6518",
"Latitude": 46.9722,
"Longitude": 29.1792
},
{
"Name": "Cretoaia",
"PostCode": "MD-6519",
"Latitude": 46.8667,
"Longitude": 29.1347
},
{
"Name": "Delacau",
"PostCode": "MD-6520",
"Latitude": 47.0989,
"Longitude": 29.3031
},
{
"Name": "Floreni",
"PostCode": "MD-6521",
"Latitude": 46.9347,
"Longitude": 28.9928
},
{
"Name": "Floresti",
"PostCode": "MD-6518",
"Latitude": 46.9722,
"Longitude": 29.1792
},
{
"Name": "Geamana",
"PostCode": "MD-6522",
"Latitude": 46.8183,
"Longitude": 29.1389
},
{
"Name": "Gura Bicului",
"PostCode": "MD-6523",
"Latitude": 46.9311,
"Longitude": 29.4586
},
{
"Name": "Hirbovat",
"PostCode": "MD-6524",
"Latitude": 46.8425,
"Longitude": 29.3583
},
{
"Name": "Hirbovatul Nou",
"PostCode": "MD-6501",
"Latitude": 46.8319,
"Longitude": 29.2775
},
{
"Name": "Larga",
"PostCode": "MD-7722",
"Latitude": 46.7583,
"Longitude": 29.1608
},
{
"Name": "Maximovca",
"PostCode": "MD-6525",
"Latitude": 47.01,
"Longitude": 29.0128
},
{
"Name": "Mereni",
"PostCode": "MD-6526",
"Latitude": 46.9633,
"Longitude": 29.0533
},
{
"Name": "Merenii Noi",
"PostCode": "MD-6527",
"Latitude": 46.9244,
"Longitude": 29.0564
},
{
"Name": "Mirnoe",
"PostCode": "MD-6537",
"Latitude": 46.8014,
"Longitude": 29.2289
},
{
"Name": "Nicolaevca",
"PostCode": "MD-7723",
"Latitude": 46.7722,
"Longitude": 29.2106
},
{
"Name": "Ochiul Ros",
"PostCode": "MD-7724",
"Latitude": 46.7672,
"Longitude": 29.1106
},
{
"Name": "Petrovca",
"PostCode": "MD-6526",
"Latitude": 46.9753,
"Longitude": 29.0858
},
{
"Name": "Picus",
"PostCode": "MD-7722",
"Latitude": 46.75,
"Longitude": 29.0942
},
{
"Name": "Puhaceni",
"PostCode": "MD-6529",
"Latitude": 47.0889,
"Longitude": 29.3467
},
{
"Name": "Roscani",
"PostCode": "MD-6530",
"Latitude": 46.9006,
"Longitude": 29.3206
},
{
"Name": "Ruseni",
"PostCode": "MD-6531",
"Latitude": 46.8853,
"Longitude": 29.2
},
{
"Name": "Salcia",
"PostCode": "MD-6511",
"Latitude": 46.9425,
"Longitude": 29.1694
},
{
"Name": "Serpeni",
"PostCode": "MD-6534",
"Latitude": 47.0208,
"Longitude": 29.3497
},
{
"Name": "Socoleni",
"PostCode": "MD-6532",
"Latitude": 46.91,
"Longitude": 29.19
},
{
"Name": "Speia",
"PostCode": "MD-6533",
"Latitude": 46.9817,
"Longitude": 29.3233
},
{
"Name": "Telita",
"PostCode": "MD-6535",
"Latitude": 46.9569,
"Longitude": 29.3039
},
{
"Name": "Telita Noua",
"PostCode": "MD-6535",
"Latitude": 46.9806,
"Longitude": 29.2864
},
{
"Name": "Tintareni",
"PostCode": "MD-6538",
"Latitude": 46.9031,
"Longitude": 29.1389
},
{
"Name": "Todiresti",
"PostCode": "MD-6536",
"Latitude": 46.9072,
"Longitude": 29.0864
},
{
"Name": "Troita Noua",
"PostCode": "MD-6537",
"Latitude": 46.7903,
"Longitude": 29.265
},
{
"Name": "Varnita-2",
"PostCode": "MD-6530",
"Latitude": 46.9006,
"Longitude": 29.3206
},
{
"Name": "Zolotievca",
"PostCode": "MD-7723",
"Latitude": 46.7364,
"Longitude": 29.1903
}
]
}
]
}
]
},
{
"Name": "Camenca Tr.",
"Provinces": [
{
"Communities": [
{
"Places": [
{
"Name": "Alexandrovca",
"PostCode": "MD-6613",
"Latitude": 48.0297,
"Longitude": 28.5542
},
{
"Name": "Bodeni",
"PostCode": "MD-6628",
"Latitude": 48.0819,
"Longitude": 28.7808
},
{
"Name": "Camenca 1",
"PostCode": "MD-6601",
"Latitude": 48.0319,
"Longitude": 28.6978
},
{
"Name": "Camenca 2",
"PostCode": "MD-6602",
"Latitude": 48.0319,
"Longitude": 28.6978
},
{
"Name": "Camenca 3",
"PostCode": "MD-6603",
"Latitude": 48.0319,
"Longitude": 28.6978
},
{
"Name": "Caterinovca",
"PostCode": "MD-6611",
"Latitude": 47.9339,
"Longitude": 28.8669
},
{
"Name": "Constantinovca",
"PostCode": "MD-6635",
"Latitude": 47.9881,
"Longitude": 28.8572
},
{
"Name": "Crasnii Octeabri",
"PostCode": "MD-6613",
"Latitude": 48.0128,
"Longitude": 28.5486
},
{
"Name": "Cuzmin",
"PostCode": "MD-6617",
"Latitude": 48.0944,
"Longitude": 28.6328
},
{
"Name": "Frunzauca",
"PostCode": "MD-6619",
"Latitude": 48.1569,
"Longitude": 28.5844
},
{
"Name": "Hristovaia",
"PostCode": "MD-6618",
"Latitude": 48.1014,
"Longitude": 28.7342
},
{
"Name": "Hrusca",
"PostCode": "MD-6619",
"Latitude": 48.1125,
"Longitude": 28.5717
},
{
"Name": "Iantarnoe",
"PostCode": "MD-6620",
"Latitude": 47.9028,
"Longitude": 28.8367
},
{
"Name": "Ocnita",
"PostCode": "MD-6624",
"Latitude": 48.1336,
"Longitude": 28.6364
},
{
"Name": "Podoima",
"PostCode": "MD-6625",
"Latitude": 47.995,
"Longitude": 28.7753
},
{
"Name": "Podoimita",
"PostCode": "MD-6626",
"Latitude": 48.0047,
"Longitude": 28.7561
},
{
"Name": "Rascov",
"PostCode": "MD-6627",
"Latitude": 47.955,
"Longitude": 28.8253
},
{
"Name": "Rotari",
"PostCode": "MD-6628",
"Latitude": 48.1053,
"Longitude": 28.8161
},
{
"Name": "Sadchi",
"PostCode": "MD-6620",
"Latitude": 47.8989,
"Longitude": 28.8678
},
{
"Name": "Severinovca",
"PostCode": "MD-6630",
"Latitude": 48.0664,
"Longitude": 28.725
},
{
"Name": "Slobozia-Rascov",
"PostCode": "MD-6631",
"Latitude": 47.9517,
"Longitude": 28.9489
},
{
"Name": "Socolovca",
"PostCode": "MD-6628",
"Latitude": 48.0619,
"Longitude": 28.8383
},
{
"Name": "Solnecinoe",
"PostCode": "MD-6601",
"Latitude": 48.0402,
"Longitude": 28.6355
},
{
"Name": "Valea Adinca",
"PostCode": "MD-6635",
"Latitude": 48.0056,
"Longitude": 28.8406
},
{
"Name": "Voitovca",
"PostCode": "MD-6617",
"Latitude": 48.1061,
"Longitude": 28.605
}
]
}
]
}
]
},
{
"Name": "Ialoveni",
"Provinces": [
{
"Communities": [
{
"Places": [
{
"Name": "Alexandrovca",
"PostCode": "MD-7721",
"Latitude": 46.7219,
"Longitude": 29.0231
},
{
"Name": "Baltati",
"PostCode": "MD-6828",
"Latitude": 46.8422,
"Longitude": 28.9558
},
{
"Name": "Bardar",
"PostCode": "MD-6811",
"Latitude": 46.9019,
"Longitude": 28.6683
},
{
"Name": "Budai",
"PostCode": "MD-6828",
"Latitude": 46.8125,
"Longitude": 28.9739
},
{
"Name": "Carbuna",
"PostCode": "MD-7713",
"Latitude": 46.7122,
"Longitude": 28.9517
},
{
"Name": "Cigirleni",
"PostCode": "MD-7715",
"Latitude": 46.7553,
"Longitude": 28.8228
},
{
"Name": "Costesti",
"PostCode": "MD-6813",
"Latitude": 46.8678,
"Longitude": 28.7686
},
{
"Name": "Danceni",
"PostCode": "MD-6814",
"Latitude": 46.9706,
"Longitude": 28.7078
},
{
"Name": "Gangura",
"PostCode": "MD-7721",
"Latitude": 46.73,
"Longitude": 29.0131
},
{
"Name": "Gaureni",
"PostCode": "MD-6831",
"Latitude": 46.8303,
"Longitude": 28.8433
},
{
"Name": "Hansca",
"PostCode": "MD-6815",
"Latitude": 46.8314,
"Longitude": 28.755
},
{
"Name": "Homuteanovca",
"PostCode": "MD-7721",
"Latitude": 46.7244,
"Longitude": 29.0556
},
{
"Name": "Horesti",
"PostCode": "MD-6816",
"Latitude": 46.8267,
"Longitude": 28.8719
},
{
"Name": "Horodca",
"PostCode": "MD-6817",
"Latitude": 47.0456,
"Longitude": 28.4894
},
{
"Name": "Ialoveni",
"PostCode": "MD-6801",
"Latitude": 46.9431,
"Longitude": 28.7778
},
{
"Name": "Malcoci",
"PostCode": "MD-6818",
"Latitude": 47.0261,
"Longitude": 28.63
},
{
"Name": "Milestii Mici",
"PostCode": "MD-6819",
"Latitude": 46.8994,
"Longitude": 28.8047
},
{
"Name": "Milestii Noi",
"PostCode": "MD-7727",
"Latitude": 46.7461,
"Longitude": 28.9617
},
{
"Name": "Misovca",
"PostCode": "MD-7721",
"Latitude": 46.7661,
"Longitude": 29.0017
},
{
"Name": "Molesti",
"PostCode": "MD-6820",
"Latitude": 46.7858,
"Longitude": 28.7781
},
{
"Name": "Nimoreni",
"PostCode": "MD-6821",
"Latitude": 47.0089,
"Longitude": 28.6664
},
{
"Name": "Piatra Alba",
"PostCode": "MD-6822",
"Latitude": 46.9333,
"Longitude": 28.8169
},
{
"Name": "Pojareni",
"PostCode": "MD-6823",
"Latitude": 46.8858,
"Longitude": 28.6961
},
{
"Name": "Puhoi",
"PostCode": "MD-6824",
"Latitude": 46.8225,
"Longitude": 29.0328
},
{
"Name": "Razeni 1",
"PostCode": "MD-7727",
"Latitude": 46.7461,
"Longitude": 28.9617
},
{
"Name": "Razeni 2",
"PostCode": "MD-7728",
"Latitude": 46.7708,
"Longitude": 28.9006
},
{
"Name": "Rusestii Noi",
"PostCode": "MD-6825",
"Latitude": 46.9297,
"Longitude": 28.6519
},
{
"Name": "Rusestii Vechi",
"PostCode": "MD-6825",
"Latitude": 46.9192,
"Longitude": 28.6261
},
{
"Name": "Sociteni",
"PostCode": "MD-6826",
"Latitude": 46.9408,
"Longitude": 28.725
},
{
"Name": "Suruceni",
"PostCode": "MD-6827",
"Latitude": 46.9825,
"Longitude": 28.6686
},
{
"Name": "Tipala",
"PostCode": "MD-6828",
"Latitude": 46.8278,
"Longitude": 28.9753
},
{
"Name": "Ulmu",
"PostCode": "MD-6829",
"Latitude": 47.02,
"Longitude": 28.5458
},
{
"Name": "Varatic",
"PostCode": "MD-7731",
"Latitude": 46.8094,
"Longitude": 29.0633
},
{
"Name": "Vasieni",
"PostCode": "MD-6830",
"Latitude": 46.9678,
"Longitude": 28.5914
},
{
"Name": "Zimbreni",
"PostCode": "MD-6831",
"Latitude": 46.8369,
"Longitude": 28.8475
}
]
}
]
}
]
},
{
"Name": "Ocnita",
"Provinces": [
{
"Communities": [
{
"Places": [
{
"Name": "Berezovca",
"PostCode": "MD-7111",
"Latitude": 48.3814,
"Longitude": 27.7769
},
{
"Name": "Birladeni",
"PostCode": "MD-7112",
"Latitude": 48.2644,
"Longitude": 27.4167
},
{
"Name": "Birnova",
"PostCode": "MD-7113",
"Latitude": 48.4239,
"Longitude": 27.5267
},
{
"Name": "Calarasovca",
"PostCode": "MD-7114",
"Latitude": 48.4189,
"Longitude": 27.8156
},
{
"Name": "Clocusna",
"PostCode": "MD-7116",
"Latitude": 48.431399999999996,
"Longitude": 27.3417
},
{
"Name": "Codreni",
"PostCode": "MD-7117",
"Latitude": 48.4333,
"Longitude": 27.7167
},
{
"Name": "Corestauti",
"PostCode": "MD-7118",
"Latitude": 48.3528,
"Longitude": 27.2578
},
{
"Name": "Dingeni",
"PostCode": "MD-7119",
"Latitude": 48.3481,
"Longitude": 27.4814
},
{
"Name": "Frunza",
"PostCode": "MD-7108",
"Latitude": 48.4075,
"Longitude": 27.5986
},
{
"Name": "Girbova",
"PostCode": "MD-7121",
"Latitude": 48.3775,
"Longitude": 27.6219
},
{
"Name": "Grinauti",
"PostCode": "MD-7122",
"Latitude": 48.3131,
"Longitude": 27.4689
},
{
"Name": "Grinauti-Moldova",
"PostCode": "MD-7123",
"Latitude": 48.2831,
"Longitude": 27.4489
},
{
"Name": "Grinauti-Raia",
"PostCode": "MD-7123",
"Latitude": 48.2853,
"Longitude": 27.4239
},
{
"Name": "Hadarauti",
"PostCode": "MD-7124",
"Latitude": 48.3717,
"Longitude": 27.3358
},
{
"Name": "Lencauti",
"PostCode": "MD-7125",
"Latitude": 48.4353,
"Longitude": 27.6506
},
{
"Name": "Lipnic",
"PostCode": "MD-7126",
"Latitude": 48.3936,
"Longitude": 27.5125
},
{
"Name": "Maiovca",
"PostCode": "MD-7130",
"Latitude": 48.3719,
"Longitude": 27.3936
},
{
"Name": "Mereseuca",
"PostCode": "MD-7127",
"Latitude": 48.4342,
"Longitude": 27.6842
},
{
"Name": "Mihalaseni",
"PostCode": "MD-7128",
"Latitude": 48.3258,
"Longitude": 27.4233
},
{
"Name": "Naslavcea",
"PostCode": "MD-7129",
"Latitude": 48.4672,
"Longitude": 27.5844
},
{
"Name": "Ocnita 1",
"PostCode": "MD-7101",
"Latitude": 48.3853,
"Longitude": 27.4392
},
{
"Name": "Ocnita 2",
"PostCode": "MD-7102",
"Latitude": 48.3853,
"Longitude": 27.4392
},
{
"Name": "Ocnita Gara",
"PostCode": "MD-7102",
"Latitude": 48.3853,
"Longitude": 27.4392
},
{
"Name": "Ocnita Sat",
"PostCode": "MD-7130",
"Latitude": 48.3719,
"Longitude": 27.3936
},
{
"Name": "Otaci",
"PostCode": "MD-7106",
"Latitude": 48.43,
"Longitude": 27.7939
},
{
"Name": "Paladea",
"PostCode": "MD-7112",
"Latitude": 48.2464,
"Longitude": 27.4183
},
{
"Name": "Paustova",
"PostCode": "MD-7120",
"Latitude": 45.8208,
"Longitude": 28.4364
},
{
"Name": "Rediul Mare",
"PostCode": "MD-7131",
"Latitude": 48.2286,
"Longitude": 27.5153
},
{
"Name": "Rujnita",
"PostCode": "MD-7132",
"Latitude": 48.2564,
"Longitude": 27.4325
},
{
"Name": "Sauca",
"PostCode": "MD-7133",
"Latitude": 48.3775,
"Longitude": 27.7256
},
{
"Name": "Stalinesti",
"PostCode": "MD-7118",
"Latitude": 48.3386,
"Longitude": 27.2639
},
{
"Name": "Unguri",
"PostCode": "MD-7134",
"Latitude": 48.4011,
"Longitude": 27.8675
},
{
"Name": "Valcinet",
"PostCode": "MD-7135",
"Latitude": 48.4456,
"Longitude": 27.7339
},
{
"Name": "Verejeni",
"PostCode": "MD-7136",
"Latitude": 48.44,
"Longitude": 27.6169
}
]
}
]
}
]
},
{
"Name": "Soldanesti",
"Provinces": [
{
"Communities": [
{
"Places": [
{
"Name": "Alcedar",
"PostCode": "MD-7211",
"Latitude": 47.8681,
"Longitude": 28.8747
},
{
"Name": "Chipesca",
"PostCode": "MD-7212",
"Latitude": 47.7622,
"Longitude": 28.6086
},
{
"Name": "Climautii De Jos",
"PostCode": "MD-7213",
"Latitude": 47.9486,
"Longitude": 28.7978
},
{
"Name": "Cobilea",
"PostCode": "MD-7214",
"Latitude": 47.8658,
"Longitude": 28.6714
},
{
"Name": "Cobilea Loc.C.F.",
"PostCode": "MD-7214",
"Latitude": 47.8658,
"Longitude": 28.6714
},
{
"Name": "Cot",
"PostCode": "MD-7215",
"Latitude": 47.9789,
"Longitude": 28.7778
},
{
"Name": "Cotiujenii Mari",
"PostCode": "MD-7216",
"Latitude": 47.8436,
"Longitude": 28.5544
},
{
"Name": "Curatura",
"PostCode": "MD-7217",
"Latitude": 47.8783,
"Longitude": 28.9122
},
{
"Name": "Cuselauca",
"PostCode": "MD-7216",
"Latitude": 47.8769,
"Longitude": 28.5608
},
{
"Name": "Cusmirca",
"PostCode": "MD-7218",
"Latitude": 47.9064,
"Longitude": 28.7053
},
{
"Name": "Dobrusa",
"PostCode": "MD-7219",
"Latitude": 47.7853,
"Longitude": 28.5939
},
{
"Name": "Fuzauca",
"PostCode": "MD-7220",
"Latitude": 47.7417,
"Longitude": 28.7461
},
{
"Name": "Gauzeni",
"PostCode": "MD-7221",
"Latitude": 47.7544,
"Longitude": 28.5656
},
{
"Name": "Glinjeni",
"PostCode": "MD-7222",
"Latitude": 47.5986,
"Longitude": 27.89
},
{
"Name": "Lelina",
"PostCode": "MD-7231",
"Latitude": 47.925,
"Longitude": 28.7472
},
{
"Name": "Mihuleni",
"PostCode": "MD-7223",
"Latitude": 47.8306,
"Longitude": 28.8369
},
{
"Name": "Odaia",
"PostCode": "MD-7211",
"Latitude": 47.8567,
"Longitude": 28.8469
},
{
"Name": "Oliscani",
"PostCode": "MD-7224",
"Latitude": 47.7981,
"Longitude": 28.715
},
{
"Name": "Parcani",
"PostCode": "MD-7225",
"Latitude": 47.8175,
"Longitude": 28.8369
},
{
"Name": "Pohoarna",
"PostCode": "MD-7226",
"Latitude": 47.8294,
"Longitude": 28.4983
},
{
"Name": "Poiana",
"PostCode": "MD-7227",
"Latitude": 47.8872,
"Longitude": 28.8564
},
{
"Name": "Raspopeni",
"PostCode": "MD-7228",
"Latitude": 47.7456,
"Longitude": 28.6211
},
{
"Name": "Recesti",
"PostCode": "MD-7229",
"Latitude": 47.7864,
"Longitude": 28.5622
},
{
"Name": "Rogojeni",
"PostCode": "MD-7230",
"Latitude": 47.8253,
"Longitude": 28.4117
},
{
"Name": "Rogojeni Loc.C.F.",
"PostCode": "MD-7230",
"Latitude": 47.8253,
"Longitude": 28.4117
},
{
"Name": "Salcia",
"PostCode": "MD-7231",
"Latitude": 47.9506,
"Longitude": 28.7342
},
{
"Name": "Samascani",
"PostCode": "MD-7233",
"Latitude": 47.755,
"Longitude": 28.6967
},
{
"Name": "Sestaci",
"PostCode": "MD-7234",
"Latitude": 47.8614,
"Longitude": 28.7542
},
{
"Name": "Sipca",
"PostCode": "MD-7235",
"Latitude": 47.8481,
"Longitude": 28.8061
},
{
"Name": "Socola",
"PostCode": "MD-7232",
"Latitude": 47.9081,
"Longitude": 28.8133
},
{
"Name": "Soldanesti",
"PostCode": "MD-7201",
"Latitude": 47.8153,
"Longitude": 28.7967
},
{
"Name": "Vadul-Rascov",
"PostCode": "MD-7236",
"Latitude": 47.9386,
"Longitude": 28.8269
},
{
"Name": "Zahorna",
"PostCode": "MD-7229",
"Latitude": 47.7967,
"Longitude": 28.5528
}
]
}
]
}
]
},
{
"Name": "Cantemir",
"Provinces": [
{
"Communities": [
{
"Places": [
{
"Name": "Acui",
"PostCode": "MD-7311",
"Latitude": 46.1867,
"Longitude": 28.4247
},
{
"Name": "Alexandrovca",
"PostCode": "MD-7337",
"Latitude": 46.23,
"Longitude": 28.2664
},
{
"Name": "Antonesti",
"PostCode": "MD-7312",
"Latitude": 46.3378,
"Longitude": 28.2172
},
{
"Name": "Baimaclia",
"PostCode": "MD-7313",
"Latitude": 46.1872,
"Longitude": 28.3869
},
{
"Name": "Bobocica",
"PostCode": "MD-7324",
"Latitude": 46.2281,
"Longitude": 28.416
},
{
"Name": "Cania",
"PostCode": "MD-7314",
"Latitude": 46.2814,
"Longitude": 28.2286
},
{
"Name": "Cantemir 1",
"PostCode": "MD-7301",
"Latitude": 46.2781,
"Longitude": 28.2008
},
{
"Name": "Capaclia",
"PostCode": "MD-7315",
"Latitude": 46.3286,
"Longitude": 28.3997
},
{
"Name": "Chioselia",
"PostCode": "MD-7316",
"Latitude": 46.1411,
"Longitude": 28.4039
},
{
"Name": "Ciobalaccia",
"PostCode": "MD-7318",
"Latitude": 46.1744,
"Longitude": 28.2872
},
{
"Name": "Cirpesti",
"PostCode": "MD-7319",
"Latitude": 46.2636,
"Longitude": 28.3367
},
{
"Name": "Cisla",
"PostCode": "MD-7320",
"Latitude": 46.1419,
"Longitude": 28.3333
},
{
"Name": "Cociulia",
"PostCode": "MD-7321",
"Latitude": 46.3578,
"Longitude": 28.4147
},
{
"Name": "Constantinesti",
"PostCode": "MD-7333",
"Latitude": 46.1114,
"Longitude": 28.215
},
{
"Name": "Costangalia",
"PostCode": "MD-7322",
"Latitude": 46.11,
"Longitude": 28.3872
},
{
"Name": "Craciun",
"PostCode": "MD-7329",
"Latitude": 46.2328,
"Longitude": 28.3517
},
{
"Name": "Dimitrova",
"PostCode": "MD-7317",
"Latitude": 46.1589,
"Longitude": 28.4681
},
{
"Name": "Enichioi",
"PostCode": "MD-7324",
"Latitude": 46.2217,
"Longitude": 28.42
},
{
"Name": "Flocoasa",
"PostCode": "MD-7318",
"Latitude": 46.1528,
"Longitude": 28.2514
},
{
"Name": "Floricica",
"PostCode": "MD-7324",
"Latitude": 46.2344,
"Longitude": 28.4119
},
{
"Name": "Ghioltosu",
"PostCode": "MD-7325",
"Latitude": 46.1917,
"Longitude": 28.1603
},
{
"Name": "Gotesti",
"PostCode": "MD-7326",
"Latitude": 46.1478,
"Longitude": 28.1672
},
{
"Name": "Hanaseni",
"PostCode": "MD-7339",
"Latitude": 46.3481,
"Longitude": 28.3303
},
{
"Name": "Haragis",
"PostCode": "MD-7327",
"Latitude": 46.2894,
"Longitude": 28.3783
},
{
"Name": "Hirtop",
"PostCode": "MD-7337",
"Latitude": 46.2339,
"Longitude": 28.2511
},
{
"Name": "Iepureni",
"PostCode": "MD-7314",
"Latitude": 46.2633,
"Longitude": 28.2214
},
{
"Name": "Larguta",
"PostCode": "MD-7328",
"Latitude": 46.305,
"Longitude": 28.3192
},
{
"Name": "Leca",
"PostCode": "MD-7312",
"Latitude": 46.3097,
"Longitude": 28.205
},
{
"Name": "Lingura",
"PostCode": "MD-7329",
"Latitude": 46.2331,
"Longitude": 28.3225
},
{
"Name": "Pleseni",
"PostCode": "MD-7330",
"Latitude": 46.3567,
"Longitude": 28.3425
},
{
"Name": "Plopi",
"PostCode": "MD-7331",
"Latitude": 46.2078,
"Longitude": 28.2142
},
{
"Name": "Popovca",
"PostCode": "MD-7329",
"Latitude": 46.2481,
"Longitude": 28.3094
},
{
"Name": "Porumbesti",
"PostCode": "MD-7332",
"Latitude": 46.3139,
"Longitude": 28.2775
},
{
"Name": "Sadic",
"PostCode": "MD-7344",
"Latitude": 46.2675,
"Longitude": 28.5128
},
{
"Name": "Samalia",
"PostCode": "MD-7336",
"Latitude": 46.2733,
"Longitude": 28.4358
},
{
"Name": "Sofranovca",
"PostCode": "MD-7320",
"Latitude": 46.1239,
"Longitude": 28.3594
},
{
"Name": "Stoianovca",
"PostCode": "MD-7335",
"Latitude": 46.2592,
"Longitude": 28.1644
},
{
"Name": "Suhat",
"PostCode": "MD-7320",
"Latitude": 46.1625,
"Longitude": 28.3442
},
{
"Name": "Taraclia",
"PostCode": "MD-7337",
"Latitude": 46.22,
"Longitude": 28.2267
},
{
"Name": "Taraclia",
"PostCode": "MD-7344",
"Latitude": 46.22,
"Longitude": 28.2267
},
{
"Name": "Tarancuta",
"PostCode": "MD-7316",
"Latitude": 46.1589,
"Longitude": 28.4681
},
{
"Name": "Tartaul",
"PostCode": "MD-7338",
"Latitude": 46.2069,
"Longitude": 28.3214
},
{
"Name": "Tataraseni",
"PostCode": "MD-7339",
"Latitude": 46.3403,
"Longitude": 28.3019
},
{
"Name": "Tiganca",
"PostCode": "MD-7341",
"Latitude": 46.2333,
"Longitude": 28.1558
},
{
"Name": "Tiganca Noua",
"PostCode": "MD-7341",
"Latitude": 46.2047,
"Longitude": 28.1736
},
{
"Name": "Toceni",
"PostCode": "MD-7340",
"Latitude": 46.3669,
"Longitude": 28.2189
},
{
"Name": "Tolica",
"PostCode": "MD-7324",
"Latitude": 46.2281,
"Longitude": 28.416
},
{
"Name": "Victorovca",
"PostCode": "MD-7318",
"Latitude": 46.1783,
"Longitude": 28.2917
},
{
"Name": "Vilcele",
"PostCode": "MD-7343",
"Latitude": 46.3814,
"Longitude": 28.2558
},
{
"Name": "Visniovca",
"PostCode": "MD-7342",
"Latitude": 46.3333,
"Longitude": 28.4494
}
]
}
]
}
]
},
{
"Name": "Cantrmir",
"Provinces": [
{
"PostCode": "MD-7317",
"Communities": [
{
"Places": [
{
"Name": "Ciietu",
"PostCode": "MD-7317",
"Latitude": 46.1353,
"Longitude": 28.4817
}
],
"PostCode": "MD-7317"
}
]
}
]
},
{
"Name": "Taraclia",
"Provinces": [
{
"Communities": [
{
"Places": [
{
"Name": "Albota De Jos",
"PostCode": "MD-7411",
"Latitude": 45.9458,
"Longitude": 28.4844
},
{
"Name": "Albota De Sus",
"PostCode": "MD-7412",
"Latitude": 45.9733,
"Longitude": 28.4742
},
{
"Name": "Aluatu",
"PostCode": "MD-7413",
"Latitude": 45.8661,
"Longitude": 28.5858
},
{
"Name": "Balabanu",
"PostCode": "MD-7414",
"Latitude": 45.9319,
"Longitude": 28.5811
},
{
"Name": "Budai",
"PostCode": "MD-7416",
"Latitude": 45.8489,
"Longitude": 28.4664
},
{
"Name": "Cairaclia",
"PostCode": "MD-7417",
"Latitude": 45.7783,
"Longitude": 28.6244
},
{
"Name": "Cealic",
"PostCode": "MD-7419",
"Latitude": 45.9956,
"Longitude": 28.5542
},
{
"Name": "Chirilovca",
"PostCode": "MD-7418",
"Latitude": 45.8167,
"Longitude": 28.5764
},
{
"Name": "Ciumai",
"PostCode": "MD-7420",
"Latitude": 45.7822,
"Longitude": 28.5697
},
{
"Name": "Corten",
"PostCode": "MD-7421",
"Latitude": 46.0144,
"Longitude": 28.7361
},
{
"Name": "Cortenul Nou",
"PostCode": "MD-7419",
"Latitude": 46.0042,
"Longitude": 28.5703
},
{
"Name": "Dermengi",
"PostCode": "MD-7416",
"Latitude": 45.88,
"Longitude": 28.4147
},
{
"Name": "Hagichioi",
"PostCode": "MD-7411",
"Latitude": 45.9256,
"Longitude": 28.4622
},
{
"Name": "Hirtop",
"PostCode": "MD-7411",
"Latitude": 45.9206,
"Longitude": 28.4928
},
{
"Name": "Mirnoe",
"PostCode": "MD-7423",
"Latitude": 45.7375,
"Longitude": 28.5811
},
{
"Name": "Musaitu",
"PostCode": "MD-7424",
"Latitude": 45.8206,
"Longitude": 28.505
},
{
"Name": "Novosiolovca",
"PostCode": "MD-7425",
"Latitude": 45.9006,
"Longitude": 28.6017
},
{
"Name": "Orehovca",
"PostCode": "MD-7426",
"Latitude": 45.9089,
"Longitude": 28.5278
},
{
"Name": "Rosita",
"PostCode": "MD-7412",
"Latitude": 46.0333,
"Longitude": 28.4722
},
{
"Name": "Salcia",
"PostCode": "MD-7426",
"Latitude": 45.8758,
"Longitude": 28.5158
},
{
"Name": "Samurza",
"PostCode": "MD-7419",
"Latitude": 45.9769,
"Longitude": 28.5647
},
{
"Name": "Sofievca",
"PostCode": "MD-7412",
"Latitude": 46.0086,
"Longitude": 28.4717
},
{
"Name": "Taraclia 1",
"PostCode": "MD-7401",
"Latitude": 45.9,
"Longitude": 28.6689
},
{
"Name": "Taraclia 2",
"PostCode": "MD-7402",
"Latitude": 45.9,
"Longitude": 28.6689
},
{
"Name": "Tvardita",
"PostCode": "MD-7422",
"Latitude": 46.1547,
"Longitude": 28.9656
},
{
"Name": "Valea Perjei",
"PostCode": "MD-7427",
"Latitude": 46.0339,
"Longitude": 28.925
},
{
"Name": "Vinogradovca",
"PostCode": "MD-7426",
"Latitude": 45.8042,
"Longitude": 28.5347
}
]
}
]
}
]
}
]