[
{
"Name": "Martinique",
"Code": "MQ",
"Provinces": [
{
"Name": "Martinique",
"Code": "972",
"Communities": [
{
"Name": "Arrondissement de Fort-de-France",
"Code": "9721",
"Places": [
{
"Name": "Fort-de-France",
"PostCode": "97200",
"Location": {
"Latitude": 14.6089,
"Longitude": -61.0733
}
},
{
"Name": "Fort-de-France",
"PostCode": "97201 CEDEX",
"Location": {
"Latitude": 14.6089,
"Longitude": -61.0733
}
},
{
"Name": "Fort-de-France",
"PostCode": "97202 CEDEX",
"Location": {
"Latitude": 14.6089,
"Longitude": -61.0733
}
},
{
"Name": "Fort-de-France",
"PostCode": "97203 CEDEX",
"Location": {
"Latitude": 14.6089,
"Longitude": -61.0733
}
},
{
"Name": "Fort-de-France",
"PostCode": "97204 CEDEX",
"Location": {
"Latitude": 14.6089,
"Longitude": -61.0733
}
},
{
"Name": "Fort-de-France",
"PostCode": "97205 CEDEX",
"Location": {
"Latitude": 14.6089,
"Longitude": -61.0733
}
},
{
"Name": "Fort-de-France",
"PostCode": "97206 CEDEX",
"Location": {
"Latitude": 14.6089,
"Longitude": -61.0733
}
},
{
"Name": "Fort-de-France",
"PostCode": "97207 CEDEX",
"Location": {
"Latitude": 14.6089,
"Longitude": -61.0733
}
},
{
"Name": "Fort-de-France",
"PostCode": "97208 CEDEX",
"Location": {
"Latitude": 14.6089,
"Longitude": -61.0733
}
},
{
"Name": "Fort-de-France",
"PostCode": "97209 CEDEX",
"Location": {
"Latitude": 14.6089,
"Longitude": -61.0733
}
},
{
"Name": "Fort-de-France",
"PostCode": "97219 CEDEX",
"Location": {
"Latitude": 14.6089,
"Longitude": -61.0733
}
},
{
"Name": "Fort-de-France",
"PostCode": "97234",
"Location": {
"Latitude": 14.6089,
"Longitude": -61.0733
}
},
{
"Name": "Fort-de-France",
"PostCode": "97241 CEDEX",
"Location": {
"Latitude": 14.6089,
"Longitude": -61.0733
}
},
{
"Name": "Fort-de-France",
"PostCode": "97242 CEDEX",
"Location": {
"Latitude": 14.6089,
"Longitude": -61.0733
}
},
{
"Name": "Fort-de-France",
"PostCode": "97243 CEDEX",
"Location": {
"Latitude": 14.6089,
"Longitude": -61.0733
}
},
{
"Name": "Fort-de-France",
"PostCode": "97244 CEDEX",
"Location": {
"Latitude": 14.6089,
"Longitude": -61.0733
}
},
{
"Name": "Fort-de-France",
"PostCode": "97245 CEDEX",
"Location": {
"Latitude": 14.6089,
"Longitude": -61.0733
}
},
{
"Name": "Fort-de-France",
"PostCode": "97246 CEDEX",
"Location": {
"Latitude": 14.6089,
"Longitude": -61.0733
}
},
{
"Name": "Fort-de-France",
"PostCode": "97247 CEDEX",
"Location": {
"Latitude": 14.6089,
"Longitude": -61.0733
}
},
{
"Name": "Fort-de-France",
"PostCode": "97248 CEDEX",
"Location": {
"Latitude": 14.6089,
"Longitude": -61.0733
}
},
{
"Name": "Fort-de-France",
"PostCode": "97249 CEDEX",
"Location": {
"Latitude": 14.6089,
"Longitude": -61.0733
}
},
{
"Name": "Fort-de-France",
"PostCode": "97251 CEDEX",
"Location": {
"Latitude": 14.6089,
"Longitude": -61.0733
}
},
{
"Name": "Fort-de-France",
"PostCode": "97252 CEDEX",
"Location": {
"Latitude": 14.6089,
"Longitude": -61.0733
}
},
{
"Name": "Fort-de-France",
"PostCode": "97253 CEDEX",
"Location": {
"Latitude": 14.6089,
"Longitude": -61.0733
}
},
{
"Name": "Fort-de-France",
"PostCode": "97254 CEDEX",
"Location": {
"Latitude": 14.6089,
"Longitude": -61.0733
}
},
{
"Name": "Fort-de-France",
"PostCode": "97255 CEDEX",
"Location": {
"Latitude": 14.6089,
"Longitude": -61.0733
}
},
{
"Name": "Fort-de-France",
"PostCode": "97256 CEDEX",
"Location": {
"Latitude": 14.6089,
"Longitude": -61.0733
}
},
{
"Name": "Fort-de-France",
"PostCode": "97257 CEDEX",
"Location": {
"Latitude": 14.6089,
"Longitude": -61.0733
}
},
{
"Name": "Fort-de-France",
"PostCode": "97258 CEDEX",
"Location": {
"Latitude": 14.6089,
"Longitude": -61.0733
}
},
{
"Name": "Fort-de-France",
"PostCode": "97259 CEDEX",
"Location": {
"Latitude": 14.6089,
"Longitude": -61.0733
}
},
{
"Name": "Fort-de-France",
"PostCode": "97261 CEDEX",
"Location": {
"Latitude": 14.6089,
"Longitude": -61.0733
}
},
{
"Name": "Fort-de-France",
"PostCode": "97262 CEDEX",
"Location": {
"Latitude": 14.6089,
"Longitude": -61.0733
}
},
{
"Name": "Fort-de-France",
"PostCode": "97263 CEDEX",
"Location": {
"Latitude": 14.6089,
"Longitude": -61.0733
}
},
{
"Name": "Fort-de-France",
"PostCode": "97264 CEDEX",
"Location": {
"Latitude": 14.6089,
"Longitude": -61.0733
}
},
{
"Name": "Fort-de-France",
"PostCode": "97265 CEDEX",
"Location": {
"Latitude": 14.6089,
"Longitude": -61.0733
}
},
{
"Name": "Fort-de-France",
"PostCode": "97266 CEDEX",
"Location": {
"Latitude": 14.6089,
"Longitude": -61.0733
}
},
{
"Name": "Fort-de-France",
"PostCode": "97267 CEDEX",
"Location": {
"Latitude": 14.6089,
"Longitude": -61.0733
}
},
{
"Name": "Fort-de-France",
"PostCode": "97268 CEDEX",
"Location": {
"Latitude": 14.6089,
"Longitude": -61.0733
}
},
{
"Name": "Fort-de-France",
"PostCode": "97269 CEDEX",
"Location": {
"Latitude": 14.6089,
"Longitude": -61.0733
}
},
{
"Name": "Fort-de-France",
"PostCode": "97299 CEDEX",
"Location": {
"Latitude": 14.6089,
"Longitude": -61.0733
}
},
{
"Name": "Le Lamentin",
"PostCode": "97210 CEDEX 2",
"Location": {
"Latitude": 14.608,
"Longitude": -61.0093
}
},
{
"Name": "Le Lamentin",
"PostCode": "97232",
"Location": {
"Latitude": 14.608,
"Longitude": -61.0093
}
},
{
"Name": "Le Lamentin",
"PostCode": "97281 CEDEX 1",
"Location": {
"Latitude": 14.608,
"Longitude": -61.0093
}
},
{
"Name": "Le Lamentin",
"PostCode": "97282 CEDEX 1",
"Location": {
"Latitude": 14.608,
"Longitude": -61.0093
}
},
{
"Name": "Le Lamentin",
"PostCode": "97283 CEDEX 1",
"Location": {
"Latitude": 14.608,
"Longitude": -61.0093
}
},
{
"Name": "Le Lamentin",
"PostCode": "97284 CEDEX 2",
"Location": {
"Latitude": 14.608,
"Longitude": -61.0093
}
},
{
"Name": "Le Lamentin",
"PostCode": "97285 CEDEX 2",
"Location": {
"Latitude": 14.608,
"Longitude": -61.0093
}
},
{
"Name": "Le Lamentin",
"PostCode": "97286 CEDEX 2",
"Location": {
"Latitude": 14.608,
"Longitude": -61.0093
}
},
{
"Name": "Le Lamentin",
"PostCode": "97287 CEDEX 2",
"Location": {
"Latitude": 14.608,
"Longitude": -61.0093
}
},
{
"Name": "Le Lamentin",
"PostCode": "97288 CEDEX 2",
"Location": {
"Latitude": 14.608,
"Longitude": -61.0093
}
},
{
"Name": "Le Lamentin",
"PostCode": "97289 CEDEX 2",
"Location": {
"Latitude": 14.608,
"Longitude": -61.0093
}
},
{
"Name": "Le Lamentin",
"PostCode": "97291 CEDEX 2",
"Location": {
"Latitude": 14.608,
"Longitude": -61.0093
}
},
{
"Name": "Le Lamentin",
"PostCode": "97292 CEDEX 2",
"Location": {
"Latitude": 14.608,
"Longitude": -61.0093
}
},
{
"Name": "Le Lamentin",
"PostCode": "97293 CEDEX 2",
"Location": {
"Latitude": 14.608,
"Longitude": -61.0093
}
},
{
"Name": "Le Lamentin",
"PostCode": "97294 CEDEX 2",
"Location": {
"Latitude": 14.608,
"Longitude": -61.0093
}
},
{
"Name": "Le Lamentin",
"PostCode": "97295 CEDEX 2",
"Location": {
"Latitude": 14.608,
"Longitude": -61.0093
}
},
{
"Name": "Le Lamentin",
"PostCode": "97296 CEDEX 2",
"Location": {
"Latitude": 14.608,
"Longitude": -61.0093
}
},
{
"Name": "Le Lamentin",
"PostCode": "97297 CEDEX 2",
"Location": {
"Latitude": 14.608,
"Longitude": -61.0093
}
},
{
"Name": "Le Lamentin",
"PostCode": "97298 CEDEX 2",
"Location": {
"Latitude": 14.608,
"Longitude": -61.0093
}
},
{
"Name": "Saint-Joseph",
"PostCode": "97212",
"Location": {
"Latitude": 14.671,
"Longitude": -61.0391
}
},
{
"Name": "Schoelcher",
"PostCode": "97233",
"Location": {
"Latitude": 14.6177,
"Longitude": -61.099
}
},
{
"Name": "Schoelcher",
"PostCode": "97271 CEDEX",
"Location": {
"Latitude": 14.6177,
"Longitude": -61.099
}
},
{
"Name": "Schoelcher",
"PostCode": "97272 CEDEX",
"Location": {
"Latitude": 14.6177,
"Longitude": -61.099
}
},
{
"Name": "Schoelcher",
"PostCode": "97273 CEDEX",
"Location": {
"Latitude": 14.6177,
"Longitude": -61.099
}
},
{
"Name": "Schoelcher",
"PostCode": "97274 CEDEX",
"Location": {
"Latitude": 14.6177,
"Longitude": -61.099
}
},
{
"Name": "Schoelcher",
"PostCode": "97275 CEDEX",
"Location": {
"Latitude": 14.6177,
"Longitude": -61.099
}
},
{
"Name": "Schoelcher",
"PostCode": "97276 CEDEX",
"Location": {
"Latitude": 14.6177,
"Longitude": -61.099
}
},
{
"Name": "Schoelcher",
"PostCode": "97277 CEDEX",
"Location": {
"Latitude": 14.6177,
"Longitude": -61.099
}
},
{
"Name": "Schoelcher",
"PostCode": "97278 CEDEX",
"Location": {
"Latitude": 14.6177,
"Longitude": -61.099
}
},
{
"Name": "Schoelcher",
"PostCode": "97279 CEDEX",
"Location": {
"Latitude": 14.6177,
"Longitude": -61.099
}
}
]
},
{
"Name": "Arrondissement de La Trinité",
"Code": "9722",
"Places": [
{
"Name": "Basse-Pointe",
"PostCode": "97218",
"Location": {
"Latitude": 14.8695,
"Longitude": -61.115
}
},
{
"Name": "Grand'Rivière",
"PostCode": "97218",
"Location": {
"Latitude": 14.8735,
"Longitude": -61.1795
}
},
{
"Name": "La Trinité",
"PostCode": "97220",
"Location": {
"Latitude": 14.7376,
"Longitude": -60.9629
}
},
{
"Name": "L'Ajoupa-Bouillon",
"PostCode": "97216",
"Location": {
"Latitude": 14.8167,
"Longitude": -61.1167
}
},
{
"Name": "Le Gros-Morne",
"PostCode": "97213",
"Location": {
"Latitude": 14.7,
"Longitude": -61.0
}
},
{
"Name": "Le Lorrain",
"PostCode": "97214",
"Location": {
"Latitude": 14.8329,
"Longitude": -61.0567
}
},
{
"Name": "Le Marigot",
"PostCode": "97225",
"Location": {
"Latitude": 14.8225,
"Longitude": -61.0313
}
},
{
"Name": "Le Robert",
"PostCode": "97231",
"Location": {
"Latitude": 14.6775,
"Longitude": -60.9423
}
},
{
"Name": "Macouba",
"PostCode": "97218",
"Location": {
"Latitude": 14.8764,
"Longitude": -61.142
}
},
{
"Name": "Sainte-Marie",
"PostCode": "97230",
"Location": {
"Latitude": 14.7839,
"Longitude": -60.9927
}
}
]
},
{
"Name": "Arrondissement du Marin",
"Code": "9723",
"Places": [
{
"Name": "Ducos",
"PostCode": "97224",
"Location": {
"Latitude": 14.5753,
"Longitude": -60.9745
}
},
{
"Name": "Le Diamant",
"PostCode": "97223",
"Location": {
"Latitude": 14.4795,
"Longitude": -61.027
}
},
{
"Name": "Le François",
"PostCode": "97240",
"Location": {
"Latitude": 14.6156,
"Longitude": -60.9031
}
},
{
"Name": "Le Marin",
"PostCode": "97290",
"Location": {
"Latitude": 14.4721,
"Longitude": -60.8697
}
},
{
"Name": "Le Vauclin",
"PostCode": "97280",
"Location": {
"Latitude": 14.5452,
"Longitude": -60.8388
}
},
{
"Name": "Les Anses-d'Arlet",
"PostCode": "97217",
"Location": {
"Latitude": 14.4833,
"Longitude": -61.0833
}
},
{
"Name": "Les Trois-Îlets",
"PostCode": "97229",
"Location": {
"Latitude": 14.539,
"Longitude": -61.0361
}
},
{
"Name": "Rivière-Pilote",
"PostCode": "97211",
"Location": {
"Latitude": 14.4775,
"Longitude": -60.9035
}
},
{
"Name": "Rivière-Salée",
"PostCode": "97215",
"Location": {
"Latitude": 14.5272,
"Longitude": -60.9781
}
},
{
"Name": "Sainte-Anne",
"PostCode": "97227",
"Location": {
"Latitude": 14.4331,
"Longitude": -60.8811
}
},
{
"Name": "Sainte-Luce",
"PostCode": "97228",
"Location": {
"Latitude": 14.4673,
"Longitude": -60.9271
}
},
{
"Name": "Saint-Esprit",
"PostCode": "97270",
"Location": {
"Latitude": 14.55,
"Longitude": -60.9333
}
}
]
},
{
"Name": "Arrondissement de Saint-Pierre",
"Code": "9724",
"Places": [
{
"Name": "Bellefontaine",
"PostCode": "97222",
"Location": {
"Latitude": 14.6731,
"Longitude": -61.164
}
},
{
"Name": "Case-Pilote",
"PostCode": "97222",
"Location": {
"Latitude": 14.6428,
"Longitude": -61.1385
}
},
{
"Name": "Fonds-Saint-Denis",
"PostCode": "97250",
"Location": {
"Latitude": 14.7333,
"Longitude": -61.1333
}
},
{
"Name": "Le Carbet",
"PostCode": "97221",
"Location": {
"Latitude": 14.7103,
"Longitude": -61.1824
}
},
{
"Name": "Le Morne-Rouge",
"PostCode": "97260",
"Location": {
"Latitude": 14.7667,
"Longitude": -61.1333
}
},
{
"Name": "Le Morne-Vert",
"PostCode": "97226",
"Location": {
"Latitude": 14.707,
"Longitude": -61.1462
}
},
{
"Name": "Le Prêcheur",
"PostCode": "97250",
"Location": {
"Latitude": 14.8017,
"Longitude": -61.2247
}
},
{
"Name": "Saint-Pierre",
"PostCode": "97250",
"Location": {
"Latitude": 14.7438,
"Longitude": -61.1753
}
}
]
}
]
}
]
}
]