[
{
"Name": "Comarca Wargandi",
"PostCode": "11001",
"Provinces": [
{
"PostCode": "11001",
"Communities": [
{
"Places": [
{
"Name": "Wargandi",
"PostCode": "11001",
"Location": {
"Latitude": 8.857,
"Longitude": -77.978
}
}
],
"PostCode": "11001"
}
]
}
]
},
{
"Name": "Darien Y Comarca Embera",
"Provinces": [
{
"Name": "Chepigana",
"Communities": [
{
"Places": [
{
"Name": "Agua Fria",
"PostCode": "12013",
"Location": {
"Latitude": 8.935,
"Longitude": -78.494
}
},
{
"Name": "Camoganti",
"PostCode": "12002",
"Location": {
"Latitude": 8.0417,
"Longitude": -77.8868
}
},
{
"Name": "Chepigana",
"PostCode": "12003",
"Location": {
"Latitude": 8.2845,
"Longitude": -78.0419
}
},
{
"Name": "Cucunati",
"PostCode": "12014",
"Location": {
"Latitude": 8.5791,
"Longitude": -78.2558
}
},
{
"Name": "Garachine",
"PostCode": "12004",
"Location": {
"Latitude": 8.0668,
"Longitude": -78.3644
}
},
{
"Name": "Jaque",
"PostCode": "12005",
"Location": {
"Latitude": 7.5183,
"Longitude": -78.1634
}
},
{
"Name": "La Palma (Cabec)",
"PostCode": "12001",
"Location": {
"Latitude": 8.1052,
"Longitude": -78.1493
}
},
{
"Name": "Puerto Piða",
"PostCode": "12006",
"Location": {
"Latitude": 8.1052,
"Longitude": -78.1493
}
},
{
"Name": "Rio Congo",
"PostCode": "12007",
"Location": {
"Latitude": 8.4025,
"Longitude": -78.3689
}
},
{
"Name": "Rio Congo Arriba",
"PostCode": "12015",
"Location": {
"Latitude": 8.305,
"Longitude": -78.1847
}
},
{
"Name": "Rio Iglesias",
"PostCode": "12008",
"Location": {
"Latitude": 8.3971,
"Longitude": -78.0104
}
},
{
"Name": "Sambu",
"PostCode": "12009",
"Location": {
"Latitude": 8.0254,
"Longitude": -78.2093
}
},
{
"Name": "Santa Fe",
"PostCode": "12016",
"Location": {
"Latitude": 8.6584,
"Longitude": -78.1589
}
},
{
"Name": "Seteganti",
"PostCode": "12010",
"Location": {
"Latitude": 8.294,
"Longitude": -78.0892
}
},
{
"Name": "Taimati",
"PostCode": "12011",
"Location": {
"Latitude": 8.1536,
"Longitude": -78.2444
}
},
{
"Name": "Tucuti",
"PostCode": "12012",
"Location": {
"Latitude": 7.9601,
"Longitude": -77.9322
}
}
]
}
]
},
{
"Name": "Sambu",
"Communities": [
{
"Places": [
{
"Name": "Jingurudo",
"PostCode": "12017",
"Location": {
"Latitude": 7.8775,
"Longitude": -78.0839
}
},
{
"Name": "Rio Sabalo",
"PostCode": "12018",
"Location": {
"Latitude": 7.9821,
"Longitude": -78.2194
}
}
]
}
]
},
{
"Name": "Pinogana",
"Communities": [
{
"Places": [
{
"Name": "Boca De Chupe",
"PostCode": "12020",
"Location": {
"Latitude": 8.1675,
"Longitude": -77.6647
}
},
{
"Name": "El Real S. M. (Cabec)",
"PostCode": "12019",
"Location": {
"Latitude": 8.305,
"Longitude": -78.1847
}
},
{
"Name": "Meteti",
"PostCode": "12026",
"Location": {
"Latitude": 8.4991,
"Longitude": -77.979
}
},
{
"Name": "Paya",
"PostCode": "12021",
"Location": {
"Latitude": 7.9058,
"Longitude": -77.4037
}
},
{
"Name": "Pinogana",
"PostCode": "12022",
"Location": {
"Latitude": 8.1172,
"Longitude": -77.6831
}
},
{
"Name": "Pucuro",
"PostCode": "12023",
"Location": {
"Latitude": 7.9788,
"Longitude": -77.4876
}
},
{
"Name": "Yape",
"PostCode": "12024",
"Location": {
"Latitude": 8.0984,
"Longitude": -77.5982
}
},
{
"Name": "Yaviza",
"PostCode": "12025",
"Location": {
"Latitude": 8.1583,
"Longitude": -77.6928
}
}
]
}
]
},
{
"Name": "Cemaco",
"Communities": [
{
"Places": [
{
"Name": "Cirilo Guaynora",
"PostCode": "12027",
"Location": {
"Latitude": 8.1675,
"Longitude": -77.6647
}
},
{
"Name": "Lajas Blancas",
"PostCode": "12028",
"Location": {
"Latitude": 8.415,
"Longitude": -77.8087
}
},
{
"Name": "Manuel Ortega",
"PostCode": "12029",
"Location": {
"Latitude": 8.1675,
"Longitude": -77.6647
}
}
]
}
]
}
]
},
{
"Name": "Bocas Del Toro",
"Code": "01",
"Provinces": [
{
"Name": "Bocas Del Toro",
"Code": "0101",
"Communities": [
{
"Places": [
{
"Name": "Bastimentos",
"PostCode": "01002",
"Location": {
"Latitude": 9.3486,
"Longitude": -82.2109
}
},
{
"Name": "Bocas Del Toro (Cabecera)",
"PostCode": "01001",
"Location": {
"Latitude": 9.2973,
"Longitude": -82.3254
}
},
{
"Name": "Cauchero",
"PostCode": "01004",
"Location": {
"Latitude": 9.2973,
"Longitude": -82.3254
}
},
{
"Name": "Punta Laurel",
"PostCode": "01003",
"Location": {
"Latitude": 9.1412,
"Longitude": -82.127
}
},
{
"Name": "Tierra Oscura",
"PostCode": "01005",
"Location": {
"Latitude": 9.2014,
"Longitude": -82.2759
}
}
]
}
]
},
{
"Name": "Changuinola",
"Code": "0102",
"Communities": [
{
"Places": [
{
"Name": "Almirante",
"PostCode": "01007",
"Location": {
"Latitude": 9.3009,
"Longitude": -82.4018
}
},
{
"Name": "Changuinola (Cabec)",
"PostCode": "01006",
"Location": {
"Latitude": 9.2973,
"Longitude": -82.3254
}
},
{
"Name": "El Empalme",
"PostCode": "01011",
"Location": {
"Latitude": 9.4147,
"Longitude": -82.5224
}
},
{
"Name": "El Teribe",
"PostCode": "01009",
"Location": {
"Latitude": 9.2973,
"Longitude": -82.3254
}
},
{
"Name": "Guabito",
"PostCode": "01008",
"Location": {
"Latitude": 9.4944,
"Longitude": -82.6115
}
},
{
"Name": "Las Tablas",
"PostCode": "01012",
"Location": {
"Latitude": 9.5441,
"Longitude": -82.7408
}
},
{
"Name": "Valle Del Risco",
"PostCode": "01010",
"Location": {
"Latitude": 9.1841,
"Longitude": -82.3876
}
}
]
}
]
},
{
"Name": "Chiriqui Grande",
"Code": "0103",
"Communities": [
{
"Places": [
{
"Name": "Chiriqui Grande (Cabec)",
"PostCode": "01013",
"Location": {
"Latitude": 9.1841,
"Longitude": -82.3876
}
},
{
"Name": "Miramar",
"PostCode": "01015",
"Location": {
"Latitude": 8.9975,
"Longitude": -82.2434
}
},
{
"Name": "Punta Peða",
"PostCode": "01016",
"Location": {
"Latitude": 9.1841,
"Longitude": -82.3876
}
},
{
"Name": "Punta Robalo",
"PostCode": "01014",
"Location": {
"Latitude": 9.0379,
"Longitude": -82.2477
}
},
{
"Name": "Rambala",
"PostCode": "01017",
"Location": {
"Latitude": 8.9262,
"Longitude": -82.1838
}
}
]
}
]
}
]
},
{
"Name": "Chiriqui",
"Code": "02",
"Provinces": [
{
"Name": "Alanje",
"Code": "0401",
"Communities": [
{
"Places": [
{
"Name": "Alanje (Cabec)",
"PostCode": "04029",
"Location": {
"Latitude": 8.5829,
"Longitude": -82.683
}
},
{
"Name": "Canta Gallo",
"PostCode": "04035",
"Location": {
"Latitude": 8.3604,
"Longitude": -82.6318
}
},
{
"Name": "Divala",
"PostCode": "04030",
"Location": {
"Latitude": 8.4129,
"Longitude": -82.7137
}
},
{
"Name": "Guarumal",
"PostCode": "04031",
"Location": {
"Latitude": 8.3479,
"Longitude": -82.5298
}
},
{
"Name": "Nuevo Mexico",
"PostCode": "04036",
"Location": {
"Latitude": 8.4272,
"Longitude": -82.5972
}
},
{
"Name": "Palo Grande",
"PostCode": "04032",
"Location": {
"Latitude": 8.3516,
"Longitude": -82.6064
}
},
{
"Name": "Querevalo",
"PostCode": "04033",
"Location": {
"Latitude": 8.3724,
"Longitude": -82.5199
}
},
{
"Name": "Santo Tomas",
"PostCode": "04034",
"Location": {
"Latitude": 8.397,
"Longitude": -82.6477
}
}
]
}
]
},
{
"Name": "Baru",
"Code": "0402",
"Communities": [
{
"Places": [
{
"Name": "Baco",
"PostCode": "04014",
"Location": {
"Latitude": 8.3595,
"Longitude": -82.7498
}
},
{
"Name": "Limones",
"PostCode": "04012",
"Location": {
"Latitude": 8.1009,
"Longitude": -82.8659
}
},
{
"Name": "Progreso",
"PostCode": "04013",
"Location": {
"Latitude": 8.4467,
"Longitude": -82.8386
}
},
{
"Name": "Puerto Armuelles (Cabec)",
"PostCode": "04011",
"Location": {
"Latitude": 8.4553,
"Longitude": -82.7396
}
},
{
"Name": "Rodolfo Aguilar",
"PostCode": "04015",
"Location": {
"Latitude": 8.4553,
"Longitude": -82.7396
}
}
]
}
]
},
{
"Name": "Boqueron",
"Code": "0403",
"Communities": [
{
"Places": [
{
"Name": "Bagala",
"PostCode": "04038",
"Location": {
"Latitude": 8.4671,
"Longitude": -82.5269
}
},
{
"Name": "Boqueron (Cabec)",
"PostCode": "04037",
"Location": {
"Latitude": 8.4272,
"Longitude": -82.5972
}
},
{
"Name": "Cordillera",
"PostCode": "04039",
"Location": {
"Latitude": 8.7085,
"Longitude": -82.6012
}
},
{
"Name": "Guabal",
"PostCode": "04040",
"Location": {
"Latitude": 8.5747,
"Longitude": -82.5373
}
},
{
"Name": "Guayabal",
"PostCode": "04041",
"Location": {
"Latitude": 8.6179,
"Longitude": -82.5791
}
},
{
"Name": "Paraiso",
"PostCode": "04042",
"Location": {
"Latitude": 8.6627,
"Longitude": -82.5908
}
},
{
"Name": "Pedregal",
"PostCode": "04043",
"Location": {
"Latitude": 8.6435,
"Longitude": -82.6501
}
},
{
"Name": "Tijeras",
"PostCode": "04044",
"Location": {
"Latitude": 8.4693,
"Longitude": -82.5484
}
}
]
}
]
},
{
"Name": "Boquete",
"Code": "0404",
"Communities": [
{
"Places": [
{
"Name": "Alto Boquete",
"PostCode": "04056",
"Location": {
"Latitude": 8.7362,
"Longitude": -82.4333
}
},
{
"Name": "Bajo Boquete (Cabec)",
"PostCode": "04053",
"Location": {
"Latitude": 8.7303,
"Longitude": -82.5604
}
},
{
"Name": "Caldera",
"PostCode": "04054",
"Location": {
"Latitude": 8.6542,
"Longitude": -82.3799
}
},
{
"Name": "Jaramillo",
"PostCode": "04057",
"Location": {
"Latitude": 8.7707,
"Longitude": -82.4232
}
},
{
"Name": "Los Naranjos",
"PostCode": "04058",
"Location": {
"Latitude": 8.7942,
"Longitude": -82.4456
}
},
{
"Name": "Palmira",
"PostCode": "04055",
"Location": {
"Latitude": 8.734,
"Longitude": -82.4589
}
}
]
}
]
},
{
"Name": "Bugaba",
"Code": "0405",
"Communities": [
{
"Places": [
{
"Name": "Aserrio De Gariche",
"PostCode": "04017",
"Location": {
"Latitude": 8.4864,
"Longitude": -82.7893
}
},
{
"Name": "Bugaba",
"PostCode": "04018",
"Location": {
"Latitude": 8.4861,
"Longitude": -82.6202
}
},
{
"Name": "Cerro Punta",
"PostCode": "04019",
"Location": {
"Latitude": 8.8522,
"Longitude": -82.5736
}
},
{
"Name": "El Bongo",
"PostCode": "04028",
"Location": {
"Latitude": 8.5926,
"Longitude": -82.6226
}
},
{
"Name": "Gomez",
"PostCode": "04020",
"Location": {
"Latitude": 8.5649,
"Longitude": -82.7402
}
},
{
"Name": "La Concepcion (Cabec)",
"PostCode": "04016",
"Location": {
"Latitude": 8.4553,
"Longitude": -82.7396
}
},
{
"Name": "La Estrella",
"PostCode": "04021",
"Location": {
"Latitude": 8.5181,
"Longitude": -82.6704
}
},
{
"Name": "San Andres",
"PostCode": "04022",
"Location": {
"Latitude": 8.6022,
"Longitude": -82.7245
}
},
{
"Name": "Santa Marta",
"PostCode": "04023",
"Location": {
"Latitude": 8.5229,
"Longitude": -82.7011
}
},
{
"Name": "Santa Rosa",
"PostCode": "04024",
"Location": {
"Latitude": 8.6031,
"Longitude": -82.6846
}
},
{
"Name": "Santo Domingo",
"PostCode": "04025",
"Location": {
"Latitude": 8.5104,
"Longitude": -82.7136
}
},
{
"Name": "Sortova",
"PostCode": "04026",
"Location": {
"Latitude": 8.5511,
"Longitude": -82.6509
}
},
{
"Name": "Volcan",
"PostCode": "04027",
"Location": {
"Latitude": 8.7805,
"Longitude": -82.639
}
}
]
}
]
},
{
"Name": "David",
"Code": "0406",
"Communities": [
{
"Places": [
{
"Name": "Bijagual",
"PostCode": "04002",
"Location": {
"Latitude": 8.5149,
"Longitude": -82.3336
}
},
{
"Name": "Chiriqui",
"PostCode": "04004",
"Location": {
"Latitude": 8.3971,
"Longitude": -82.3216
}
},
{
"Name": "Cochea",
"PostCode": "04003",
"Location": {
"Latitude": 8.4443,
"Longitude": -82.4131
}
},
{
"Name": "David (Cabec)",
"PostCode": "04001",
"Location": {
"Latitude": 8.4443,
"Longitude": -82.4131
}
},
{
"Name": "Guaca",
"PostCode": "04005",
"Location": {
"Latitude": 8.4443,
"Longitude": -82.4131
}
},
{
"Name": "Las Lomas",
"PostCode": "04006",
"Location": {
"Latitude": 8.429,
"Longitude": -82.389
}
},
{
"Name": "Pedregal",
"PostCode": "04007",
"Location": {
"Latitude": 8.377,
"Longitude": -82.4295
}
},
{
"Name": "San Carlos",
"PostCode": "04008",
"Location": {
"Latitude": 8.5205,
"Longitude": -82.5047
}
},
{
"Name": "San Pablo Nuevo",
"PostCode": "04009",
"Location": {
"Latitude": 8.4277,
"Longitude": -82.5001
}
},
{
"Name": "San Pablo Viejo",
"PostCode": "04010",
"Location": {
"Latitude": 8.4553,
"Longitude": -82.7396
}
}
]
}
]
},
{
"Name": "Dolega",
"Code": "0407",
"Communities": [
{
"Places": [
{
"Name": "Dolega (Cabec)",
"PostCode": "04059",
"Location": {
"Latitude": 8.7303,
"Longitude": -82.5604
}
},
{
"Name": "Dos Rios",
"PostCode": "04060",
"Location": {
"Latitude": 8.5517,
"Longitude": -82.3981
}
},
{
"Name": "Los Algarrobos",
"PostCode": "04066",
"Location": {
"Latitude": 8.4967,
"Longitude": -82.4242
}
},
{
"Name": "Los Anastacios",
"PostCode": "04061",
"Location": {
"Latitude": 8.5303,
"Longitude": -82.423
}
},
{
"Name": "Potrerillos",
"PostCode": "04062",
"Location": {
"Latitude": 8.6452,
"Longitude": -82.4857
}
},
{
"Name": "Potrerillos Abajo",
"PostCode": "04063",
"Location": {
"Latitude": 8.6452,
"Longitude": -82.4857
}
},
{
"Name": "Rovira",
"PostCode": "04064",
"Location": {
"Latitude": 8.5649,
"Longitude": -82.4117
}
},
{
"Name": "Tinajas",
"PostCode": "04065",
"Location": {
"Latitude": 8.5592,
"Longitude": -82.4622
}
}
]
}
]
},
{
"Name": "Gualaca",
"Code": "0408",
"Communities": [
{
"Places": [
{
"Name": "Gualaca (Cabec)",
"PostCode": "04067",
"Location": {
"Latitude": 8.5649,
"Longitude": -82.4117
}
},
{
"Name": "Hornito",
"PostCode": "04068",
"Location": {
"Latitude": 8.5649,
"Longitude": -82.4117
}
},
{
"Name": "Los Angeles",
"PostCode": "04069",
"Location": {
"Latitude": 8.5257,
"Longitude": -82.2029
}
},
{
"Name": "Paja De Sombrero",
"PostCode": "04070",
"Location": {
"Latitude": 8.6861,
"Longitude": -82.3215
}
},
{
"Name": "Rincon",
"PostCode": "04071",
"Location": {
"Latitude": 8.466,
"Longitude": -82.281
}
}
]
}
]
},
{
"Name": "Remedios",
"Code": "0409",
"Communities": [
{
"Places": [
{
"Name": "El Nancito",
"PostCode": "04073",
"Location": {
"Latitude": 8.2412,
"Longitude": -81.7321
}
},
{
"Name": "El Porvenir",
"PostCode": "04074",
"Location": {
"Latitude": 8.232,
"Longitude": -81.8335
}
},
{
"Name": "El Puerto",
"PostCode": "04075",
"Location": {
"Latitude": 8.2152,
"Longitude": -81.81
}
},
{
"Name": "Remedios (Cabec)",
"PostCode": "04072",
"Location": {
"Latitude": 8.3312,
"Longitude": -82.0175
}
},
{
"Name": "Santa Lucia",
"PostCode": "04076",
"Location": {
"Latitude": 8.232,
"Longitude": -81.8261
}
}
]
}
]
},
{
"Name": "Renacimiento",
"Code": "0410",
"Communities": [
{
"Places": [
{
"Name": "Breðon",
"PostCode": "04046",
"Location": {
"Latitude": 8.6435,
"Longitude": -82.6501
}
},
{
"Name": "Caðas Gordas",
"PostCode": "04047",
"Location": {
"Latitude": 8.6435,
"Longitude": -82.6501
}
},
{
"Name": "Dominical",
"PostCode": "04052",
"Location": {
"Latitude": 8.6719,
"Longitude": -82.7999
}
},
{
"Name": "Monte Lirio",
"PostCode": "04048",
"Location": {
"Latitude": 8.7933,
"Longitude": -82.8245
}
},
{
"Name": "Plaza De Caisan",
"PostCode": "04049",
"Location": {
"Latitude": 8.7435,
"Longitude": -82.8207
}
},
{
"Name": "Rio Sereno (Cabec)",
"PostCode": "04045",
"Location": {
"Latitude": 8.6435,
"Longitude": -82.6501
}
},
{
"Name": "Santa Clara",
"PostCode": "04051",
"Location": {
"Latitude": 8.8348,
"Longitude": -82.7819
}
},
{
"Name": "Santa Cruz",
"PostCode": "04050",
"Location": {
"Latitude": 8.6463,
"Longitude": -82.7605
}
}
]
}
]
},
{
"Name": "San Felix",
"Code": "0411",
"Communities": [
{
"Places": [
{
"Name": "Juay",
"PostCode": "04092",
"Location": {
"Latitude": 8.2869,
"Longitude": -81.9476
}
},
{
"Name": "Lajas Adentro",
"PostCode": "04094",
"Location": {
"Latitude": 8.2493,
"Longitude": -81.8797
}
},
{
"Name": "Las Lajas (Cabec)",
"PostCode": "04091",
"Location": {
"Latitude": 8.2599,
"Longitude": -81.8523
}
},
{
"Name": "San Felix",
"PostCode": "04093",
"Location": {
"Latitude": 8.2933,
"Longitude": -81.8692
}
},
{
"Name": "Santa Cruz",
"PostCode": "04095",
"Location": {
"Latitude": 8.2353,
"Longitude": -81.9127
}
}
]
}
]
},
{
"Name": "San Lorenzo",
"Code": "0412",
"Communities": [
{
"Places": [
{
"Name": "Boca Chica",
"PostCode": "04078",
"Location": {
"Latitude": 8.2204,
"Longitude": -82.2185
}
},
{
"Name": "Boca Del Monte",
"PostCode": "04079",
"Location": {
"Latitude": 8.3564,
"Longitude": -82.1169
}
},
{
"Name": "Horconcitos (Cabec)",
"PostCode": "04077",
"Location": {
"Latitude": 8.3312,
"Longitude": -82.0175
}
},
{
"Name": "San Juan",
"PostCode": "04080",
"Location": {
"Latitude": 8.2796,
"Longitude": -81.9954
}
},
{
"Name": "San Lorenzo",
"PostCode": "04081",
"Location": {
"Latitude": 8.3094,
"Longitude": -82.1026
}
}
]
}
]
},
{
"Name": "Tole",
"Code": "0413",
"Communities": [
{
"Places": [
{
"Name": "Cbella Vista",
"PostCode": "04087",
"Location": {
"Latitude": 8.2348,
"Longitude": -81.8391
}
},
{
"Name": "Cerro Viejo",
"PostCode": "04083",
"Location": {
"Latitude": 8.254,
"Longitude": -81.5752
}
},
{
"Name": "El Cristo",
"PostCode": "04088",
"Location": {
"Latitude": 8.2348,
"Longitude": -81.8391
}
},
{
"Name": "Justo Fidel Palacios",
"PostCode": "04089",
"Location": {
"Latitude": 8.2348,
"Longitude": -81.8391
}
},
{
"Name": "Lasjas De Tole",
"PostCode": "04084",
"Location": {
"Latitude": 8.2348,
"Longitude": -81.8391
}
},
{
"Name": "Potrero De Caða",
"PostCode": "04085",
"Location": {
"Latitude": 8.2348,
"Longitude": -81.8391
}
},
{
"Name": "Quebrada De Piedra",
"PostCode": "04086",
"Location": {
"Latitude": 8.096,
"Longitude": -81.6831
}
},
{
"Name": "Tole(Cabec)",
"PostCode": "04082",
"Location": {
"Latitude": 8.2348,
"Longitude": -81.8391
}
},
{
"Name": "Veladero",
"PostCode": "04090",
"Location": {
"Latitude": 8.2346,
"Longitude": -81.6525
}
}
]
}
]
}
]
},
{
"Name": "Cocle",
"Code": "03",
"Provinces": [
{
"Name": "Aguadulce",
"Code": "0201",
"Communities": [
{
"Places": [
{
"Name": "Aguadulce (Cabec)",
"PostCode": "02038",
"Location": {
"Latitude": 8.4341,
"Longitude": -80.6585
}
},
{
"Name": "Barrios Unidos",
"PostCode": "02042",
"Location": {
"Latitude": 8.2326,
"Longitude": -80.5433
}
},
{
"Name": "El Cristo",
"PostCode": "02039",
"Location": {
"Latitude": 8.2535,
"Longitude": -80.6203
}
},
{
"Name": "El Roble",
"PostCode": "02040",
"Location": {
"Latitude": 8.1688,
"Longitude": -80.6602
}
},
{
"Name": "Pocri",
"PostCode": "02041",
"Location": {
"Latitude": 8.2564,
"Longitude": -80.5463
}
}
]
}
]
},
{
"Name": "Anton",
"Code": "0202",
"Communities": [
{
"Places": [
{
"Name": "Anton (Cabec)",
"PostCode": "02001",
"Location": {
"Latitude": 8.5204,
"Longitude": -80.1915
}
},
{
"Name": "Caballero",
"PostCode": "02010",
"Location": {
"Latitude": 8.5451,
"Longitude": -80.1972
}
},
{
"Name": "Cabuya",
"PostCode": "02002",
"Location": {
"Latitude": 8.547,
"Longitude": -80.1676
}
},
{
"Name": "El Chiru",
"PostCode": "02003",
"Location": {
"Latitude": 8.5706,
"Longitude": -80.1497
}
},
{
"Name": "El Retiro",
"PostCode": "02004",
"Location": {
"Latitude": 8.4772,
"Longitude": -80.1573
}
},
{
"Name": "El Valle",
"PostCode": "02005",
"Location": {
"Latitude": 8.5204,
"Longitude": -80.1915
}
},
{
"Name": "El Valle",
"PostCode": "02043",
"Location": {
"Latitude": 8.2193,
"Longitude": -80.5833
}
},
{
"Name": "Juan Diaz",
"PostCode": "02006",
"Location": {
"Latitude": 8.4607,
"Longitude": -80.2853
}
},
{
"Name": "Rio Hato",
"PostCode": "02007",
"Location": {
"Latitude": 8.5397,
"Longitude": -80.1643
}
},
{
"Name": "San Juan De Dios",
"PostCode": "02008",
"Location": {
"Latitude": 8.5512,
"Longitude": -80.2262
}
},
{
"Name": "Santa Rita",
"PostCode": "02009",
"Location": {
"Latitude": 8.4961,
"Longitude": -80.1904
}
}
]
}
]
},
{
"Name": "La Pintada",
"Code": "0203",
"Communities": [
{
"Places": [
{
"Name": "El Harino",
"PostCode": "02022",
"Location": {
"Latitude": 8.6141,
"Longitude": -80.5582
}
},
{
"Name": "El Potrero",
"PostCode": "02023",
"Location": {
"Latitude": 8.522,
"Longitude": -80.5209
}
},
{
"Name": "La Pintada (Cabec)",
"PostCode": "02021",
"Location": {
"Latitude": 8.5796,
"Longitude": -80.5169
}
},
{
"Name": "Las Lomas",
"PostCode": "02026",
"Location": {
"Latitude": 8.6052,
"Longitude": -80.6294
}
},
{
"Name": "Llano Grande",
"PostCode": "02024",
"Location": {
"Latitude": 8.6347,
"Longitude": -80.4399
}
},
{
"Name": "Piedras Gordas",
"PostCode": "02025",
"Location": {
"Latitude": 8.6389,
"Longitude": -80.5114
}
}
]
}
]
},
{
"Name": "Nata",
"Code": "0204",
"Communities": [
{
"Places": [
{
"Name": "Capellania",
"PostCode": "02028",
"Location": {
"Latitude": 8.3022,
"Longitude": -80.5533
}
},
{
"Name": "El Caðo",
"PostCode": "02029",
"Location": {
"Latitude": 8.5796,
"Longitude": -80.5169
}
},
{
"Name": "Guzman",
"PostCode": "02030",
"Location": {
"Latitude": 8.5226,
"Longitude": -80.5855
}
},
{
"Name": "Las Huacas",
"PostCode": "02031",
"Location": {
"Latitude": 8.467,
"Longitude": -80.7509
}
},
{
"Name": "Nata (Cabec)",
"PostCode": "02027",
"Location": {
"Latitude": 8.5796,
"Longitude": -80.5169
}
},
{
"Name": "Toza",
"PostCode": "02032",
"Location": {
"Latitude": 8.3452,
"Longitude": -80.6411
}
}
]
}
]
},
{
"Name": "Ola",
"Code": "0205",
"Communities": [
{
"Places": [
{
"Name": "El Cope",
"PostCode": "02034",
"Location": {
"Latitude": 8.4393,
"Longitude": -80.6801
}
},
{
"Name": "El Palmar",
"PostCode": "02035",
"Location": {
"Latitude": 8.5769,
"Longitude": -80.673
}
},
{
"Name": "El Picacho",
"PostCode": "02036",
"Location": {
"Latitude": 8.4341,
"Longitude": -80.6585
}
},
{
"Name": "La Pava",
"PostCode": "02037",
"Location": {
"Latitude": 8.4341,
"Longitude": -80.6585
}
},
{
"Name": "Ola (Cabec)",
"PostCode": "02033",
"Location": {
"Latitude": 8.4341,
"Longitude": -80.6585
}
}
]
}
]
},
{
"Name": "Penonome",
"Code": "0206",
"Communities": [
{
"Places": [
{
"Name": "Caðaberal",
"PostCode": "02012",
"Location": {
"Latitude": 8.5783,
"Longitude": -80.3153
}
},
{
"Name": "Chiriqui Arriba",
"PostCode": "02014",
"Location": {
"Latitude": 8.5783,
"Longitude": -80.3153
}
},
{
"Name": "Cocle",
"PostCode": "02013",
"Location": {
"Latitude": 8.4651,
"Longitude": -80.4155
}
},
{
"Name": "El Coco",
"PostCode": "02015",
"Location": {
"Latitude": 8.396,
"Longitude": -80.3545
}
},
{
"Name": "Pajonal",
"PostCode": "02016",
"Location": {
"Latitude": 8.5928,
"Longitude": -80.256
}
},
{
"Name": "Penonome (Cabec)",
"PostCode": "02011",
"Location": {
"Latitude": 8.5783,
"Longitude": -80.3153
}
},
{
"Name": "Rio Grande",
"PostCode": "02017",
"Location": {
"Latitude": 8.4319,
"Longitude": -80.487
}
},
{
"Name": "Rio Indio",
"PostCode": "02018",
"Location": {
"Latitude": 8.9668,
"Longitude": -80.1756
}
},
{
"Name": "Toabre",
"PostCode": "02019",
"Location": {
"Latitude": 8.6507,
"Longitude": -80.3212
}
},
{
"Name": "Tulu",
"PostCode": "02020",
"Location": {
"Latitude": 8.7399,
"Longitude": -80.4052
}
}
]
}
]
}
]
},
{
"Name": "Colon",
"Code": "04",
"Provinces": [
{
"Name": "Colon",
"Code": "0301",
"Communities": [
{
"Places": [
{
"Name": "Bahia La Mina",
"PostCode": "03042",
"Location": {
"Latitude": 9.5222,
"Longitude": -79.6159
}
},
{
"Name": "Barrio Norte",
"PostCode": "03001",
"Location": {
"Latitude": 9.3626,
"Longitude": -79.8999
}
},
{
"Name": "Barrio Sur",
"PostCode": "03002",
"Location": {
"Latitude": 9.353,
"Longitude": -79.8949
}
},
{
"Name": "Buena Vista",
"PostCode": "03003",
"Location": {
"Latitude": 9.2739,
"Longitude": -79.6958
}
},
{
"Name": "Cativa",
"PostCode": "03004",
"Location": {
"Latitude": 9.3622,
"Longitude": -79.8323
}
},
{
"Name": "Ciricito",
"PostCode": "03005",
"Location": {
"Latitude": 9.2956,
"Longitude": -79.8533
}
},
{
"Name": "Colon",
"PostCode": "03041",
"Location": {
"Latitude": 9.3545,
"Longitude": -79.9001
}
},
{
"Name": "Cristobal",
"PostCode": "03006",
"Location": {
"Latitude": 9.3522,
"Longitude": -79.9044
}
},
{
"Name": "El Espinar",
"PostCode": "03046",
"Location": {
"Latitude": 9.5222,
"Longitude": -79.6159
}
},
{
"Name": "Escobal",
"PostCode": "03007",
"Location": {
"Latitude": 9.1476,
"Longitude": -79.9638
}
},
{
"Name": "Limon",
"PostCode": "03008",
"Location": {
"Latitude": 9.25,
"Longitude": -79.82
}
},
{
"Name": "Manzanillo",
"PostCode": "03047",
"Location": {
"Latitude": 9.2567,
"Longitude": -79.795
}
},
{
"Name": "Nueva Providencia",
"PostCode": "03009",
"Location": {
"Latitude": 9.2633,
"Longitude": -79.8156
}
},
{
"Name": "Porto Belo",
"PostCode": "03049",
"Location": {
"Latitude": 9.5222,
"Longitude": -79.6159
}
},
{
"Name": "Puerto Pilon",
"PostCode": "03010",
"Location": {
"Latitude": 9.3632,
"Longitude": -79.7933
}
},
{
"Name": "Sabanitas",
"PostCode": "03011",
"Location": {
"Latitude": 9.3452,
"Longitude": -79.8054
}
},
{
"Name": "Salamanca",
"PostCode": "03012",
"Location": {
"Latitude": 9.3363,
"Longitude": -79.603
}
},
{
"Name": "San Juan",
"PostCode": "03013",
"Location": {
"Latitude": 9.2328,
"Longitude": -79.9047
}
},
{
"Name": "Santa Rosa",
"PostCode": "03014",
"Location": {
"Latitude": 9.1849,
"Longitude": -79.6544
}
},
{
"Name": "Zona Libre",
"PostCode": "03050",
"Location": {
"Latitude": 9.3668,
"Longitude": -79.7696
}
}
]
}
]
},
{
"Name": "Chagres",
"Code": "0302",
"Communities": [
{
"Places": [
{
"Name": "Achiote",
"PostCode": "03016",
"Location": {
"Latitude": 9.2224,
"Longitude": -80.0189
}
},
{
"Name": "El Guabo",
"PostCode": "03017",
"Location": {
"Latitude": 9.085,
"Longitude": -80.0843
}
},
{
"Name": "La Encantada",
"PostCode": "03018",
"Location": {
"Latitude": 9.097,
"Longitude": -80.1931
}
},
{
"Name": "Nuevo Chagres (Cabec)",
"PostCode": "03015",
"Location": {
"Latitude": 9.2328,
"Longitude": -79.9047
}
},
{
"Name": "Palmas Bellas",
"PostCode": "03019",
"Location": {
"Latitude": 9.2284,
"Longitude": -80.085
}
},
{
"Name": "Piða",
"PostCode": "03020",
"Location": {
"Latitude": 9.2509,
"Longitude": -80.1528
}
},
{
"Name": "Salud",
"PostCode": "03021",
"Location": {
"Latitude": 9.2067,
"Longitude": -80.132
}
}
]
}
]
},
{
"Name": "Donoso",
"Code": "0303",
"Communities": [
{
"Places": [
{
"Name": "Cocle Del Norte",
"PostCode": "03023",
"Location": {
"Latitude": 9.0754,
"Longitude": -80.5718
}
},
{
"Name": "El Guasimo",
"PostCode": "03024",
"Location": {
"Latitude": 9.2509,
"Longitude": -80.1528
}
},
{
"Name": "Gobea",
"PostCode": "03025",
"Location": {
"Latitude": 9.1679,
"Longitude": -80.2538
}
},
{
"Name": "Miguel De La Borda (Cabec)",
"PostCode": "03022",
"Location": {
"Latitude": 9.2509,
"Longitude": -80.1528
}
},
{
"Name": "Rio Indio",
"PostCode": "03026",
"Location": {
"Latitude": 9.1927,
"Longitude": -80.1907
}
},
{
"Name": "San Jose Del General",
"PostCode": "03027",
"Location": {
"Latitude": 9.2509,
"Longitude": -80.1528
}
}
]
}
]
},
{
"Name": "Portobelo",
"Code": "0304",
"Communities": [
{
"Places": [
{
"Name": "Cacique",
"PostCode": "03029",
"Location": {
"Latitude": 9.6118,
"Longitude": -79.6158
}
},
{
"Name": "Garrote",
"PostCode": "03030",
"Location": {
"Latitude": 9.6054,
"Longitude": -79.5856
}
},
{
"Name": "Isla Grande",
"PostCode": "03031",
"Location": {
"Latitude": 9.6296,
"Longitude": -79.5648
}
},
{
"Name": "Maria Chiquita",
"PostCode": "03032",
"Location": {
"Latitude": 9.4429,
"Longitude": -79.753
}
},
{
"Name": "Portobelo (Cabec)",
"PostCode": "03028",
"Location": {
"Latitude": 9.2509,
"Longitude": -80.1528
}
}
]
}
]
},
{
"Name": "Santa Isabel",
"Code": "0305",
"Communities": [
{
"Places": [
{
"Name": "Cuango",
"PostCode": "03034",
"Location": {
"Latitude": 9.5687,
"Longitude": -79.3106
}
},
{
"Name": "Miramar",
"PostCode": "03035",
"Location": {
"Latitude": 9.5754,
"Longitude": -79.3357
}
},
{
"Name": "Nombre De Dios",
"PostCode": "03036",
"Location": {
"Latitude": 9.5815,
"Longitude": -79.4685
}
},
{
"Name": "Palenque (Cabec)",
"PostCode": "03033",
"Location": {
"Latitude": 9.5618,
"Longitude": -79.4135
}
},
{
"Name": "Palmira",
"PostCode": "03037",
"Location": {
"Latitude": 9.5469,
"Longitude": -79.2154
}
},
{
"Name": "Playa Chiquita",
"PostCode": "03038",
"Location": {
"Latitude": 9.5662,
"Longitude": -79.2918
}
},
{
"Name": "Santa Isabel",
"PostCode": "03039",
"Location": {
"Latitude": 9.5392,
"Longitude": -79.1957
}
},
{
"Name": "Viento Frio",
"PostCode": "03040",
"Location": {
"Latitude": 9.5826,
"Longitude": -79.4069
}
}
]
}
]
}
]
},
{
"Name": "Herrera",
"Code": "06",
"Provinces": [
{
"Name": "Chitre",
"Code": "0601",
"Communities": [
{
"Places": [
{
"Name": "Chitre (Cabec)",
"PostCode": "05001",
"Location": {
"Latitude": 7.8668,
"Longitude": -80.5142
}
},
{
"Name": "La Arena",
"PostCode": "05002",
"Location": {
"Latitude": 7.9694,
"Longitude": -80.4615
}
},
{
"Name": "Llano Bonito",
"PostCode": "05005",
"Location": {
"Latitude": 7.974,
"Longitude": -80.4209
}
},
{
"Name": "Monagrillo",
"PostCode": "05003",
"Location": {
"Latitude": 7.9826,
"Longitude": -80.433
}
},
{
"Name": "San Uan Bautista",
"PostCode": "05004",
"Location": {
"Latitude": 7.8668,
"Longitude": -80.5142
}
}
]
}
]
},
{
"Name": "Las Minas",
"Code": "0602",
"Communities": [
{
"Places": [
{
"Name": "Chepo",
"PostCode": "05031",
"Location": {
"Latitude": 7.75,
"Longitude": -80.8
}
},
{
"Name": "Chepo",
"PostCode": "05050",
"Location": {
"Latitude": 7.75,
"Longitude": -80.8
}
},
{
"Name": "Chumical",
"PostCode": "05032",
"Location": {
"Latitude": 7.8464,
"Longitude": -80.7366
}
},
{
"Name": "El Ciprian",
"PostCode": "05036",
"Location": {
"Latitude": 7.8062,
"Longitude": -80.8087
}
},
{
"Name": "El Toro",
"PostCode": "05033",
"Location": {
"Latitude": 7.7534,
"Longitude": -80.8692
}
},
{
"Name": "Las Minas (Cabec)",
"PostCode": "05030",
"Location": {
"Latitude": 7.8062,
"Longitude": -80.8087
}
},
{
"Name": "Leones",
"PostCode": "05034",
"Location": {
"Latitude": 7.8062,
"Longitude": -80.8087
}
},
{
"Name": "Quebrada Del Rosario",
"PostCode": "05035",
"Location": {
"Latitude": 7.7176,
"Longitude": -80.7389
}
}
]
}
]
},
{
"Name": "Los Pozos",
"Code": "0603",
"Communities": [
{
"Places": [
{
"Name": "Capuri",
"PostCode": "05007",
"Location": {
"Latitude": 7.8668,
"Longitude": -80.5142
}
},
{
"Name": "El Calabacito",
"PostCode": "05008",
"Location": {
"Latitude": 7.7205,
"Longitude": -80.5972
}
},
{
"Name": "El Cedro",
"PostCode": "05009",
"Location": {
"Latitude": 7.6874,
"Longitude": -80.6582
}
},
{
"Name": "La Arena",
"PostCode": "05010",
"Location": {
"Latitude": 7.7513,
"Longitude": -80.5921
}
},
{
"Name": "La Pitaloza",
"PostCode": "05011",
"Location": {
"Latitude": 7.8904,
"Longitude": -80.6122
}
},
{
"Name": "Las Llanas",
"PostCode": "05014",
"Location": {
"Latitude": 7.8904,
"Longitude": -80.6122
}
},
{
"Name": "Los Cerritos",
"PostCode": "05012",
"Location": {
"Latitude": 7.7995,
"Longitude": -80.6064
}
},
{
"Name": "Los Cerros De Paja",
"PostCode": "05013",
"Location": {
"Latitude": 7.7206,
"Longitude": -80.6708
}
},
{
"Name": "Los Pozos (Cabec)",
"PostCode": "05006",
"Location": {
"Latitude": 7.8668,
"Longitude": -80.5142
}
}
]
}
]
},
{
"Name": "Ocu",
"Code": "0604",
"Communities": [
{
"Places": [
{
"Name": "Cerro Largo",
"PostCode": "05038",
"Location": {
"Latitude": 7.839,
"Longitude": -80.8308
}
},
{
"Name": "El Tijera",
"PostCode": "05042",
"Location": {
"Latitude": 8.0371,
"Longitude": -80.7232
}
},
{
"Name": "Llano Grande",
"PostCode": "05040",
"Location": {
"Latitude": 7.9744,
"Longitude": -80.7093
}
},
{
"Name": "Los Llanos",
"PostCode": "05039",
"Location": {
"Latitude": 7.9308,
"Longitude": -80.8768
}
},
{
"Name": "Menchaca",
"PostCode": "05043",
"Location": {
"Latitude": 7.8704,
"Longitude": -80.7592
}
},
{
"Name": "Ocu (Cabec)",
"PostCode": "05037",
"Location": {
"Latitude": 7.8062,
"Longitude": -80.8087
}
},
{
"Name": "Peðas Chatas",
"PostCode": "05041",
"Location": {
"Latitude": 8.0371,
"Longitude": -80.7232
}
}
]
}
]
},
{
"Name": "Parita",
"Code": "0605",
"Communities": [
{
"Places": [
{
"Name": "Cabuya",
"PostCode": "05016",
"Location": {
"Latitude": 8.031,
"Longitude": -80.6311
}
},
{
"Name": "Llana De La Cruz",
"PostCode": "05018",
"Location": {
"Latitude": 7.8904,
"Longitude": -80.6122
}
},
{
"Name": "Los Castillos",
"PostCode": "05017",
"Location": {
"Latitude": 7.9874,
"Longitude": -80.6193
}
},
{
"Name": "Paris",
"PostCode": "05019",
"Location": {
"Latitude": 8.0527,
"Longitude": -80.5538
}
},
{
"Name": "Parita (Cabec)",
"PostCode": "05015",
"Location": {
"Latitude": 7.8904,
"Longitude": -80.6122
}
},
{
"Name": "Portobelillo",
"PostCode": "05020",
"Location": {
"Latitude": 8.0175,
"Longitude": -80.5978
}
},
{
"Name": "Potuga",
"PostCode": "05021",
"Location": {
"Latitude": 8.0659,
"Longitude": -80.6209
}
}
]
}
]
},
{
"Name": "Pese",
"Code": "0606",
"Communities": [
{
"Places": [
{
"Name": "El Barrero",
"PostCode": "05025",
"Location": {
"Latitude": 7.9335,
"Longitude": -80.5204
}
},
{
"Name": "El Ciruelo",
"PostCode": "05027",
"Location": {
"Latitude": 7.89,
"Longitude": -80.675
}
},
{
"Name": "El Pajaro",
"PostCode": "05024",
"Location": {
"Latitude": 7.9474,
"Longitude": -80.5741
}
},
{
"Name": "El Pedregoso",
"PostCode": "05026",
"Location": {
"Latitude": 7.9396,
"Longitude": -80.6376
}
},
{
"Name": "Las Cabras",
"PostCode": "05023",
"Location": {
"Latitude": 7.877,
"Longitude": -80.5481
}
},
{
"Name": "Pese (Cabec)",
"PostCode": "05022",
"Location": {
"Latitude": 7.9391,
"Longitude": -80.5971
}
},
{
"Name": "Rincon Hondo",
"PostCode": "05029",
"Location": {
"Latitude": 7.8421,
"Longitude": -80.603
}
},
{
"Name": "Sabanagrande",
"PostCode": "05028",
"Location": {
"Latitude": 7.9391,
"Longitude": -80.5971
}
}
]
}
]
},
{
"Name": "Santa Maria",
"Code": "0607",
"Communities": [
{
"Places": [
{
"Name": "Chupampa",
"PostCode": "05045",
"Location": {
"Latitude": 8.0771,
"Longitude": -80.7783
}
},
{
"Name": "El Limon",
"PostCode": "05047",
"Location": {
"Latitude": 8.0589,
"Longitude": -80.7721
}
},
{
"Name": "El Rincon",
"PostCode": "05046",
"Location": {
"Latitude": 8.1196,
"Longitude": -80.6151
}
},
{
"Name": "Los Canelos",
"PostCode": "05048",
"Location": {
"Latitude": 8.1222,
"Longitude": -80.7053
}
},
{
"Name": "Santa Maria (Cabec)",
"PostCode": "05044",
"Location": {
"Latitude": 8.0371,
"Longitude": -80.7232
}
}
]
}
]
}
]
},
{
"Name": "Los Santos",
"Code": "07",
"Provinces": [
{
"Name": "Guarare",
"Code": "0701",
"Communities": [
{
"Places": [
{
"Name": "El Enea",
"PostCode": "06034",
"Location": {
"Latitude": 7.8388,
"Longitude": -80.2723
}
},
{
"Name": "El Espinal",
"PostCode": "06031",
"Location": {
"Latitude": 7.8667,
"Longitude": -80.3219
}
},
{
"Name": "El Hato",
"PostCode": "06038",
"Location": {
"Latitude": 7.7955,
"Longitude": -80.3828
}
},
{
"Name": "El Macano",
"PostCode": "06032",
"Location": {
"Latitude": 7.6878,
"Longitude": -80.4053
}
},
{
"Name": "Guarare",
"PostCode": "06030",
"Location": {
"Latitude": 7.8198,
"Longitude": -80.2809
}
},
{
"Name": "Guarare Arriba",
"PostCode": "06033",
"Location": {
"Latitude": 7.808,
"Longitude": -80.3592
}
},
{
"Name": "La Pasera",
"PostCode": "06035",
"Location": {
"Latitude": 7.798,
"Longitude": -80.3044
}
},
{
"Name": "Las Trancas",
"PostCode": "06036",
"Location": {
"Latitude": 7.7364,
"Longitude": -80.3726
}
},
{
"Name": "Llano Abajo",
"PostCode": "06037",
"Location": {
"Latitude": 7.7939,
"Longitude": -80.4076
}
},
{
"Name": "Perales",
"PostCode": "06039",
"Location": {
"Latitude": 7.7769,
"Longitude": -80.3214
}
}
]
}
]
},
{
"Name": "Las Tablas",
"Code": "0702",
"Communities": [
{
"Places": [
{
"Name": "Bajo Corral",
"PostCode": "06002",
"Location": {
"Latitude": 7.6064,
"Longitude": -80.2586
}
},
{
"Name": "Bayano",
"PostCode": "06003",
"Location": {
"Latitude": 7.6381,
"Longitude": -80.3847
}
},
{
"Name": "Carate",
"PostCode": "06004",
"Location": {
"Latitude": 7.732,
"Longitude": -80.2954
}
},
{
"Name": "El Cocal",
"PostCode": "06005",
"Location": {
"Latitude": 7.7385,
"Longitude": -80.2789
}
},
{
"Name": "El Manantial",
"PostCode": "06006",
"Location": {
"Latitude": 7.7839,
"Longitude": -80.2425
}
},
{
"Name": "El Muðoz",
"PostCode": "06007",
"Location": {
"Latitude": 7.7039,
"Longitude": -80.2911
}
},
{
"Name": "El Pedregoso",
"PostCode": "06008",
"Location": {
"Latitude": 7.6947,
"Longitude": -80.3271
}
},
{
"Name": "El Sesteadero",
"PostCode": "06022",
"Location": {
"Latitude": 7.746,
"Longitude": -80.2508
}
},
{
"Name": "La Laja",
"PostCode": "06009",
"Location": {
"Latitude": 7.7338,
"Longitude": -80.2507
}
},
{
"Name": "La Miel",
"PostCode": "06010",
"Location": {
"Latitude": 7.5602,
"Longitude": -80.3274
}
},
{
"Name": "La Palma",
"PostCode": "06011",
"Location": {
"Latitude": 7.6918,
"Longitude": -80.192
}
},
{
"Name": "La Tiza",
"PostCode": "06012",
"Location": {
"Latitude": 7.7528,
"Longitude": -80.2884
}
},
{
"Name": "Las Palmitas",
"PostCode": "06013",
"Location": {
"Latitude": 7.767,
"Longitude": -80.2903
}
},
{
"Name": "Las Tablas (Cabec)",
"PostCode": "06001",
"Location": {
"Latitude": 7.7039,
"Longitude": -80.2911
}
},
{
"Name": "Las Tablas Abajo",
"PostCode": "06014",
"Location": {
"Latitude": 7.7938,
"Longitude": -80.2525
}
},
{
"Name": "Nuario",
"PostCode": "06015",
"Location": {
"Latitude": 7.5271,
"Longitude": -80.32
}
},
{
"Name": "Palmira",
"PostCode": "06016",
"Location": {
"Latitude": 7.6635,
"Longitude": -80.3573
}
},
{
"Name": "Peða Blanca",
"PostCode": "06017",
"Location": {
"Latitude": 7.6831,
"Longitude": -80.2921
}
},
{
"Name": "Rio Hondo",
"PostCode": "06018",
"Location": {
"Latitude": 7.7143,
"Longitude": -80.3573
}
},
{
"Name": "San Jose",
"PostCode": "06019",
"Location": {
"Latitude": 7.677,
"Longitude": -80.2434
}
},
{
"Name": "San Miguel",
"PostCode": "06020",
"Location": {
"Latitude": 7.6939,
"Longitude": -80.2317
}
},
{
"Name": "Santo Domingo",
"PostCode": "06021",
"Location": {
"Latitude": 7.7486,
"Longitude": -80.2414
}
},
{
"Name": "Valle Rico",
"PostCode": "06023",
"Location": {
"Latitude": 7.73,
"Longitude": -80.2483
}
},
{
"Name": "Vallerriquito",
"PostCode": "06024",
"Location": {
"Latitude": 7.6223,
"Longitude": -80.3166
}
}
]
}
]
},
{
"Name": "Los Santos",
"Code": "0703",
"Communities": [
{
"Places": [
{
"Name": "Agua Buena",
"PostCode": "06053",
"Location": {
"Latitude": 7.8368,
"Longitude": -80.3996
}
},
{
"Name": "El Guasimo",
"PostCode": "06041",
"Location": {
"Latitude": 7.8094,
"Longitude": -80.527
}
},
{
"Name": "La Colorada",
"PostCode": "06042",
"Location": {
"Latitude": 7.8275,
"Longitude": -80.557
}
},
{
"Name": "La Espigadilla",
"PostCode": "06043",
"Location": {
"Latitude": 7.8878,
"Longitude": -80.3889
}
},
{
"Name": "La Villa De Los Santos",
"PostCode": "06040",
"Location": {
"Latitude": 7.936,
"Longitude": -80.413
}
},
{
"Name": "Las Cruces",
"PostCode": "06044",
"Location": {
"Latitude": 7.8272,
"Longitude": -80.4297
}
},
{
"Name": "Las Guabas",
"PostCode": "06045",
"Location": {
"Latitude": 7.8147,
"Longitude": -80.5015
}
},
{
"Name": "Llano Largo",
"PostCode": "06048",
"Location": {
"Latitude": 7.9086,
"Longitude": -80.424
}
},
{
"Name": "Los Angeles",
"PostCode": "06046",
"Location": {
"Latitude": 7.8846,
"Longitude": -80.355
}
},
{
"Name": "Los Olivos",
"PostCode": "06047",
"Location": {
"Latitude": 7.9185,
"Longitude": -80.488
}
},
{
"Name": "Sabanagrande",
"PostCode": "06049",
"Location": {
"Latitude": 7.8683,
"Longitude": -80.4538
}
},
{
"Name": "Santa Ana",
"PostCode": "06050",
"Location": {
"Latitude": 7.7904,
"Longitude": -80.4725
}
},
{
"Name": "Tres Quebradas",
"PostCode": "06051",
"Location": {
"Latitude": 7.8402,
"Longitude": -80.4074
}
},
{
"Name": "Villa Lourdes",
"PostCode": "06052",
"Location": {
"Latitude": 7.8098,
"Longitude": -80.4723
}
}
]
}
]
},
{
"Name": "Macaracas",
"Code": "0704",
"Communities": [
{
"Places": [
{
"Name": "Bahia Honda",
"PostCode": "06055",
"Location": {
"Latitude": 7.709,
"Longitude": -80.4514
}
},
{
"Name": "Bajos De Guerra",
"PostCode": "06056",
"Location": {
"Latitude": 7.7904,
"Longitude": -80.4725
}
},
{
"Name": "Chupa",
"PostCode": "06058",
"Location": {
"Latitude": 7.8022,
"Longitude": -80.5728
}
},
{
"Name": "Corozal",
"PostCode": "06057",
"Location": {
"Latitude": 7.7548,
"Longitude": -80.4782
}
},
{
"Name": "El Cedro",
"PostCode": "06059",
"Location": {
"Latitude": 7.78,
"Longitude": -80.5257
}
},
{
"Name": "Espino Amarillo",
"PostCode": "06060",
"Location": {
"Latitude": 7.6085,
"Longitude": -80.3279
}
},
{
"Name": "La Mesa",
"PostCode": "06061",
"Location": {
"Latitude": 7.6616,
"Longitude": -80.619
}
},
{
"Name": "Las Palmas",
"PostCode": "06062",
"Location": {
"Latitude": 7.6831,
"Longitude": -80.4973
}
},
{
"Name": "Llano De Piedra",
"PostCode": "06063",
"Location": {
"Latitude": 7.6657,
"Longitude": -80.5625
}
},
{
"Name": "Macaracas (Cabec)",
"PostCode": "06054",
"Location": {
"Latitude": 7.7904,
"Longitude": -80.4725
}
},
{
"Name": "Mogollon",
"PostCode": "06064",
"Location": {
"Latitude": 7.6492,
"Longitude": -80.4572
}
}
]
}
]
},
{
"Name": "Pedasi",
"Code": "0705",
"Communities": [
{
"Places": [
{
"Name": "Los Asientos",
"PostCode": "06066",
"Location": {
"Latitude": 7.5185,
"Longitude": -80.1329
}
},
{
"Name": "Mariabe",
"PostCode": "06067",
"Location": {
"Latitude": 7.5834,
"Longitude": -80.0642
}
},
{
"Name": "Oria Arriba",
"PostCode": "06069",
"Location": {
"Latitude": 7.5075,
"Longitude": -80.206
}
},
{
"Name": "Pedasi (Cabec)",
"PostCode": "06065",
"Location": {
"Latitude": 7.6085,
"Longitude": -80.3279
}
},
{
"Name": "Purio",
"PostCode": "06068",
"Location": {
"Latitude": 7.5992,
"Longitude": -80.084
}
}
]
}
]
},
{
"Name": "Pocri",
"Code": "0706",
"Communities": [
{
"Places": [
{
"Name": "El Caðafistulo",
"PostCode": "06026",
"Location": {
"Latitude": 7.6939,
"Longitude": -80.2317
}
},
{
"Name": "Lajaminas",
"PostCode": "06027",
"Location": {
"Latitude": 7.6939,
"Longitude": -80.2317
}
},
{
"Name": "Paraiso",
"PostCode": "06028",
"Location": {
"Latitude": 7.6871,
"Longitude": -80.159
}
},
{
"Name": "Paritilla",
"PostCode": "06029",
"Location": {
"Latitude": 7.6293,
"Longitude": -80.1742
}
},
{
"Name": "Pocri (Cabec)",
"PostCode": "06025",
"Location": {
"Latitude": 7.6939,
"Longitude": -80.2317
}
}
]
}
]
},
{
"Name": "Tonosi",
"Code": "0707",
"Communities": [
{
"Places": [
{
"Name": "Altos De Guerra",
"PostCode": "06071",
"Location": {
"Latitude": 7.4177,
"Longitude": -80.487
}
},
{
"Name": "Caðas",
"PostCode": "06072",
"Location": {
"Latitude": 7.4177,
"Longitude": -80.487
}
},
{
"Name": "El Bebedero",
"PostCode": "06073",
"Location": {
"Latitude": 7.4141,
"Longitude": -80.4574
}
},
{
"Name": "El Cacao",
"PostCode": "06074",
"Location": {
"Latitude": 7.4493,
"Longitude": -80.4035
}
},
{
"Name": "El Cortezo",
"PostCode": "06075",
"Location": {
"Latitude": 7.4291,
"Longitude": -80.6326
}
},
{
"Name": "Flores",
"PostCode": "06076",
"Location": {
"Latitude": 7.4866,
"Longitude": -80.4059
}
},
{
"Name": "Guanico",
"PostCode": "06077",
"Location": {
"Latitude": 7.2909,
"Longitude": -80.4328
}
},
{
"Name": "La Tronosa",
"PostCode": "06078",
"Location": {
"Latitude": 7.4362,
"Longitude": -80.5897
}
},
{
"Name": "Tonosi (Cabec)",
"PostCode": "06070",
"Location": {
"Latitude": 7.4177,
"Longitude": -80.487
}
}
]
}
]
}
]
},
{
"Name": "Panama",
"Code": "08",
"Provinces": [
{
"Name": "Arraijan",
"Communities": [
{
"Places": [
{
"Name": "Arraijan (Cabec)",
"PostCode": "07001",
"Location": {
"Latitude": 8.9364,
"Longitude": -79.5561
}
},
{
"Name": "Burunga",
"PostCode": "07007",
"Location": {
"Latitude": 8.9619,
"Longitude": -79.6723
}
},
{
"Name": "Cerro Silvestre",
"PostCode": "07008",
"Location": {
"Latitude": 8.9402,
"Longitude": -79.6799
}
},
{
"Name": "Juan D. Arosemena",
"PostCode": "07002",
"Location": {
"Latitude": 8.9364,
"Longitude": -79.5561
}
},
{
"Name": "Nuevo Emperador",
"PostCode": "07003",
"Location": {
"Latitude": 9.0028,
"Longitude": -79.7304
}
},
{
"Name": "Santa Clara",
"PostCode": "07004",
"Location": {
"Latitude": 9.0363,
"Longitude": -79.4762
}
},
{
"Name": "Veracruz",
"PostCode": "07005",
"Location": {
"Latitude": 8.8932,
"Longitude": -79.6234
}
},
{
"Name": "Vista Alegre",
"PostCode": "07006",
"Location": {
"Latitude": 9.0264,
"Longitude": -78.8418
}
}
]
}
]
},
{
"Name": "Capira",
"Communities": [
{
"Places": [
{
"Name": "Caimito",
"PostCode": "07010",
"Location": {
"Latitude": 8.6898,
"Longitude": -80.1832
}
},
{
"Name": "Campana",
"PostCode": "07011",
"Location": {
"Latitude": 8.7128,
"Longitude": -79.9096
}
},
{
"Name": "Capira",
"PostCode": "07009",
"Location": {
"Latitude": 8.6944,
"Longitude": -79.8691
}
},
{
"Name": "Cermeðo",
"PostCode": "07012",
"Location": {
"Latitude": 8.6898,
"Longitude": -80.1832
}
},
{
"Name": "Ciri De Los Sotos",
"PostCode": "07013",
"Location": {
"Latitude": 8.9758,
"Longitude": -80.0925
}
},
{
"Name": "Ciri Grande",
"PostCode": "07014",
"Location": {
"Latitude": 8.7648,
"Longitude": -80.0567
}
},
{
"Name": "El Cacao",
"PostCode": "07015",
"Location": {
"Latitude": 8.6898,
"Longitude": -80.1832
}
},
{
"Name": "La Trinidad",
"PostCode": "07016",
"Location": {
"Latitude": 8.1236,
"Longitude": -81.2303
}
},
{
"Name": "Las Ollas Arriba",
"PostCode": "07017",
"Location": {
"Latitude": 8.8128,
"Longitude": -79.9006
}
},
{
"Name": "Lidice",
"PostCode": "07018",
"Location": {
"Latitude": 8.7487,
"Longitude": -79.9097
}
},
{
"Name": "Santa Rosa",
"PostCode": "07021",
"Location": {
"Latitude": 9.1849,
"Longitude": -79.6544
}
},
{
"Name": "Viila Carmen",
"PostCode": "07019",
"Location": {
"Latitude": 8.6898,
"Longitude": -80.1832
}
},
{
"Name": "Villa Rosario",
"PostCode": "07020",
"Location": {
"Latitude": 8.7797,
"Longitude": -79.8735
}
}
]
}
]
},
{
"Name": "Chame",
"Communities": [
{
"Places": [
{
"Name": "Bejuco",
"PostCode": "07023",
"Location": {
"Latitude": 8.8562,
"Longitude": -79.7256
}
},
{
"Name": "Cabuya",
"PostCode": "07025",
"Location": {
"Latitude": 9.1009,
"Longitude": -79.373
}
},
{
"Name": "Cbuenos Aires",
"PostCode": "07024",
"Location": {
"Latitude": 8.8562,
"Longitude": -79.7256
}
},
{
"Name": "Chame (Cabec)",
"PostCode": "07022",
"Location": {
"Latitude": 8.8562,
"Longitude": -79.7256
}
},
{
"Name": "Chica",
"PostCode": "07026",
"Location": {
"Latitude": 8.6661,
"Longitude": -79.9383
}
},
{
"Name": "El Libano",
"PostCode": "07027",
"Location": {
"Latitude": 8.6187,
"Longitude": -79.8319
}
},
{
"Name": "Las Lajas",
"PostCode": "07028",
"Location": {
"Latitude": 9.0881,
"Longitude": -79.5338
}
},
{
"Name": "Nueva Gorgona",
"PostCode": "07029",
"Location": {
"Latitude": 8.5548,
"Longitude": -79.8743
}
},
{
"Name": "Punta Chame",
"PostCode": "07030",
"Location": {
"Latitude": 8.6442,
"Longitude": -79.707
}
},
{
"Name": "Sajalices",
"PostCode": "07031",
"Location": {
"Latitude": 8.6819,
"Longitude": -79.8676
}
},
{
"Name": "Sora",
"PostCode": "07032",
"Location": {
"Latitude": 8.6345,
"Longitude": -80.0093
}
}
]
}
]
},
{
"Name": "San Carlos",
"Communities": [
{
"Places": [
{
"Name": "El Espino",
"PostCode": "07034",
"Location": {
"Latitude": 8.0929,
"Longitude": -80.8238
}
},
{
"Name": "El Higo",
"PostCode": "07035",
"Location": {
"Latitude": 8.4503,
"Longitude": -80.0367
}
},
{
"Name": "Guayabito",
"PostCode": "07036",
"Location": {
"Latitude": 9.0523,
"Longitude": -79.4357
}
},
{
"Name": "La Ermita",
"PostCode": "07037",
"Location": {
"Latitude": 8.4607,
"Longitude": -80.0711
}
},
{
"Name": "La Laguna",
"PostCode": "07038",
"Location": {
"Latitude": 9.1379,
"Longitude": -79.5144
}
},
{
"Name": "Las Uvas",
"PostCode": "07039",
"Location": {
"Latitude": 8.4613,
"Longitude": -79.9961
}
},
{
"Name": "Los Llanitos",
"PostCode": "07040",
"Location": {
"Latitude": 8.7178,
"Longitude": -79.907
}
},
{
"Name": "San Carlos /Cabec)",
"PostCode": "07033",
"Location": {
"Latitude": 8.624,
"Longitude": -79.9402
}
},
{
"Name": "San Jose",
"PostCode": "07041",
"Location": {
"Latitude": 9.0261,
"Longitude": -78.9583
}
}
]
}
]
},
{
"Name": "La Chorrera",
"Communities": [
{
"Places": [
{
"Name": "Amador",
"PostCode": "07066",
"Location": {
"Latitude": 8.9395,
"Longitude": -79.5491
}
},
{
"Name": "Arosemena",
"PostCode": "07067",
"Location": {
"Latitude": 8.9734,
"Longitude": -79.9653
}
},
{
"Name": "Barrio Balboa",
"PostCode": "07064",
"Location": {
"Latitude": 8.8279,
"Longitude": -79.714
}
},
{
"Name": "Barrio Colon",
"PostCode": "07065",
"Location": {
"Latitude": 8.8279,
"Longitude": -79.714
}
},
{
"Name": "El Arado",
"PostCode": "07068",
"Location": {
"Latitude": 8.9673,
"Longitude": -79.7602
}
},
{
"Name": "El Coco",
"PostCode": "07069",
"Location": {
"Latitude": 8.8769,
"Longitude": -79.8081
}
},
{
"Name": "Feuillet",
"PostCode": "07070",
"Location": {
"Latitude": 9.1315,
"Longitude": -79.7278
}
},
{
"Name": "Guadalupe",
"PostCode": "07071",
"Location": {
"Latitude": 9.0418,
"Longitude": -79.4941
}
},
{
"Name": "Herrera",
"PostCode": "07072",
"Location": {
"Latitude": 9.1315,
"Longitude": -79.7278
}
},
{
"Name": "Hurtado",
"PostCode": "07073",
"Location": {
"Latitude": 9.1315,
"Longitude": -79.7278
}
},
{
"Name": "Iturralde",
"PostCode": "07074",
"Location": {
"Latitude": 9.1315,
"Longitude": -79.7278
}
},
{
"Name": "La Represa",
"PostCode": "07075",
"Location": {
"Latitude": 9.3367,
"Longitude": -79.8407
}
},
{
"Name": "Los Diaz",
"PostCode": "07076",
"Location": {
"Latitude": 9.1315,
"Longitude": -79.7278
}
},
{
"Name": "Mendoza",
"PostCode": "07077",
"Location": {
"Latitude": 9.0159,
"Longitude": -79.8486
}
},
{
"Name": "Obaldia",
"PostCode": "07078",
"Location": {
"Latitude": 9.1315,
"Longitude": -79.7278
}
},
{
"Name": "Playa Leonapuerto Caimito",
"PostCode": "07079",
"Location": {
"Latitude": 9.1315,
"Longitude": -79.7278
}
},
{
"Name": "Santa Rita",
"PostCode": "07080",
"Location": {
"Latitude": 9.1181,
"Longitude": -79.3386
}
},
{
"Name": "Vaca Monte",
"PostCode": "07112",
"Location": {
"Latitude": 9.0002,
"Longitude": -79.5244
}
}
]
}
]
},
{
"Name": "Tocumen",
"Communities": [
{
"Places": [
{
"Name": "Mañanitas",
"PostCode": "07215",
"Location": {
"Latitude": 9.0847,
"Longitude": -79.4023
}
},
{
"Name": "Nueva California",
"PostCode": "07216",
"Location": {
"Latitude": 9.1145,
"Longitude": -79.4723
}
},
{
"Name": "Rana De Oro",
"PostCode": "07217",
"Location": {
"Latitude": 9.0794,
"Longitude": -79.428
}
},
{
"Name": "Residencial La Castellana",
"PostCode": "07218",
"Location": {
"Latitude": 9.0574,
"Longitude": -79.4759
}
},
{
"Name": "San Cristobal",
"PostCode": "07219",
"Location": {
"Latitude": 9.2737,
"Longitude": -79.3848
}
},
{
"Name": "San Joaquin",
"PostCode": "07220",
"Location": {
"Latitude": 9.0779,
"Longitude": -79.4209
}
},
{
"Name": "San Pedro",
"PostCode": "07221",
"Location": {
"Latitude": 9.1576,
"Longitude": -79.405
}
},
{
"Name": "San Sebastian",
"PostCode": "07222",
"Location": {
"Latitude": 8.8758,
"Longitude": -79.9714
}
},
{
"Name": "Santa Monica",
"PostCode": "07223",
"Location": {
"Latitude": 9.0724,
"Longitude": -79.4117
}
},
{
"Name": "Urb. Remon Cantera",
"PostCode": "07224",
"Location": {
"Latitude": 9.0479,
"Longitude": -79.5212
}
},
{
"Name": "Urbanizacion Balmoral",
"PostCode": "07225",
"Location": {
"Latitude": 9.0585,
"Longitude": -79.434
}
},
{
"Name": "Urbanizacion Tere Mar",
"PostCode": "07226",
"Location": {
"Latitude": 9.0479,
"Longitude": -79.5212
}
},
{
"Name": "Villa Flor",
"PostCode": "07227",
"Location": {
"Latitude": 9.0479,
"Longitude": -79.5212
}
},
{
"Name": "Villa Lobos",
"PostCode": "07228",
"Location": {
"Latitude": 9.0479,
"Longitude": -79.5212
}
},
{
"Name": "Villa Lucre",
"PostCode": "07229",
"Location": {
"Latitude": 9.0452,
"Longitude": -79.484
}
}
]
}
]
},
{
"Name": "Balboa",
"Code": "0802",
"Communities": [
{
"Places": [
{
"Name": "La Ensenada",
"PostCode": "07043",
"Location": {
"Latitude": 8.3662,
"Longitude": -78.8461
}
},
{
"Name": "La Esmeralda",
"PostCode": "07044",
"Location": {
"Latitude": 8.2682,
"Longitude": -78.9246
}
},
{
"Name": "La Guinea",
"PostCode": "07045",
"Location": {
"Latitude": 8.3427,
"Longitude": -78.93
}
},
{
"Name": "Pedro Gonzalez",
"PostCode": "07046",
"Location": {
"Latitude": 8.4143,
"Longitude": -79.1047
}
},
{
"Name": "Saboga",
"PostCode": "07047",
"Location": {
"Latitude": 8.6269,
"Longitude": -79.0612
}
},
{
"Name": "San Miguel /Cabec)",
"PostCode": "07042",
"Location": {
"Latitude": 8.5374,
"Longitude": -79.1045
}
}
]
}
]
},
{
"Name": "Chepo",
"Code": "0805",
"Communities": [
{
"Places": [
{
"Name": "Carita",
"PostCode": "07049",
"Location": {
"Latitude": 8.5374,
"Longitude": -79.1045
}
},
{
"Name": "Chepillo",
"PostCode": "07050",
"Location": {
"Latitude": 8.954,
"Longitude": -79.1286
}
},
{
"Name": "Chepo (Cabec)",
"PostCode": "07048",
"Location": {
"Latitude": 8.5374,
"Longitude": -79.1045
}
},
{
"Name": "El Llano",
"PostCode": "07051",
"Location": {
"Latitude": 9.2171,
"Longitude": -78.9769
}
},
{
"Name": "Las Margaritas",
"PostCode": "07052",
"Location": {
"Latitude": 9.1918,
"Longitude": -79.0867
}
},
{
"Name": "Sta. Cruz De Chinina",
"PostCode": "07053",
"Location": {
"Latitude": 8.8901,
"Longitude": -78.7833
}
},
{
"Name": "Torti",
"PostCode": "07054",
"Location": {
"Latitude": 8.9215,
"Longitude": -78.3985
}
}
]
}
]
},
{
"Name": "Chiman",
"Code": "0806",
"Communities": [
{
"Places": [
{
"Name": "Brujas",
"PostCode": "07056",
"Location": {
"Latitude": 8.5861,
"Longitude": -78.5314
}
},
{
"Name": "Chiman (Cabec)",
"PostCode": "07055",
"Location": {
"Latitude": 8.8901,
"Longitude": -78.7833
}
},
{
"Name": "Gonzalo Vasquez",
"PostCode": "07057",
"Location": {
"Latitude": 8.4198,
"Longitude": -78.4519
}
},
{
"Name": "Pasiga",
"PostCode": "07059",
"Location": {
"Latitude": 8.9408,
"Longitude": -78.909
}
},
{
"Name": "Union Santeða",
"PostCode": "07058",
"Location": {
"Latitude": 8.8901,
"Longitude": -78.7833
}
}
]
}
]
},
{
"Name": "Panama",
"Code": "0808",
"Communities": [
{
"Places": [
{
"Name": "24 De Diciembre",
"PostCode": "07109",
"Location": {
"Latitude": 9.0798,
"Longitude": -79.4525
}
},
{
"Name": "24 Diciembre",
"PostCode": "07113",
"Location": {
"Latitude": 9.0002,
"Longitude": -79.5244
}
},
{
"Name": "Aeropuerto De Tocumen",
"PostCode": "07114",
"Location": {
"Latitude": 9.0002,
"Longitude": -79.5244
}
},
{
"Name": "Alameda",
"PostCode": "07115",
"Location": {
"Latitude": 9.0001,
"Longitude": -79.5358
}
},
{
"Name": "Albrook",
"PostCode": "07116",
"Location": {
"Latitude": 8.9779,
"Longitude": -79.5587
}
},
{
"Name": "Alta Mira",
"PostCode": "07117",
"Location": {
"Latitude": 9.0002,
"Longitude": -79.5244
}
},
{
"Name": "Alto Del Chace",
"PostCode": "07118",
"Location": {
"Latitude": 9.0002,
"Longitude": -79.5244
}
},
{
"Name": "Altos De Curundu",
"PostCode": "07119",
"Location": {
"Latitude": 9.0002,
"Longitude": -79.5244
}
},
{
"Name": "Altos De Tocumen",
"PostCode": "07120",
"Location": {
"Latitude": 9.055,
"Longitude": -79.4106
}
},
{
"Name": "Altos Del Crisol",
"PostCode": "07121",
"Location": {
"Latitude": 9.055,
"Longitude": -79.4106
}
},
{
"Name": "Altos Del Hipodromo",
"PostCode": "07122",
"Location": {
"Latitude": 9.055,
"Longitude": -79.4106
}
},
{
"Name": "Ancon",
"PostCode": "07098",
"Location": {
"Latitude": 8.9602,
"Longitude": -79.5514
}
},
{
"Name": "Arcoiris",
"PostCode": "07124",
"Location": {
"Latitude": 9.055,
"Longitude": -79.4106
}
},
{
"Name": "Arraijan",
"PostCode": "07125",
"Location": {
"Latitude": 9.055,
"Longitude": -79.4106
}
},
{
"Name": "Ato Pintado Urbanización",
"PostCode": "07126",
"Location": {
"Latitude": 9.055,
"Longitude": -79.4106
}
},
{
"Name": "Ave. Balboa",
"PostCode": "07127",
"Location": {
"Latitude": 9.055,
"Longitude": -79.4106
}
},
{
"Name": "Belen",
"PostCode": "07128",
"Location": {
"Latitude": 9.055,
"Longitude": -79.4106
}
},
{
"Name": "Bella Vista",
"PostCode": "07096",
"Location": {
"Latitude": 8.9847,
"Longitude": -79.5254
}
},
{
"Name": "Bello Horizonte",
"PostCode": "07129",
"Location": {
"Latitude": 9.055,
"Longitude": -79.4106
}
},
{
"Name": "Betania",
"PostCode": "07095",
"Location": {
"Latitude": 9.0116,
"Longitude": -79.5276
}
},
{
"Name": "Boca La Caja",
"PostCode": "07131",
"Location": {
"Latitude": 8.9845,
"Longitude": -79.5058
}
},
{
"Name": "Cabulla",
"PostCode": "07132",
"Location": {
"Latitude": 9.015,
"Longitude": -79.5112
}
},
{
"Name": "Calidonia",
"PostCode": "07093",
"Location": {
"Latitude": 8.9673,
"Longitude": -79.5359
}
},
{
"Name": "Campo Alegre",
"PostCode": "07134",
"Location": {
"Latitude": 8.982,
"Longitude": -79.5243
}
},
{
"Name": "Cardenas",
"PostCode": "07135",
"Location": {
"Latitude": 8.9986,
"Longitude": -79.5669
}
},
{
"Name": "Carrasquilla",
"PostCode": "07136",
"Location": {
"Latitude": 9.0023,
"Longitude": -79.5135
}
},
{
"Name": "Catedral",
"PostCode": "07137",
"Location": {
"Latitude": 9.015,
"Longitude": -79.5112
}
},
{
"Name": "Cerro Batea",
"PostCode": "07138",
"Location": {
"Latitude": 9.2069,
"Longitude": -79.4185
}
},
{
"Name": "Cerro Viento",
"PostCode": "07139",
"Location": {
"Latitude": 9.2069,
"Longitude": -79.4185
}
},
{
"Name": "Chame",
"PostCode": "07140",
"Location": {
"Latitude": 9.2069,
"Longitude": -79.4185
}
},
{
"Name": "Chilibre",
"PostCode": "07103",
"Location": {
"Latitude": 9.154,
"Longitude": -79.6202
}
},
{
"Name": "Chilibre",
"PostCode": "07141",
"Location": {
"Latitude": 9.154,
"Longitude": -79.6202
}
},
{
"Name": "Chorrillo",
"PostCode": "07142",
"Location": {
"Latitude": 8.9496,
"Longitude": -79.5472
}
},
{
"Name": "Ciudad Radial",
"PostCode": "07143",
"Location": {
"Latitude": 9.0426,
"Longitude": -79.437
}
},
{
"Name": "Clayton",
"PostCode": "07144",
"Location": {
"Latitude": 9.0042,
"Longitude": -79.5786
}
},
{
"Name": "Coco Solo",
"PostCode": "07145",
"Location": {
"Latitude": 8.9895,
"Longitude": -79.5082
}
},
{
"Name": "Cocoli",
"PostCode": "07146",
"Location": {
"Latitude": 9.2069,
"Longitude": -79.4185
}
},
{
"Name": "Colinas Del Golf",
"PostCode": "07147",
"Location": {
"Latitude": 8.9895,
"Longitude": -79.5082
}
},
{
"Name": "Concepcion",
"PostCode": "07148",
"Location": {
"Latitude": 8.9895,
"Longitude": -79.5082
}
},
{
"Name": "Coquira",
"PostCode": "07149",
"Location": {
"Latitude": 9.2069,
"Longitude": -79.4185
}
},
{
"Name": "Coronado",
"PostCode": "07150",
"Location": {
"Latitude": 9.0192,
"Longitude": -79.5486
}
},
{
"Name": "Cuatro Altos",
"PostCode": "07151",
"Location": {
"Latitude": 9.0192,
"Longitude": -79.5486
}
},
{
"Name": "Curundu",
"PostCode": "07094",
"Location": {
"Latitude": 8.9709,
"Longitude": -79.5461
}
},
{
"Name": "Diablo",
"PostCode": "07153",
"Location": {
"Latitude": 8.9678,
"Longitude": -79.5587
}
},
{
"Name": "Don Bosco",
"PostCode": "07154",
"Location": {
"Latitude": 9.1348,
"Longitude": -79.6103
}
},
{
"Name": "El Bosque",
"PostCode": "07155",
"Location": {
"Latitude": 9.0192,
"Longitude": -79.5486
}
},
{
"Name": "El Cangrejo",
"PostCode": "07156",
"Location": {
"Latitude": 8.988,
"Longitude": -79.5288
}
},
{
"Name": "El Carmen",
"PostCode": "07157",
"Location": {
"Latitude": 8.9919,
"Longitude": -79.5256
}
},
{
"Name": "El Chorrillo",
"PostCode": "07091",
"Location": {
"Latitude": 8.9496,
"Longitude": -79.5472
}
},
{
"Name": "El Ingenio",
"PostCode": "07158",
"Location": {
"Latitude": 9.0133,
"Longitude": -79.5196
}
},
{
"Name": "El Milagro",
"PostCode": "07159",
"Location": {
"Latitude": 9.0192,
"Longitude": -79.5486
}
},
{
"Name": "El Pantanal",
"PostCode": "07160",
"Location": {
"Latitude": 9.0751,
"Longitude": -79.3891
}
},
{
"Name": "Gatun",
"PostCode": "07162",
"Location": {
"Latitude": 9.0495,
"Longitude": -79.4545
}
},
{
"Name": "Gonzalillo",
"PostCode": "07163",
"Location": {
"Latitude": 9.0978,
"Longitude": -79.5131
}
},
{
"Name": "Jardin Olimpico",
"PostCode": "07164",
"Location": {
"Latitude": 9.0306,
"Longitude": -79.4702
}
},
{
"Name": "Jose De Espinar",
"PostCode": "07165",
"Location": {
"Latitude": 9.0495,
"Longitude": -79.4545
}
},
{
"Name": "Juan Diaz",
"PostCode": "07101",
"Location": {
"Latitude": 9.0406,
"Longitude": -79.4408
}
},
{
"Name": "La Boca",
"PostCode": "07166",
"Location": {
"Latitude": 8.9485,
"Longitude": -79.5613
}
},
{
"Name": "La Cresta",
"PostCode": "07167",
"Location": {
"Latitude": 8.9801,
"Longitude": -79.5319
}
},
{
"Name": "La Doña",
"PostCode": "07168",
"Location": {
"Latitude": 9.0495,
"Longitude": -79.4545
}
},
{
"Name": "La Pradera",
"PostCode": "07169",
"Location": {
"Latitude": 9.1648,
"Longitude": -79.2613
}
},
{
"Name": "Las Acacias",
"PostCode": "07170",
"Location": {
"Latitude": 9.0504,
"Longitude": -79.4205
}
},
{
"Name": "Las Cumbres",
"PostCode": "07104",
"Location": {
"Latitude": 9.0921,
"Longitude": -79.5389
}
},
{
"Name": "Las Mercedes",
"PostCode": "07172",
"Location": {
"Latitude": 9.0559,
"Longitude": -79.4551
}
},
{
"Name": "Llano Bonito",
"PostCode": "07173",
"Location": {
"Latitude": 9.0383,
"Longitude": -79.4584
}
},
{
"Name": "Los Andes",
"PostCode": "07174",
"Location": {
"Latitude": 9.2069,
"Longitude": -79.4185
}
},
{
"Name": "Los Caobos",
"PostCode": "07175",
"Location": {
"Latitude": 9.0867,
"Longitude": -79.4364
}
},
{
"Name": "Los Cerilla",
"PostCode": "07176",
"Location": {
"Latitude": 9.0559,
"Longitude": -79.4551
}
},
{
"Name": "Los Robles",
"PostCode": "07177",
"Location": {
"Latitude": 9.0488,
"Longitude": -79.4161
}
},
{
"Name": "Madungandi",
"PostCode": "07063",
"Location": {
"Latitude": 8.8279,
"Longitude": -79.714
}
},
{
"Name": "Mano De Piedra",
"PostCode": "07178",
"Location": {
"Latitude": 9.2069,
"Longitude": -79.4185
}
},
{
"Name": "Marbella",
"PostCode": "07179",
"Location": {
"Latitude": 9.0559,
"Longitude": -79.4551
}
},
{
"Name": "Miraflores",
"PostCode": "07181",
"Location": {
"Latitude": 9.0234,
"Longitude": -79.5224
}
},
{
"Name": "Monte Oscuro",
"PostCode": "07182",
"Location": {
"Latitude": 9.0309,
"Longitude": -79.5116
}
},
{
"Name": "Monterrico",
"PostCode": "07183",
"Location": {
"Latitude": 9.0138,
"Longitude": -79.5193
}
},
{
"Name": "Nuevo San Juan",
"PostCode": "07184",
"Location": {
"Latitude": 9.0138,
"Longitude": -79.5193
}
},
{
"Name": "Obarrio",
"PostCode": "07185",
"Location": {
"Latitude": 8.9896,
"Longitude": -79.5179
}
},
{
"Name": "Pacora",
"PostCode": "07105",
"Location": {
"Latitude": 9.0825,
"Longitude": -79.2896
}
},
{
"Name": "Pan De Azucar",
"PostCode": "07187",
"Location": {
"Latitude": 9.2069,
"Longitude": -79.4185
}
},
{
"Name": "Panama Viejo",
"PostCode": "07188",
"Location": {
"Latitude": 8.9842,
"Longitude": -79.537
}
},
{
"Name": "Parque Lefevre",
"PostCode": "07110",
"Location": {
"Latitude": 9.0227,
"Longitude": -79.4786
}
},
{
"Name": "Pedregal",
"PostCode": "07102",
"Location": {
"Latitude": 9.0661,
"Longitude": -79.4258
}
},
{
"Name": "Perejil",
"PostCode": "07190",
"Location": {
"Latitude": 8.9757,
"Longitude": -79.5364
}
},
{
"Name": "Pueblo Nuevo",
"PostCode": "07097",
"Location": {
"Latitude": 9.0118,
"Longitude": -79.5133
}
},
{
"Name": "Punta Paitilla",
"PostCode": "07192",
"Location": {
"Latitude": 9.0231,
"Longitude": -79.5245
}
},
{
"Name": "Rio Abajo",
"PostCode": "07100",
"Location": {
"Latitude": 9.024,
"Longitude": -79.4936
}
},
{
"Name": "Rio Abajo Ato Pintado",
"PostCode": "07194",
"Location": {
"Latitude": 9.0231,
"Longitude": -79.5245
}
},
{
"Name": "Rodman",
"PostCode": "07195",
"Location": {
"Latitude": 9.0231,
"Longitude": -79.5245
}
},
{
"Name": "San Felipe",
"PostCode": "07090",
"Location": {
"Latitude": 8.9512,
"Longitude": -79.5373
}
},
{
"Name": "San Francisco",
"PostCode": "07196",
"Location": {
"Latitude": 8.9924,
"Longitude": -79.5082
}
},
{
"Name": "San Fransisco",
"PostCode": "07099",
"Location": {
"Latitude": 8.9809,
"Longitude": -79.4673
}
},
{
"Name": "San Isidro",
"PostCode": "07197",
"Location": {
"Latitude": 9.2069,
"Longitude": -79.4185
}
},
{
"Name": "San Martin",
"PostCode": "07106",
"Location": {
"Latitude": 9.0897,
"Longitude": -79.428
}
},
{
"Name": "Santa Ana",
"PostCode": "07092",
"Location": {
"Latitude": 9.2069,
"Longitude": -79.4185
}
},
{
"Name": "Santa Librada",
"PostCode": "07198",
"Location": {
"Latitude": 9.0636,
"Longitude": -79.535
}
},
{
"Name": "Santa Maria",
"PostCode": "07199",
"Location": {
"Latitude": 9.0159,
"Longitude": -79.5326
}
},
{
"Name": "Terminal",
"PostCode": "07200",
"Location": {
"Latitude": 9.0154,
"Longitude": -79.5217
}
},
{
"Name": "Tocumen",
"PostCode": "07107",
"Location": {
"Latitude": 9.0894,
"Longitude": -79.3831
}
},
{
"Name": "Torrijos-Carter",
"PostCode": "07202",
"Location": {
"Latitude": 9.2069,
"Longitude": -79.4185
}
},
{
"Name": "Urb. Dos Mares",
"PostCode": "07203",
"Location": {
"Latitude": 9.0154,
"Longitude": -79.5217
}
},
{
"Name": "Urbanizacion Nuevoreparto Chanis",
"PostCode": "07204",
"Location": {
"Latitude": 9.0154,
"Longitude": -79.5217
}
},
{
"Name": "Veranillo",
"PostCode": "07205",
"Location": {
"Latitude": 8.9842,
"Longitude": -79.537
}
},
{
"Name": "Via España",
"PostCode": "07206",
"Location": {
"Latitude": 9.0154,
"Longitude": -79.5217
}
},
{
"Name": "Viejo Veranillo",
"PostCode": "07207",
"Location": {
"Latitude": 8.9842,
"Longitude": -79.537
}
},
{
"Name": "Villa Caceres",
"PostCode": "07208",
"Location": {
"Latitude": 9.0154,
"Longitude": -79.5217
}
},
{
"Name": "Villa De La Fuente",
"PostCode": "07209",
"Location": {
"Latitude": 9.0154,
"Longitude": -79.5217
}
},
{
"Name": "Villa Saita",
"PostCode": "07210",
"Location": {
"Latitude": 9.1145,
"Longitude": -79.4723
}
},
{
"Name": "Villa Unida",
"PostCode": "07211",
"Location": {
"Latitude": 9.1918,
"Longitude": -79.6237
}
},
{
"Name": "Vista Hermosa",
"PostCode": "07212",
"Location": {
"Latitude": 8.9998,
"Longitude": -79.5193
}
}
]
}
]
},
{
"Name": "San Miguelito",
"Code": "0810",
"Communities": [
{
"Places": [
{
"Name": "Amelia D. De Icaza",
"PostCode": "07081",
"Location": {
"Latitude": 9.1077,
"Longitude": -79.3581
}
},
{
"Name": "Arnulfo Arias",
"PostCode": "07086",
"Location": {
"Latitude": 9.1077,
"Longitude": -79.3581
}
},
{
"Name": "Belisario Frias",
"PostCode": "07087",
"Location": {
"Latitude": 9.1077,
"Longitude": -79.3581
}
},
{
"Name": "Belisario Porras",
"PostCode": "07082",
"Location": {
"Latitude": 9.1077,
"Longitude": -79.3581
}
},
{
"Name": "El Bosque",
"PostCode": "07213",
"Location": {
"Latitude": 9.1145,
"Longitude": -79.4723
}
},
{
"Name": "Jose D. Espinar",
"PostCode": "07083",
"Location": {
"Latitude": 9.1077,
"Longitude": -79.3581
}
},
{
"Name": "Mateo Iturralde",
"PostCode": "07084",
"Location": {
"Latitude": 9.1077,
"Longitude": -79.3581
}
},
{
"Name": "Omar Torrijos",
"PostCode": "07088",
"Location": {
"Latitude": 9.1077,
"Longitude": -79.3581
}
},
{
"Name": "Rufina Alfaro",
"PostCode": "07089",
"Location": {
"Latitude": 9.1077,
"Longitude": -79.3581
}
},
{
"Name": "Victoriano Lorenzo",
"PostCode": "07085",
"Location": {
"Latitude": 9.0593,
"Longitude": -79.4898
}
}
]
}
]
},
{
"Name": "Taboga",
"Code": "0811",
"Communities": [
{
"Places": [
{
"Name": "Otoque Occidente",
"PostCode": "07061",
"Location": {
"Latitude": 8.6063,
"Longitude": -79.6059
}
},
{
"Name": "Otoque Oriente",
"PostCode": "07062",
"Location": {
"Latitude": 8.6038,
"Longitude": -79.5955
}
},
{
"Name": "Taboga",
"PostCode": "07060",
"Location": {
"Latitude": 8.8279,
"Longitude": -79.714
}
}
]
}
]
}
]
},
{
"Name": "Comarca Kuna Yala",
"Code": "09",
"Provinces": [
{
"Communities": [
{
"Places": [
{
"Name": "Aligandi",
"PostCode": "09001",
"Location": {
"Latitude": 8.2043,
"Longitude": -77.7775
}
},
{
"Name": "Nargana",
"PostCode": "09002",
"Location": {
"Latitude": 9.4439,
"Longitude": -78.5867
}
},
{
"Name": "Puerto Obaldia",
"PostCode": "09003",
"Location": {
"Latitude": 8.6663,
"Longitude": -77.4192
}
},
{
"Name": "Tibuala",
"PostCode": "09004",
"Location": {
"Latitude": 8.7715,
"Longitude": -77.9278
}
}
]
}
]
}
]
},
{
"Name": "Veraguas",
"Code": "10",
"Provinces": [
{
"Name": "Atalaya",
"Code": "0901",
"Communities": [
{
"Places": [
{
"Name": "Atalaya (Cabec)",
"PostCode": "08054",
"Location": {
"Latitude": 8.2911,
"Longitude": -81.0009
}
},
{
"Name": "El Barrito",
"PostCode": "08055",
"Location": {
"Latitude": 7.959,
"Longitude": -80.9482
}
},
{
"Name": "La Carrillo",
"PostCode": "08058",
"Location": {
"Latitude": 7.9702,
"Longitude": -80.8817
}
},
{
"Name": "La Montaðuela",
"PostCode": "08056",
"Location": {
"Latitude": 8.2911,
"Longitude": -81.0009
}
},
{
"Name": "San Antonio",
"PostCode": "08057",
"Location": {
"Latitude": 8.0722,
"Longitude": -80.9297
}
}
]
}
]
},
{
"Name": "Calobre",
"Code": "0902",
"Communities": [
{
"Places": [
{
"Name": "Barnizal",
"PostCode": "08030",
"Location": {
"Latitude": 8.4046,
"Longitude": -80.7777
}
},
{
"Name": "Calobre (Cabec)",
"PostCode": "08029",
"Location": {
"Latitude": 7.8971,
"Longitude": -81.3559
}
},
{
"Name": "Chitra",
"PostCode": "08031",
"Location": {
"Latitude": 8.3196,
"Longitude": -80.8282
}
},
{
"Name": "El Cocla",
"PostCode": "08032",
"Location": {
"Latitude": 8.3218,
"Longitude": -80.9181
}
},
{
"Name": "El Potrero",
"PostCode": "08033",
"Location": {
"Latitude": 8.385,
"Longitude": -80.8007
}
},
{
"Name": "La Laguna",
"PostCode": "08034",
"Location": {
"Latitude": 8.3409,
"Longitude": -80.7293
}
},
{
"Name": "La Raya De Calobre",
"PostCode": "08035",
"Location": {
"Latitude": 8.2206,
"Longitude": -80.8256
}
},
{
"Name": "La Tetilla",
"PostCode": "08036",
"Location": {
"Latitude": 8.2514,
"Longitude": -80.8795
}
},
{
"Name": "La Yeguada",
"PostCode": "08037",
"Location": {
"Latitude": 8.261,
"Longitude": -80.8288
}
},
{
"Name": "Las Guias",
"PostCode": "08038",
"Location": {
"Latitude": 8.3196,
"Longitude": -80.8282
}
},
{
"Name": "Monjaras",
"PostCode": "08039",
"Location": {
"Latitude": 8.3717,
"Longitude": -80.8657
}
},
{
"Name": "San Jose",
"PostCode": "08040",
"Location": {
"Latitude": 8.4658,
"Longitude": -80.8037
}
}
]
}
]
},
{
"Name": "Cañazas",
"Code": "0903",
"Communities": [
{
"Places": [
{
"Name": "Caðazas (Cabec)",
"PostCode": "08077",
"Location": {
"Latitude": 7.807,
"Longitude": -81.1222
}
},
{
"Name": "Cerro De Plata",
"PostCode": "08078",
"Location": {
"Latitude": 7.807,
"Longitude": -81.1222
}
},
{
"Name": "El Aromillo",
"PostCode": "08083",
"Location": {
"Latitude": 8.2532,
"Longitude": -81.3737
}
},
{
"Name": "El Picador",
"PostCode": "08081",
"Location": {
"Latitude": 8.3795,
"Longitude": -81.255
}
},
{
"Name": "Los Valles",
"PostCode": "08079",
"Location": {
"Latitude": 8.4461,
"Longitude": -81.1966
}
},
{
"Name": "San Jose",
"PostCode": "08082",
"Location": {
"Latitude": 8.3705,
"Longitude": -81.4153
}
},
{
"Name": "San Marcelo",
"PostCode": "08080",
"Location": {
"Latitude": 8.2723,
"Longitude": -81.1465
}
}
]
}
]
},
{
"Name": "La Mesa",
"Code": "0904",
"Communities": [
{
"Places": [
{
"Name": "Bisvalles",
"PostCode": "08014",
"Location": {
"Latitude": 8.1847,
"Longitude": -81.2211
}
},
{
"Name": "Boro",
"PostCode": "08015",
"Location": {
"Latitude": 8.172,
"Longitude": -81.3012
}
},
{
"Name": "La Mesa (Cabec)",
"PostCode": "08013",
"Location": {
"Latitude": 8.1879,
"Longitude": -81.2781
}
},
{
"Name": "Llano Grande",
"PostCode": "08016",
"Location": {
"Latitude": 8.1823,
"Longitude": -81.3139
}
},
{
"Name": "Los Milagros",
"PostCode": "08018",
"Location": {
"Latitude": 8.1879,
"Longitude": -81.2781
}
},
{
"Name": "San Bartolo",
"PostCode": "08017",
"Location": {
"Latitude": 8.2127,
"Longitude": -81.2763
}
}
]
}
]
},
{
"Name": "Las Palmas",
"Code": "0905",
"Communities": [
{
"Places": [
{
"Name": "Cerro De Casa",
"PostCode": "08085",
"Location": {
"Latitude": 8.2532,
"Longitude": -81.3737
}
},
{
"Name": "Corozal",
"PostCode": "08086",
"Location": {
"Latitude": 8.0809,
"Longitude": -81.435
}
},
{
"Name": "El Maria",
"PostCode": "08087",
"Location": {
"Latitude": 8.248,
"Longitude": -81.4317
}
},
{
"Name": "El Prado",
"PostCode": "08088",
"Location": {
"Latitude": 8.2367,
"Longitude": -81.501
}
},
{
"Name": "El Rincon",
"PostCode": "08089",
"Location": {
"Latitude": 8.1844,
"Longitude": -81.4316
}
},
{
"Name": "Las Palmas (Cabec)",
"PostCode": "08084",
"Location": {
"Latitude": 8.2532,
"Longitude": -81.3737
}
},
{
"Name": "Lola",
"PostCode": "08090",
"Location": {
"Latitude": 8.0926,
"Longitude": -81.4665
}
},
{
"Name": "Pixvae",
"PostCode": "08091",
"Location": {
"Latitude": 8.1223,
"Longitude": -81.5194
}
},
{
"Name": "Puerto Vidal",
"PostCode": "08092",
"Location": {
"Latitude": 8.0493,
"Longitude": -81.6045
}
},
{
"Name": "San Martin De Porres",
"PostCode": "08094",
"Location": {
"Latitude": 8.1223,
"Longitude": -81.5194
}
},
{
"Name": "Vigui",
"PostCode": "08095",
"Location": {
"Latitude": 8.3399,
"Longitude": -81.4975
}
},
{
"Name": "Zapotillo",
"PostCode": "08093",
"Location": {
"Latitude": 8.0072,
"Longitude": -81.5092
}
}
]
}
]
},
{
"Name": "Montijo",
"Code": "0906",
"Communities": [
{
"Places": [
{
"Name": "Cebaco",
"PostCode": "08066",
"Location": {
"Latitude": 7.861,
"Longitude": -81.1286
}
},
{
"Name": "Costa Hermosa",
"PostCode": "08065",
"Location": {
"Latitude": 7.861,
"Longitude": -81.1286
}
},
{
"Name": "Gobernadora",
"PostCode": "08060",
"Location": {
"Latitude": 7.5593,
"Longitude": -81.1855
}
},
{
"Name": "La Garcena",
"PostCode": "08061",
"Location": {
"Latitude": 7.861,
"Longitude": -81.1286
}
},
{
"Name": "Leones",
"PostCode": "08062",
"Location": {
"Latitude": 7.861,
"Longitude": -81.1286
}
},
{
"Name": "Montijo (Cabec)",
"PostCode": "08059",
"Location": {
"Latitude": 8.2911,
"Longitude": -81.0009
}
},
{
"Name": "Pilon",
"PostCode": "08063",
"Location": {
"Latitude": 7.9568,
"Longitude": -81.0723
}
},
{
"Name": "Union Del Norte",
"PostCode": "08064",
"Location": {
"Latitude": 7.861,
"Longitude": -81.1286
}
}
]
}
]
},
{
"Name": "Rio De Jesus",
"Code": "0907",
"Communities": [
{
"Places": [
{
"Name": "Catorce De Noviembre",
"PostCode": "08071",
"Location": {
"Latitude": 7.807,
"Longitude": -81.1222
}
},
{
"Name": "Las Huacas",
"PostCode": "08068",
"Location": {
"Latitude": 7.9033,
"Longitude": -81.14
}
},
{
"Name": "Los Castillos",
"PostCode": "08069",
"Location": {
"Latitude": 8.0246,
"Longitude": -81.1167
}
},
{
"Name": "Rio De Jesus (Cabec)",
"PostCode": "08067",
"Location": {
"Latitude": 7.861,
"Longitude": -81.1286
}
},
{
"Name": "Utira",
"PostCode": "08070",
"Location": {
"Latitude": 7.9749,
"Longitude": -81.2173
}
}
]
}
]
},
{
"Name": "San Francisco",
"Code": "0908",
"Communities": [
{
"Places": [
{
"Name": "Corra Falso",
"PostCode": "08042",
"Location": {
"Latitude": 8.4612,
"Longitude": -80.9973
}
},
{
"Name": "Los Hatillos",
"PostCode": "08043",
"Location": {
"Latitude": 8.314,
"Longitude": -80.9851
}
},
{
"Name": "Remance",
"PostCode": "08044",
"Location": {
"Latitude": 8.3073,
"Longitude": -81.0808
}
},
{
"Name": "San Fransisco (Cabec)",
"PostCode": "08041",
"Location": {
"Latitude": 8.4612,
"Longitude": -80.9973
}
},
{
"Name": "San Jose",
"PostCode": "08046",
"Location": {
"Latitude": 8.3523,
"Longitude": -81.0385
}
},
{
"Name": "San Juan",
"PostCode": "08045",
"Location": {
"Latitude": 8.2996,
"Longitude": -81.0058
}
}
]
}
]
},
{
"Name": "Santa Fe",
"Code": "0909",
"Communities": [
{
"Places": [
{
"Name": "Calovebora",
"PostCode": "08048",
"Location": {
"Latitude": 8.787,
"Longitude": -81.2106
}
},
{
"Name": "El Alto",
"PostCode": "08049",
"Location": {
"Latitude": 8.5118,
"Longitude": -81.0364
}
},
{
"Name": "El Cuay",
"PostCode": "08050",
"Location": {
"Latitude": 8.2911,
"Longitude": -81.0009
}
},
{
"Name": "El Pantano",
"PostCode": "08051",
"Location": {
"Latitude": 8.5347,
"Longitude": -81.0694
}
},
{
"Name": "Gatuncito",
"PostCode": "08052",
"Location": {
"Latitude": 8.5282,
"Longitude": -80.9572
}
},
{
"Name": "Rio Luis",
"PostCode": "08053",
"Location": {
"Latitude": 8.6827,
"Longitude": -81.2195
}
},
{
"Name": "Santa Fe (Cabec)",
"PostCode": "08047",
"Location": {
"Latitude": 8.4612,
"Longitude": -80.9973
}
}
]
}
]
},
{
"Name": "Santiago",
"Code": "0910",
"Communities": [
{
"Places": [
{
"Name": "Canto Del Llano",
"PostCode": "08007",
"Location": {
"Latitude": 8.1231,
"Longitude": -80.9642
}
},
{
"Name": "Carlos Santana",
"PostCode": "08009",
"Location": {
"Latitude": 8.062,
"Longitude": -81.001
}
},
{
"Name": "Edwin Fabrega",
"PostCode": "08010",
"Location": {
"Latitude": 8.1879,
"Longitude": -81.2781
}
},
{
"Name": "La Colorada",
"PostCode": "08002",
"Location": {
"Latitude": 8.0147,
"Longitude": -80.9843
}
},
{
"Name": "La Peða",
"PostCode": "08003",
"Location": {
"Latitude": 8.062,
"Longitude": -81.001
}
},
{
"Name": "La Raya Sta. Maria",
"PostCode": "08004",
"Location": {
"Latitude": 8.062,
"Longitude": -81.001
}
},
{
"Name": "Los Algarrobos",
"PostCode": "08008",
"Location": {
"Latitude": 8.1129,
"Longitude": -81.0152
}
},
{
"Name": "Ponuga",
"PostCode": "08005",
"Location": {
"Latitude": 7.8827,
"Longitude": -80.9771
}
},
{
"Name": "San Martin De Porres",
"PostCode": "08011",
"Location": {
"Latitude": 8.1879,
"Longitude": -81.2781
}
},
{
"Name": "San Pedro Del Espino",
"PostCode": "08006",
"Location": {
"Latitude": 8.1387,
"Longitude": -81.0821
}
},
{
"Name": "Santiago",
"PostCode": "08001",
"Location": {
"Latitude": 8.1,
"Longitude": -80.9833
}
},
{
"Name": "Urraca",
"PostCode": "08012",
"Location": {
"Latitude": 8.1879,
"Longitude": -81.2781
}
}
]
}
]
},
{
"Name": "Sona",
"Code": "0911",
"Communities": [
{
"Places": [
{
"Name": "Bahia Honda",
"PostCode": "08020",
"Location": {
"Latitude": 7.7524,
"Longitude": -81.517
}
},
{
"Name": "Calidonia",
"PostCode": "08021",
"Location": {
"Latitude": 7.9576,
"Longitude": -81.3863
}
},
{
"Name": "Cative",
"PostCode": "08022",
"Location": {
"Latitude": 7.9191,
"Longitude": -81.3801
}
},
{
"Name": "El Maraðon",
"PostCode": "08023",
"Location": {
"Latitude": 7.8971,
"Longitude": -81.3559
}
},
{
"Name": "Guarumal",
"PostCode": "08024",
"Location": {
"Latitude": 7.7989,
"Longitude": -81.2585
}
},
{
"Name": "La Soledad",
"PostCode": "08025",
"Location": {
"Latitude": 7.8789,
"Longitude": -81.2679
}
},
{
"Name": "Quebrada De Oro",
"PostCode": "08026",
"Location": {
"Latitude": 8.0355,
"Longitude": -81.3869
}
},
{
"Name": "Rio Grande",
"PostCode": "08027",
"Location": {
"Latitude": 7.7191,
"Longitude": -81.3342
}
},
{
"Name": "Rodeo Viejo",
"PostCode": "08028",
"Location": {
"Latitude": 8.1151,
"Longitude": -81.3159
}
},
{
"Name": "Sona (Cabec)",
"PostCode": "08019",
"Location": {
"Latitude": 8.1879,
"Longitude": -81.2781
}
}
]
}
]
},
{
"Name": "Mariato",
"Code": "12535894",
"Communities": [
{
"Places": [
{
"Name": "Arena",
"PostCode": "08073",
"Location": {
"Latitude": 7.9181,
"Longitude": -81.5901
}
},
{
"Name": "El Cacao",
"PostCode": "08076",
"Location": {
"Latitude": 7.3448,
"Longitude": -80.8686
}
},
{
"Name": "Llano De Cativa",
"PostCode": "08072",
"Location": {
"Latitude": 7.807,
"Longitude": -81.1222
}
},
{
"Name": "Quebro",
"PostCode": "08074",
"Location": {
"Latitude": 7.4387,
"Longitude": -80.8859
}
},
{
"Name": "Tebario",
"PostCode": "08075",
"Location": {
"Latitude": 7.7192,
"Longitude": -80.9746
}
}
]
}
]
}
]
},
{
"Name": "Comarca Ngobe Bugle",
"Code": "12",
"Provinces": [
{
"Name": "Besiko",
"Code": "1201",
"Communities": [
{
"Places": [
{
"Name": "Boca De Balsa",
"PostCode": "10018",
"Location": {
"Latitude": 8.53,
"Longitude": -82.0313
}
},
{
"Name": "Camaron Arriba",
"PostCode": "10021",
"Location": {
"Latitude": 8.3877,
"Longitude": -81.9965
}
},
{
"Name": "Cerro Banco",
"PostCode": "10019",
"Location": {
"Latitude": 8.4639,
"Longitude": -81.9407
}
},
{
"Name": "Cerro De Patena",
"PostCode": "10020",
"Location": {
"Latitude": 8.4224,
"Longitude": -81.9109
}
},
{
"Name": "Emplanada De Corcha",
"PostCode": "10022",
"Location": {
"Latitude": 8.4224,
"Longitude": -81.9109
}
},
{
"Name": "Namnoni",
"PostCode": "10023",
"Location": {
"Latitude": 8.4224,
"Longitude": -81.9109
}
},
{
"Name": "Niba",
"PostCode": "10024",
"Location": {
"Latitude": 8.4224,
"Longitude": -81.9109
}
},
{
"Name": "Soloy",
"PostCode": "10017",
"Location": {
"Latitude": 8.4969,
"Longitude": -82.072
}
}
]
}
]
},
{
"Name": "Mirono",
"Code": "1202",
"Communities": [
{
"Places": [
{
"Name": "Cascabel",
"PostCode": "10026",
"Location": {
"Latitude": 8.5272,
"Longitude": -81.8759
}
},
{
"Name": "Hato Corotu",
"PostCode": "10027",
"Location": {
"Latitude": 8.3352,
"Longitude": -81.9703
}
},
{
"Name": "Hato Culantro",
"PostCode": "10028",
"Location": {
"Latitude": 8.4721,
"Longitude": -81.862
}
},
{
"Name": "Hato Jobo",
"PostCode": "10029",
"Location": {
"Latitude": 8.4103,
"Longitude": -81.8924
}
},
{
"Name": "Hato Juli",
"PostCode": "10030",
"Location": {
"Latitude": 8.3676,
"Longitude": -81.8192
}
},
{
"Name": "Hato Pilon",
"PostCode": "10025",
"Location": {
"Latitude": 8.4017,
"Longitude": -81.8681
}
},
{
"Name": "Quebrada De Loro",
"PostCode": "10031",
"Location": {
"Latitude": 8.3544,
"Longitude": -81.918
}
},
{
"Name": "Salto Dupi",
"PostCode": "10032",
"Location": {
"Latitude": 8.3504,
"Longitude": -81.8882
}
}
]
}
]
},
{
"Name": "Muna",
"Code": "1203",
"Communities": [
{
"Places": [
{
"Name": "Alto Caballero",
"PostCode": "10039",
"Location": {
"Latitude": 8.2932,
"Longitude": -81.6751
}
},
{
"Name": "Bagama",
"PostCode": "10040",
"Location": {
"Latitude": 8.3665,
"Longitude": -81.6649
}
},
{
"Name": "Cerro Caða",
"PostCode": "10041",
"Location": {
"Latitude": 8.3665,
"Longitude": -81.6649
}
},
{
"Name": "Cerro Puerco",
"PostCode": "10042",
"Location": {
"Latitude": 8.3505,
"Longitude": -81.6815
}
},
{
"Name": "Chichica",
"PostCode": "10038",
"Location": {
"Latitude": 8.415,
"Longitude": -81.7736
}
},
{
"Name": "Krua",
"PostCode": "10043",
"Location": {
"Latitude": 8.3665,
"Longitude": -81.6649
}
},
{
"Name": "Maraca",
"PostCode": "10044",
"Location": {
"Latitude": 8.3761,
"Longitude": -81.7333
}
},
{
"Name": "Nibra",
"PostCode": "10045",
"Location": {
"Latitude": 8.3665,
"Longitude": -81.6649
}
},
{
"Name": "Peða Blanca",
"PostCode": "10046",
"Location": {
"Latitude": 8.3665,
"Longitude": -81.6649
}
},
{
"Name": "Roka",
"PostCode": "10047",
"Location": {
"Latitude": 8.3665,
"Longitude": -81.6649
}
},
{
"Name": "Sitio Prado",
"PostCode": "10048",
"Location": {
"Latitude": 8.3728,
"Longitude": -81.58
}
},
{
"Name": "Umani",
"PostCode": "10049",
"Location": {
"Latitude": 8.3665,
"Longitude": -81.6649
}
}
]
}
]
},
{
"Name": "Nole Duima",
"Code": "1204",
"Communities": [
{
"Places": [
{
"Name": "Cerro Iglesias",
"PostCode": "10033",
"Location": {
"Latitude": 8.3613,
"Longitude": -81.8007
}
},
{
"Name": "Hato Chami",
"PostCode": "10035",
"Location": {
"Latitude": 8.4485,
"Longitude": -81.7702
}
},
{
"Name": "Jadeberi",
"PostCode": "10037",
"Location": {
"Latitude": 8.371,
"Longitude": -81.791
}
},
{
"Name": "Lajero",
"PostCode": "10034",
"Location": {
"Latitude": 8.29,
"Longitude": -81.7701
}
},
{
"Name": "Susama",
"PostCode": "10036",
"Location": {
"Latitude": 8.3613,
"Longitude": -81.8007
}
}
]
}
]
},
{
"Name": "Nurun",
"Code": "1205",
"Communities": [
{
"Places": [
{
"Name": "Agua De Salud",
"PostCode": "10051",
"Location": {
"Latitude": 8.5105,
"Longitude": -81.4742
}
},
{
"Name": "Alto De Jesus",
"PostCode": "10052",
"Location": {
"Latitude": 8.4136,
"Longitude": -81.4613
}
},
{
"Name": "Buenos Aires",
"PostCode": "10050",
"Location": {
"Latitude": 8.4145,
"Longitude": -81.4799
}
},
{
"Name": "Cerro Pelado",
"PostCode": "10053",
"Location": {
"Latitude": 8.1625,
"Longitude": -81.5392
}
},
{
"Name": "El Bale",
"PostCode": "10054",
"Location": {
"Latitude": 8.346,
"Longitude": -81.3716
}
},
{
"Name": "El Paredon",
"PostCode": "10055",
"Location": {
"Latitude": 8.4136,
"Longitude": -81.4613
}
},
{
"Name": "El Piro",
"PostCode": "10056",
"Location": {
"Latitude": 8.4083,
"Longitude": -81.5224
}
},
{
"Name": "Guayabito",
"PostCode": "10057",
"Location": {
"Latitude": 8.5396,
"Longitude": -81.4821
}
},
{
"Name": "Guibale",
"PostCode": "10058",
"Location": {
"Latitude": 8.514,
"Longitude": -81.3595
}
}
]
}
]
},
{
"Name": "Kankintu",
"Code": "1206",
"Communities": [
{
"Places": [
{
"Name": "Bisisra",
"PostCode": "10001",
"Location": {
"Latitude": 8.6848,
"Longitude": -81.7719
}
},
{
"Name": "Buri",
"PostCode": "10002",
"Location": {
"Latitude": 8.6848,
"Longitude": -81.7719
}
},
{
"Name": "Guariviara",
"PostCode": "10004",
"Location": {
"Latitude": 8.6848,
"Longitude": -81.7719
}
},
{
"Name": "Guaroni",
"PostCode": "10005",
"Location": {
"Latitude": 8.6848,
"Longitude": -81.7719
}
},
{
"Name": "Kankitu",
"PostCode": "10003",
"Location": {
"Latitude": 8.6848,
"Longitude": -81.7719
}
},
{
"Name": "Man Creek",
"PostCode": "10009",
"Location": {
"Latitude": 8.6848,
"Longitude": -81.7719
}
},
{
"Name": "Mununi",
"PostCode": "10006",
"Location": {
"Latitude": 8.7994,
"Longitude": -81.7972
}
},
{
"Name": "Piedra Roja",
"PostCode": "10007",
"Location": {
"Latitude": 8.5703,
"Longitude": -81.7466
}
},
{
"Name": "Tuwai",
"PostCode": "10008",
"Location": {
"Latitude": 8.6848,
"Longitude": -81.7719
}
}
]
}
]
},
{
"Name": "Kusapin",
"Code": "1207",
"Communities": [
{
"Places": [
{
"Name": "Bahia Azul",
"PostCode": "10012",
"Location": {
"Latitude": 9.1418,
"Longitude": -81.8942
}
},
{
"Name": "Calovebora",
"PostCode": "10011",
"Location": {
"Latitude": 8.7939,
"Longitude": -81.9088
}
},
{
"Name": "Kusapin",
"PostCode": "10010",
"Location": {
"Latitude": 9.1816,
"Longitude": -81.8879
}
},
{
"Name": "Loma Yuca",
"PostCode": "10014",
"Location": {
"Latitude": 8.7569,
"Longitude": -81.5106
}
},
{
"Name": "Rio Chiriqui",
"PostCode": "10013",
"Location": {
"Latitude": 8.7939,
"Longitude": -81.9088
}
},
{
"Name": "Tobobe",
"PostCode": "10015",
"Location": {
"Latitude": 9.1208,
"Longitude": -81.828
}
},
{
"Name": "Valle Bonito",
"PostCode": "10016",
"Location": {
"Latitude": 8.7939,
"Longitude": -81.9088
}
}
]
}
]
}
]
}
]