[
{
"Name": "Reunion (general)",
"Code": "00",
"Provinces": [
{
"Communities": [
{
"Places": [
{
"Name": "Sainte-Clotilde",
"PostCode": "97491 CEDEX",
"Location": {
"Latitude": -20.8916,
"Longitude": 55.4787
}
},
{
"Name": "Sainte-Clotilde",
"PostCode": "97492 CEDEX",
"Location": {
"Latitude": -20.8916,
"Longitude": 55.4787
}
},
{
"Name": "Sainte-Clotilde",
"PostCode": "97493 CEDEX",
"Location": {
"Latitude": -20.8916,
"Longitude": 55.4787
}
},
{
"Name": "Sainte-Clotilde",
"PostCode": "97494 CEDEX",
"Location": {
"Latitude": -20.8916,
"Longitude": 55.4787
}
},
{
"Name": "Sainte-Clotilde",
"PostCode": "97495 CEDEX",
"Location": {
"Latitude": -20.8916,
"Longitude": 55.4787
}
},
{
"Name": "Sainte-Clotilde",
"PostCode": "97496 CEDEX",
"Location": {
"Latitude": -20.8916,
"Longitude": 55.4787
}
},
{
"Name": "Sainte-Clotilde",
"PostCode": "97497 CEDEX",
"Location": {
"Latitude": -20.8916,
"Longitude": 55.4787
}
}
]
}
]
}
]
},
{
"Name": "Réunion",
"Code": "RE",
"Provinces": [
{
"Name": "Réunion",
"Code": "974",
"Communities": [
{
"Name": "Arrondissement de Saint-Denis",
"Code": "9741",
"Places": [
{
"Name": "Saint-Denis",
"PostCode": "97400",
"Location": {
"Latitude": -20.8823,
"Longitude": 55.4504
}
},
{
"Name": "Saint-Denis",
"PostCode": "97401 CEDEX",
"Location": {
"Latitude": -20.8823,
"Longitude": 55.4504
}
},
{
"Name": "Saint-Denis",
"PostCode": "97402 CEDEX",
"Location": {
"Latitude": -20.8823,
"Longitude": 55.4504
}
},
{
"Name": "Saint-Denis",
"PostCode": "97403 CEDEX",
"Location": {
"Latitude": -20.8823,
"Longitude": 55.4504
}
},
{
"Name": "Saint-Denis",
"PostCode": "97404 CEDEX",
"Location": {
"Latitude": -20.8823,
"Longitude": 55.4504
}
},
{
"Name": "Saint-Denis",
"PostCode": "97405 CEDEX",
"Location": {
"Latitude": -20.8823,
"Longitude": 55.4504
}
},
{
"Name": "Saint-Denis",
"PostCode": "97406 CEDEX 9",
"Location": {
"Latitude": -20.8823,
"Longitude": 55.4504
}
},
{
"Name": "Saint-Denis",
"PostCode": "97408 CEDEX 9",
"Location": {
"Latitude": -20.8823,
"Longitude": 55.4504
}
},
{
"Name": "Saint-Denis",
"PostCode": "97409 CEDEX 9",
"Location": {
"Latitude": -20.8823,
"Longitude": 55.4504
}
},
{
"Name": "Saint-Denis",
"PostCode": "97417",
"Location": {
"Latitude": -20.8823,
"Longitude": 55.4504
}
},
{
"Name": "Saint-Denis",
"PostCode": "97461 CEDEX",
"Location": {
"Latitude": -20.8823,
"Longitude": 55.4504
}
},
{
"Name": "Saint-Denis",
"PostCode": "97462 CEDEX",
"Location": {
"Latitude": -20.8823,
"Longitude": 55.4504
}
},
{
"Name": "Saint-Denis",
"PostCode": "97463 CEDEX",
"Location": {
"Latitude": -20.8823,
"Longitude": 55.4504
}
},
{
"Name": "Saint-Denis",
"PostCode": "97464 CEDEX",
"Location": {
"Latitude": -20.8823,
"Longitude": 55.4504
}
},
{
"Name": "Saint-Denis",
"PostCode": "97465 CEDEX",
"Location": {
"Latitude": -20.8823,
"Longitude": 55.4504
}
},
{
"Name": "Saint-Denis",
"PostCode": "97466 CEDEX",
"Location": {
"Latitude": -20.8823,
"Longitude": 55.4504
}
},
{
"Name": "Saint-Denis",
"PostCode": "97467 CEDEX",
"Location": {
"Latitude": -20.8823,
"Longitude": 55.4504
}
},
{
"Name": "Saint-Denis",
"PostCode": "97468 CEDEX",
"Location": {
"Latitude": -20.8823,
"Longitude": 55.4504
}
},
{
"Name": "Saint-Denis",
"PostCode": "97469 CEDEX",
"Location": {
"Latitude": -20.8823,
"Longitude": 55.4504
}
},
{
"Name": "Saint-Denis",
"PostCode": "97471 CEDEX",
"Location": {
"Latitude": -20.8823,
"Longitude": 55.4504
}
},
{
"Name": "Saint-Denis",
"PostCode": "97472 CEDEX",
"Location": {
"Latitude": -20.8823,
"Longitude": 55.4504
}
},
{
"Name": "Saint-Denis",
"PostCode": "97473 CEDEX",
"Location": {
"Latitude": -20.8823,
"Longitude": 55.4504
}
},
{
"Name": "Saint-Denis",
"PostCode": "97474 CEDEX",
"Location": {
"Latitude": -20.8823,
"Longitude": 55.4504
}
},
{
"Name": "Saint-Denis",
"PostCode": "97475 CEDEX",
"Location": {
"Latitude": -20.8823,
"Longitude": 55.4504
}
},
{
"Name": "Saint-Denis",
"PostCode": "97476 CEDEX",
"Location": {
"Latitude": -20.8823,
"Longitude": 55.4504
}
},
{
"Name": "Saint-Denis",
"PostCode": "97477 CEDEX",
"Location": {
"Latitude": -20.8823,
"Longitude": 55.4504
}
},
{
"Name": "Saint-Denis",
"PostCode": "97478 CEDEX",
"Location": {
"Latitude": -20.8823,
"Longitude": 55.4504
}
},
{
"Name": "Saint-Denis",
"PostCode": "97479 CEDEX",
"Location": {
"Latitude": -20.8823,
"Longitude": 55.4504
}
},
{
"Name": "Saint-Denis",
"PostCode": "97481 CEDEX",
"Location": {
"Latitude": -20.8823,
"Longitude": 55.4504
}
},
{
"Name": "Saint-Denis",
"PostCode": "97482 CEDEX",
"Location": {
"Latitude": -20.8823,
"Longitude": 55.4504
}
},
{
"Name": "Saint-Denis",
"PostCode": "97483 CEDEX",
"Location": {
"Latitude": -20.8823,
"Longitude": 55.4504
}
},
{
"Name": "Saint-Denis",
"PostCode": "97484 CEDEX",
"Location": {
"Latitude": -20.8823,
"Longitude": 55.4504
}
},
{
"Name": "Saint-Denis",
"PostCode": "97485 CEDEX",
"Location": {
"Latitude": -20.8823,
"Longitude": 55.4504
}
},
{
"Name": "Saint-Denis",
"PostCode": "97486 CEDEX",
"Location": {
"Latitude": -20.8823,
"Longitude": 55.4504
}
},
{
"Name": "Saint-Denis",
"PostCode": "97487 CEDEX",
"Location": {
"Latitude": -20.8823,
"Longitude": 55.4504
}
},
{
"Name": "Saint-Denis",
"PostCode": "97488 CEDEX",
"Location": {
"Latitude": -20.8823,
"Longitude": 55.4504
}
},
{
"Name": "Saint-Denis",
"PostCode": "97489 CEDEX",
"Location": {
"Latitude": -20.8823,
"Longitude": 55.4504
}
},
{
"Name": "Saint-Denis",
"PostCode": "97490",
"Location": {
"Latitude": -20.8823,
"Longitude": 55.4504
}
},
{
"Name": "Saint-Denis",
"PostCode": "97499 CEDEX 9",
"Location": {
"Latitude": -20.8823,
"Longitude": 55.4504
}
},
{
"Name": "Saint-Denis",
"PostCode": "97701 CEDEX 9",
"Location": {
"Latitude": -20.8823,
"Longitude": 55.4504
}
},
{
"Name": "Saint-Denis",
"PostCode": "97702 CEDEX 9",
"Location": {
"Latitude": -20.8823,
"Longitude": 55.4504
}
},
{
"Name": "Saint-Denis",
"PostCode": "97703 CEDEX 9",
"Location": {
"Latitude": -20.8823,
"Longitude": 55.4504
}
},
{
"Name": "Saint-Denis",
"PostCode": "97704 CEDEX 9",
"Location": {
"Latitude": -20.8823,
"Longitude": 55.4504
}
},
{
"Name": "Saint-Denis",
"PostCode": "97705 CEDEX 9",
"Location": {
"Latitude": -20.8823,
"Longitude": 55.4504
}
},
{
"Name": "Saint-Denis",
"PostCode": "97706 CEDEX 9",
"Location": {
"Latitude": -20.8823,
"Longitude": 55.4504
}
},
{
"Name": "Saint-Denis",
"PostCode": "97707 CEDEX 9",
"Location": {
"Latitude": -20.8823,
"Longitude": 55.4504
}
},
{
"Name": "Saint-Denis",
"PostCode": "97708 CEDEX 9",
"Location": {
"Latitude": -20.8823,
"Longitude": 55.4504
}
},
{
"Name": "Saint-Denis",
"PostCode": "97709 CEDEX 9",
"Location": {
"Latitude": -20.8823,
"Longitude": 55.4504
}
},
{
"Name": "Saint-Denis",
"PostCode": "97711 CEDEX 9",
"Location": {
"Latitude": -20.8823,
"Longitude": 55.4504
}
},
{
"Name": "Saint-Denis",
"PostCode": "97712 CEDEX 9",
"Location": {
"Latitude": -20.8823,
"Longitude": 55.4504
}
},
{
"Name": "Saint-Denis",
"PostCode": "97713 CEDEX 9",
"Location": {
"Latitude": -20.8823,
"Longitude": 55.4504
}
},
{
"Name": "Saint-Denis",
"PostCode": "97714 CEDEX 9",
"Location": {
"Latitude": -20.8823,
"Longitude": 55.4504
}
},
{
"Name": "Saint-Denis",
"PostCode": "97715 CEDEX 9",
"Location": {
"Latitude": -20.8823,
"Longitude": 55.4504
}
},
{
"Name": "Saint-Denis",
"PostCode": "97716 CEDEX 9",
"Location": {
"Latitude": -20.8823,
"Longitude": 55.4504
}
},
{
"Name": "Saint-Denis",
"PostCode": "97717 CEDEX 9",
"Location": {
"Latitude": -20.8823,
"Longitude": 55.4504
}
},
{
"Name": "Saint-Denis",
"PostCode": "97718 CEDEX 9",
"Location": {
"Latitude": -20.8823,
"Longitude": 55.4504
}
},
{
"Name": "Saint-Denis",
"PostCode": "97719 CEDEX 9",
"Location": {
"Latitude": -20.8823,
"Longitude": 55.4504
}
},
{
"Name": "Saint-Denis",
"PostCode": "97743 CEDEX 9",
"Location": {
"Latitude": -20.8823,
"Longitude": 55.4504
}
},
{
"Name": "Saint-Denis",
"PostCode": "97801 CEDEX 9",
"Location": {
"Latitude": -20.8823,
"Longitude": 55.4504
}
},
{
"Name": "Saint-Denis",
"PostCode": "97802 CEDEX 9",
"Location": {
"Latitude": -20.8823,
"Longitude": 55.4504
}
},
{
"Name": "Saint-Denis",
"PostCode": "97803 CEDEX 9",
"Location": {
"Latitude": -20.8823,
"Longitude": 55.4504
}
},
{
"Name": "Saint-Denis",
"PostCode": "97804 CEDEX 9",
"Location": {
"Latitude": -20.8823,
"Longitude": 55.4504
}
},
{
"Name": "Saint-Denis",
"PostCode": "97805 CEDEX 9",
"Location": {
"Latitude": -20.8823,
"Longitude": 55.4504
}
},
{
"Name": "Saint-Denis",
"PostCode": "97806 CEDEX 9",
"Location": {
"Latitude": -20.8823,
"Longitude": 55.4504
}
},
{
"Name": "Sainte-Marie",
"PostCode": "97438",
"Location": {
"Latitude": -20.8968,
"Longitude": 55.5496
}
},
{
"Name": "Sainte-Suzanne",
"PostCode": "97441",
"Location": {
"Latitude": -20.9061,
"Longitude": 55.6089
}
}
]
},
{
"Name": "Arrondissement de Saint-Pierre",
"Code": "9742",
"Places": [
{
"Name": "Cilaos",
"PostCode": "97413",
"Location": {
"Latitude": -21.1336,
"Longitude": 55.4719
}
},
{
"Name": "L'Entre-Deux",
"PostCode": "97414",
"Location": {
"Latitude": -21.2333,
"Longitude": 55.4667
}
},
{
"Name": "L'Étang-Salé",
"PostCode": "97427",
"Location": {
"Latitude": -21.25,
"Longitude": 55.3833
}
},
{
"Name": "La Rivière",
"PostCode": "97421",
"Location": {
"Latitude": -21.2595,
"Longitude": 55.4405
}
},
{
"Name": "Le Tampon",
"PostCode": "97418",
"Location": {
"Latitude": -21.2831,
"Longitude": 55.518
}
},
{
"Name": "Le Tampon",
"PostCode": "97430",
"Location": {
"Latitude": -21.2831,
"Longitude": 55.518
}
},
{
"Name": "Le Tampon",
"PostCode": "97831 CEDEX",
"Location": {
"Latitude": -21.2831,
"Longitude": 55.518
}
},
{
"Name": "Le Tampon",
"PostCode": "97832 CEDEX",
"Location": {
"Latitude": -21.2831,
"Longitude": 55.518
}
},
{
"Name": "Le Tampon",
"PostCode": "97833 CEDEX",
"Location": {
"Latitude": -21.2831,
"Longitude": 55.518
}
},
{
"Name": "Le Tampon",
"PostCode": "97834 CEDEX",
"Location": {
"Latitude": -21.2831,
"Longitude": 55.518
}
},
{
"Name": "Le Tampon",
"PostCode": "97835 CEDEX",
"Location": {
"Latitude": -21.2831,
"Longitude": 55.518
}
},
{
"Name": "Le Tampon",
"PostCode": "97836 CEDEX",
"Location": {
"Latitude": -21.2831,
"Longitude": 55.518
}
},
{
"Name": "Le Tampon",
"PostCode": "97837 CEDEX",
"Location": {
"Latitude": -21.2831,
"Longitude": 55.518
}
},
{
"Name": "Le Tampon",
"PostCode": "97838 CEDEX",
"Location": {
"Latitude": -21.2831,
"Longitude": 55.518
}
},
{
"Name": "Le Tampon",
"PostCode": "97839 CEDEX",
"Location": {
"Latitude": -21.2831,
"Longitude": 55.518
}
},
{
"Name": "Les Avirons",
"PostCode": "97425",
"Location": {
"Latitude": -21.2418,
"Longitude": 55.3394
}
},
{
"Name": "Petite-Île",
"PostCode": "97429",
"Location": {
"Latitude": -21.35,
"Longitude": 55.5667
}
},
{
"Name": "Saint-Joseph",
"PostCode": "97480",
"Location": {
"Latitude": -21.3784,
"Longitude": 55.6192
}
},
{
"Name": "Saint-Louis",
"PostCode": "97421",
"Location": {
"Latitude": -21.2858,
"Longitude": 55.4112
}
},
{
"Name": "Saint-Louis",
"PostCode": "97450",
"Location": {
"Latitude": -21.2858,
"Longitude": 55.4112
}
},
{
"Name": "Saint-Louis",
"PostCode": "97872 CEDEX",
"Location": {
"Latitude": -21.2858,
"Longitude": 55.4112
}
},
{
"Name": "Saint-Louis",
"PostCode": "97899 CEDEX",
"Location": {
"Latitude": -21.2858,
"Longitude": 55.4112
}
},
{
"Name": "Saint-Philippe",
"PostCode": "97442",
"Location": {
"Latitude": -21.3585,
"Longitude": 55.768
}
},
{
"Name": "Saint-Pierre",
"PostCode": "97410",
"Location": {
"Latitude": -21.3393,
"Longitude": 55.4781
}
},
{
"Name": "Saint-Pierre",
"PostCode": "97432",
"Location": {
"Latitude": -21.3393,
"Longitude": 55.4781
}
},
{
"Name": "Saint-Pierre",
"PostCode": "97445 CEDEX",
"Location": {
"Latitude": -21.3393,
"Longitude": 55.4781
}
},
{
"Name": "Saint-Pierre",
"PostCode": "97446 CEDEX",
"Location": {
"Latitude": -21.3393,
"Longitude": 55.4781
}
},
{
"Name": "Saint-Pierre",
"PostCode": "97447 CEDEX",
"Location": {
"Latitude": -21.3393,
"Longitude": 55.4781
}
},
{
"Name": "Saint-Pierre",
"PostCode": "97448 CEDEX",
"Location": {
"Latitude": -21.3393,
"Longitude": 55.4781
}
},
{
"Name": "Saint-Pierre",
"PostCode": "97449 CEDEX",
"Location": {
"Latitude": -21.3393,
"Longitude": 55.4781
}
},
{
"Name": "Saint-Pierre",
"PostCode": "97451 CEDEX",
"Location": {
"Latitude": -21.3393,
"Longitude": 55.4781
}
},
{
"Name": "Saint-Pierre",
"PostCode": "97452 CEDEX",
"Location": {
"Latitude": -21.3393,
"Longitude": 55.4781
}
},
{
"Name": "Saint-Pierre",
"PostCode": "97453 CEDEX",
"Location": {
"Latitude": -21.3393,
"Longitude": 55.4781
}
},
{
"Name": "Saint-Pierre",
"PostCode": "97454 CEDEX",
"Location": {
"Latitude": -21.3393,
"Longitude": 55.4781
}
},
{
"Name": "Saint-Pierre",
"PostCode": "97455 CEDEX",
"Location": {
"Latitude": -21.3393,
"Longitude": 55.4781
}
},
{
"Name": "Saint-Pierre",
"PostCode": "97456 CEDEX",
"Location": {
"Latitude": -21.3393,
"Longitude": 55.4781
}
},
{
"Name": "Saint-Pierre",
"PostCode": "97457 CEDEX",
"Location": {
"Latitude": -21.3393,
"Longitude": 55.4781
}
},
{
"Name": "Saint-Pierre",
"PostCode": "97458 CEDEX",
"Location": {
"Latitude": -21.3393,
"Longitude": 55.4781
}
},
{
"Name": "Saint-Pierre",
"PostCode": "97459 CEDEX",
"Location": {
"Latitude": -21.3393,
"Longitude": 55.4781
}
},
{
"Name": "Saint-Pierre",
"PostCode": "97751 CEDEX",
"Location": {
"Latitude": -21.3393,
"Longitude": 55.4781
}
},
{
"Name": "Saint-Pierre",
"PostCode": "97851 CEDEX",
"Location": {
"Latitude": -21.3393,
"Longitude": 55.4781
}
},
{
"Name": "Saint-Pierre",
"PostCode": "97852 CEDEX",
"Location": {
"Latitude": -21.3393,
"Longitude": 55.4781
}
},
{
"Name": "Saint-Pierre",
"PostCode": "97853 CEDEX",
"Location": {
"Latitude": -21.3393,
"Longitude": 55.4781
}
}
]
},
{
"Name": "Arrondissement de Saint-Benoît",
"Code": "9743",
"Places": [
{
"Name": "Bras-Panon",
"PostCode": "97412",
"Location": {
"Latitude": -20.9967,
"Longitude": 55.6782
}
},
{
"Name": "La Plaine-des-Palmistes",
"PostCode": "97431",
"Location": {
"Latitude": -21.1167,
"Longitude": 55.6333
}
},
{
"Name": "Saint-André",
"PostCode": "97440",
"Location": {
"Latitude": -20.9633,
"Longitude": 55.6503
}
},
{
"Name": "Saint-Benoît",
"PostCode": "97437",
"Location": {
"Latitude": -21.038,
"Longitude": 55.7194
}
},
{
"Name": "Saint-Benoît",
"PostCode": "97470",
"Location": {
"Latitude": -21.038,
"Longitude": 55.7194
}
},
{
"Name": "Sainte-Rose",
"PostCode": "97439",
"Location": {
"Latitude": -21.1298,
"Longitude": 55.7963
}
},
{
"Name": "Salazie",
"PostCode": "97433",
"Location": {
"Latitude": -21.0273,
"Longitude": 55.539
}
}
]
},
{
"Name": "Arrondissement de Saint-Paul",
"Code": "9744",
"Places": [
{
"Name": "La Possession",
"PostCode": "97419",
"Location": {
"Latitude": -20.9289,
"Longitude": 55.3351
}
},
{
"Name": "Le Port",
"PostCode": "97420",
"Location": {
"Latitude": -20.9373,
"Longitude": 55.2919
}
},
{
"Name": "Le Port",
"PostCode": "97821 CEDEX",
"Location": {
"Latitude": -20.9373,
"Longitude": 55.2919
}
},
{
"Name": "Le Port",
"PostCode": "97822 CEDEX",
"Location": {
"Latitude": -20.9373,
"Longitude": 55.2919
}
},
{
"Name": "Le Port",
"PostCode": "97823 CEDEX",
"Location": {
"Latitude": -20.9373,
"Longitude": 55.2919
}
},
{
"Name": "Le Port",
"PostCode": "97824 CEDEX",
"Location": {
"Latitude": -20.9373,
"Longitude": 55.2919
}
},
{
"Name": "Le Port",
"PostCode": "97825 CEDEX",
"Location": {
"Latitude": -20.9373,
"Longitude": 55.2919
}
},
{
"Name": "Le Port",
"PostCode": "97826 CEDEX",
"Location": {
"Latitude": -20.9373,
"Longitude": 55.2919
}
},
{
"Name": "Le Port",
"PostCode": "97827 CEDEX",
"Location": {
"Latitude": -20.9373,
"Longitude": 55.2919
}
},
{
"Name": "Le Port",
"PostCode": "97828 CEDEX",
"Location": {
"Latitude": -20.9373,
"Longitude": 55.2919
}
},
{
"Name": "Le Port",
"PostCode": "97829 CEDEX",
"Location": {
"Latitude": -20.9373,
"Longitude": 55.2919
}
},
{
"Name": "Saint-Leu",
"PostCode": "97416",
"Location": {
"Latitude": -21.1706,
"Longitude": 55.2882
}
},
{
"Name": "Saint-Leu",
"PostCode": "97424",
"Location": {
"Latitude": -21.1706,
"Longitude": 55.2882
}
},
{
"Name": "Saint-Leu",
"PostCode": "97436",
"Location": {
"Latitude": -21.1706,
"Longitude": 55.2882
}
},
{
"Name": "Saint-Paul",
"PostCode": "97411",
"Location": {
"Latitude": -21.0096,
"Longitude": 55.2707
}
},
{
"Name": "Saint-Paul",
"PostCode": "97422",
"Location": {
"Latitude": -21.0096,
"Longitude": 55.2707
}
},
{
"Name": "Saint-Paul",
"PostCode": "97423",
"Location": {
"Latitude": -21.0096,
"Longitude": 55.2707
}
},
{
"Name": "Saint-Paul",
"PostCode": "97434",
"Location": {
"Latitude": -21.0096,
"Longitude": 55.2707
}
},
{
"Name": "Saint-Paul",
"PostCode": "97435",
"Location": {
"Latitude": -21.0096,
"Longitude": 55.2707
}
},
{
"Name": "Saint-Paul",
"PostCode": "97460",
"Location": {
"Latitude": -21.0096,
"Longitude": 55.2707
}
},
{
"Name": "Saint-Paul",
"PostCode": "97861 CEDEX",
"Location": {
"Latitude": -21.0096,
"Longitude": 55.2707
}
},
{
"Name": "Saint-Paul",
"PostCode": "97862 CEDEX",
"Location": {
"Latitude": -21.0096,
"Longitude": 55.2707
}
},
{
"Name": "Saint-Paul",
"PostCode": "97863 CEDEX",
"Location": {
"Latitude": -21.0096,
"Longitude": 55.2707
}
},
{
"Name": "Saint-Paul",
"PostCode": "97864 CEDEX",
"Location": {
"Latitude": -21.0096,
"Longitude": 55.2707
}
},
{
"Name": "Saint-Paul",
"PostCode": "97865 CEDEX",
"Location": {
"Latitude": -21.0096,
"Longitude": 55.2707
}
},
{
"Name": "Saint-Paul",
"PostCode": "97866 CEDEX",
"Location": {
"Latitude": -21.0096,
"Longitude": 55.2707
}
},
{
"Name": "Saint-Paul",
"PostCode": "97867 CEDEX",
"Location": {
"Latitude": -21.0096,
"Longitude": 55.2707
}
},
{
"Name": "Saint-Paul",
"PostCode": "97868 CEDEX",
"Location": {
"Latitude": -21.0096,
"Longitude": 55.2707
}
},
{
"Name": "Trois-Bassins",
"PostCode": "97426",
"Location": {
"Latitude": -21.1,
"Longitude": 55.3
}
}
]
}
]
}
]
}
]