[
{
"Name": "Artigas",
"Code": "01",
"Provinces": [
{
"Communities": [
{
"Places": [
{
"Name": "Artigas",
"PostCode": "55000",
"Location": {
"Latitude": -30.4,
"Longitude": -56.4667
}
},
{
"Name": "Baltasar Brum",
"PostCode": "55000",
"Location": {
"Latitude": -30.719,
"Longitude": -57.326
}
},
{
"Name": "Bella Union",
"PostCode": "55100",
"Location": {
"Latitude": -30.2597,
"Longitude": -57.5992
}
},
{
"Name": "Bernabe Rivera",
"PostCode": "55000",
"Location": {
"Latitude": -30.2979,
"Longitude": -56.9709
}
},
{
"Name": "Cainsa",
"PostCode": "55100",
"Location": {
"Latitude": -30.387,
"Longitude": -57.6151
}
},
{
"Name": "Cainza Campo 3",
"PostCode": "55100",
"Location": {
"Latitude": -30.3774,
"Longitude": -57.6178
}
},
{
"Name": "Calnu",
"PostCode": "55100",
"Location": {
"Latitude": -30.3774,
"Longitude": -57.6178
}
},
{
"Name": "Camaño",
"PostCode": "55000",
"Location": {
"Latitude": -30.5667,
"Longitude": -56.8833
}
},
{
"Name": "Catalan Grande",
"PostCode": "55000",
"Location": {
"Latitude": -30.5878,
"Longitude": -56.7362
}
},
{
"Name": "Catalan Volcan",
"PostCode": "55000",
"Location": {
"Latitude": -30.5878,
"Longitude": -56.7362
}
},
{
"Name": "Cerrito",
"PostCode": "55000",
"Location": {
"Latitude": -30.5878,
"Longitude": -56.7362
}
},
{
"Name": "Cerro Ejido",
"PostCode": "55000",
"Location": {
"Latitude": -30.4269,
"Longitude": -56.4656
}
},
{
"Name": "Cerro San Eugenio",
"PostCode": "55000",
"Location": {
"Latitude": -30.5878,
"Longitude": -56.7362
}
},
{
"Name": "Cerro Signorelli",
"PostCode": "55000",
"Location": {
"Latitude": -30.5878,
"Longitude": -56.7362
}
},
{
"Name": "Chiflero",
"PostCode": "55000",
"Location": {
"Latitude": -30.5878,
"Longitude": -56.7362
}
},
{
"Name": "Colonia España",
"PostCode": "55100",
"Location": {
"Latitude": -30.3645,
"Longitude": -57.6427
}
},
{
"Name": "Colonia Estrella",
"PostCode": "55100",
"Location": {
"Latitude": -30.3774,
"Longitude": -57.6178
}
},
{
"Name": "Colonia Jose Artigas",
"PostCode": "55000",
"Location": {
"Latitude": -30.5878,
"Longitude": -56.7362
}
},
{
"Name": "Colonia Palma",
"PostCode": "55100",
"Location": {
"Latitude": -30.5842,
"Longitude": -57.678
}
},
{
"Name": "Colonia Pintado",
"PostCode": "55000",
"Location": {
"Latitude": -30.5242,
"Longitude": -56.3527
}
},
{
"Name": "Colonia Viñar",
"PostCode": "55100",
"Location": {
"Latitude": -30.4675,
"Longitude": -57.6156
}
},
{
"Name": "Coronado",
"PostCode": "55100",
"Location": {
"Latitude": -30.2979,
"Longitude": -57.6112
}
},
{
"Name": "Cuareim",
"PostCode": "55100",
"Location": {
"Latitude": -30.2252,
"Longitude": -57.568
}
},
{
"Name": "Cuaro",
"PostCode": "55000",
"Location": {
"Latitude": -30.6097,
"Longitude": -56.9077
}
},
{
"Name": "Diego Lamas",
"PostCode": "55000",
"Location": {
"Latitude": -30.7499,
"Longitude": -57.0569
}
},
{
"Name": "Estiba",
"PostCode": "55000",
"Location": {
"Latitude": -30.5878,
"Longitude": -56.7362
}
},
{
"Name": "Fagundez",
"PostCode": "55000",
"Location": {
"Latitude": -30.6989,
"Longitude": -56.5847
}
},
{
"Name": "Franquia",
"PostCode": "55100",
"Location": {
"Latitude": -30.214,
"Longitude": -57.6131
}
},
{
"Name": "Guyubira",
"PostCode": "55000",
"Location": {
"Latitude": -30.5878,
"Longitude": -56.7362
}
},
{
"Name": "Javier De Viana",
"PostCode": "55000",
"Location": {
"Latitude": -30.4331,
"Longitude": -56.7849
}
},
{
"Name": "La Bolsa",
"PostCode": "55000",
"Location": {
"Latitude": -30.8509,
"Longitude": -56.3398
}
},
{
"Name": "Las Piedras",
"PostCode": "55100",
"Location": {
"Latitude": -30.262,
"Longitude": -57.5817
}
},
{
"Name": "Lenguazo",
"PostCode": "55100",
"Location": {
"Latitude": -30.3774,
"Longitude": -57.6178
}
},
{
"Name": "Limite Contestado",
"PostCode": "40200",
"Location": {
"Latitude": -31.0812,
"Longitude": -56.0045
}
},
{
"Name": "Meneses",
"PostCode": "55000",
"Location": {
"Latitude": -30.5878,
"Longitude": -56.7362
}
},
{
"Name": "Mones Quintela",
"PostCode": "55100",
"Location": {
"Latitude": -30.3737,
"Longitude": -57.6638
}
},
{
"Name": "Paguero",
"PostCode": "55000",
"Location": {
"Latitude": -30.6374,
"Longitude": -56.7686
}
},
{
"Name": "Palma Sola",
"PostCode": "55000",
"Location": {
"Latitude": -30.6833,
"Longitude": -57.5167
}
},
{
"Name": "Paredon",
"PostCode": "55100",
"Location": {
"Latitude": -30.6648,
"Longitude": -57.7889
}
},
{
"Name": "Paso Campamento",
"PostCode": "55000",
"Location": {
"Latitude": -30.789,
"Longitude": -56.7818
}
},
{
"Name": "Paso De La Cruz",
"PostCode": "55100",
"Location": {
"Latitude": -30.3774,
"Longitude": -57.6178
}
},
{
"Name": "Paso De Leon",
"PostCode": "55000",
"Location": {
"Latitude": -30.127,
"Longitude": -57.0882
}
},
{
"Name": "Paso De Ramos",
"PostCode": "55000",
"Location": {
"Latitude": -30.5878,
"Longitude": -56.7362
}
},
{
"Name": "Paso Farias",
"PostCode": "55000",
"Location": {
"Latitude": -30.5878,
"Longitude": -56.7362
}
},
{
"Name": "Patitas",
"PostCode": "55000",
"Location": {
"Latitude": -30.9074,
"Longitude": -57.1896
}
},
{
"Name": "Piedra Pintada",
"PostCode": "55000",
"Location": {
"Latitude": -30.5242,
"Longitude": -56.3527
}
},
{
"Name": "Pintadito",
"PostCode": "55000",
"Location": {
"Latitude": -30.4322,
"Longitude": -56.4568
}
},
{
"Name": "Pintado",
"PostCode": "55000",
"Location": {
"Latitude": -30.5878,
"Longitude": -56.7362
}
},
{
"Name": "Pintado Grande",
"PostCode": "55000",
"Location": {
"Latitude": -30.5158,
"Longitude": -56.423
}
},
{
"Name": "Port. De Hierro Y Campodonico",
"PostCode": "55100",
"Location": {
"Latitude": -30.3774,
"Longitude": -57.6178
}
},
{
"Name": "Rincon De Pacheco",
"PostCode": "55000",
"Location": {
"Latitude": -30.7054,
"Longitude": -56.1626
}
},
{
"Name": "Sarandi De Cuaro",
"PostCode": "55000",
"Location": {
"Latitude": -30.8742,
"Longitude": -56.6598
}
},
{
"Name": "Sarandi De Yacuy",
"PostCode": "50200",
"Location": {
"Latitude": -30.741,
"Longitude": -57.6296
}
},
{
"Name": "Sequeira",
"PostCode": "55000",
"Location": {
"Latitude": -30.9892,
"Longitude": -56.8704
}
},
{
"Name": "Tamandua",
"PostCode": "55000",
"Location": {
"Latitude": -30.4643,
"Longitude": -56.507
}
},
{
"Name": "Taruman",
"PostCode": "55000",
"Location": {
"Latitude": -30.4736,
"Longitude": -56.6677
}
},
{
"Name": "Tomas Gomensoro",
"PostCode": "55100",
"Location": {
"Latitude": -30.4287,
"Longitude": -57.4361
}
},
{
"Name": "Topador",
"PostCode": "55000",
"Location": {
"Latitude": -30.2946,
"Longitude": -56.8218
}
},
{
"Name": "Zanja Aruera",
"PostCode": "55000",
"Location": {
"Latitude": -30.5878,
"Longitude": -56.7362
}
}
]
}
]
}
]
},
{
"Name": "Canelones",
"Code": "02",
"Provinces": [
{
"Communities": [
{
"Places": [
{
"Name": "Aeropuerto Internacional De Carrasco",
"PostCode": "15000",
"Location": {
"Latitude": -34.8475,
"Longitude": -56.01
}
},
{
"Name": "Aguas Corrientes",
"PostCode": "90200",
"Location": {
"Latitude": -34.5219,
"Longitude": -56.3936
}
},
{
"Name": "Altos De La Tahona",
"PostCode": "15800",
"Location": {
"Latitude": -34.8093,
"Longitude": -55.9299
}
},
{
"Name": "Araminda",
"PostCode": "15400",
"Location": {
"Latitude": -34.7739,
"Longitude": -55.5164
}
},
{
"Name": "Arenal",
"PostCode": "91200",
"Location": {
"Latitude": -34.45,
"Longitude": -55.7833
}
},
{
"Name": "Argentino",
"PostCode": "15400",
"Location": {
"Latitude": -34.7927,
"Longitude": -55.4544
}
},
{
"Name": "Atlantida",
"PostCode": "15200",
"Location": {
"Latitude": -34.7719,
"Longitude": -55.7584
}
},
{
"Name": "B.H.U.",
"PostCode": "15400",
"Location": {
"Latitude": -34.7739,
"Longitude": -55.5164
}
},
{
"Name": "Barra De Carrasco",
"PostCode": "15000",
"Location": {
"Latitude": -34.8772,
"Longitude": -56.0297
}
},
{
"Name": "Barra De La Pedrera",
"PostCode": "91600",
"Location": {
"Latitude": -34.443,
"Longitude": -55.8919
}
},
{
"Name": "Barra Del Tala",
"PostCode": "91300",
"Location": {
"Latitude": -34.4468,
"Longitude": -56.1144
}
},
{
"Name": "Barrancas Coloradas",
"PostCode": "90100",
"Location": {
"Latitude": -34.2417,
"Longitude": -57.2209
}
},
{
"Name": "Barrio Artigas",
"PostCode": "15700",
"Location": {
"Latitude": -31.3875,
"Longitude": -57.8996
}
},
{
"Name": "Barrio Benzo",
"PostCode": "15700",
"Location": {
"Latitude": -33.6142,
"Longitude": -56.6893
}
},
{
"Name": "Barrio Copola",
"PostCode": "15900",
"Location": {
"Latitude": -34.6893,
"Longitude": -56.1804
}
},
{
"Name": "Barrio Del Libertador",
"PostCode": "91500",
"Location": {
"Latitude": -34.6279,
"Longitude": -55.8182
}
},
{
"Name": "Barrio La Lucha",
"PostCode": "15900",
"Location": {
"Latitude": -34.6893,
"Longitude": -56.1804
}
},
{
"Name": "Barrio Los Panoramas",
"PostCode": "15700",
"Location": {
"Latitude": -33.6142,
"Longitude": -56.6893
}
},
{
"Name": "Barrio Obrero",
"PostCode": "15000",
"Location": {
"Latitude": -34.8475,
"Longitude": -56.01
}
},
{
"Name": "Barrio Pretti",
"PostCode": "15700",
"Location": {
"Latitude": -33.6142,
"Longitude": -56.6893
}
},
{
"Name": "Barrio Remanso",
"PostCode": "15900",
"Location": {
"Latitude": -34.6893,
"Longitude": -56.1804
}
},
{
"Name": "Barrio San Cristobal",
"PostCode": "15800",
"Location": {
"Latitude": -34.8093,
"Longitude": -55.9299
}
},
{
"Name": "Barrio Santa Rita",
"PostCode": "15700",
"Location": {
"Latitude": -33.6142,
"Longitude": -56.6893
}
},
{
"Name": "Barrio Traverso",
"PostCode": "15700",
"Location": {
"Latitude": -33.6142,
"Longitude": -56.6893
}
},
{
"Name": "Barrio Villa Murcia",
"PostCode": "15700",
"Location": {
"Latitude": -33.6142,
"Longitude": -56.6893
}
},
{
"Name": "Bello Horizonte",
"PostCode": "15300",
"Location": {
"Latitude": -34.771,
"Longitude": -55.6407
}
},
{
"Name": "Biarritz",
"PostCode": "15400",
"Location": {
"Latitude": -34.7919,
"Longitude": -55.5139
}
},
{
"Name": "Blanco",
"PostCode": "91500",
"Location": {
"Latitude": -34.6279,
"Longitude": -55.8182
}
},
{
"Name": "Bolivar",
"PostCode": "96200",
"Location": {
"Latitude": -34.2224,
"Longitude": -55.7296
}
},
{
"Name": "Camino De La Cadena",
"PostCode": "90000",
"Location": {
"Latitude": -34.4363,
"Longitude": -56.3783
}
},
{
"Name": "Camino Dodera",
"PostCode": "15900",
"Location": {
"Latitude": -34.6893,
"Longitude": -56.1804
}
},
{
"Name": "Camino Lloveras",
"PostCode": "90100",
"Location": {
"Latitude": -34.5991,
"Longitude": -56.4762
}
},
{
"Name": "Campo Militar",
"PostCode": "90100",
"Location": {
"Latitude": -34.5991,
"Longitude": -56.4762
}
},
{
"Name": "Cañada Cardozo",
"PostCode": "91300",
"Location": {
"Latitude": -34.4468,
"Longitude": -56.1144
}
},
{
"Name": "Cañada De Montaño",
"PostCode": "90200",
"Location": {
"Latitude": -34.2746,
"Longitude": -56.1122
}
},
{
"Name": "Cañada Grande",
"PostCode": "15600",
"Location": {
"Latitude": -34.6696,
"Longitude": -55.9654
}
},
{
"Name": "Cañada Prudencio",
"PostCode": "91100",
"Location": {
"Latitude": -34.2916,
"Longitude": -55.9557
}
},
{
"Name": "Canelon Chico",
"PostCode": "90000",
"Location": {
"Latitude": -34.4363,
"Longitude": -56.3783
}
},
{
"Name": "Canelon Chico Al Centro",
"PostCode": "15900",
"Location": {
"Latitude": -34.6893,
"Longitude": -56.1804
}
},
{
"Name": "Canelon Chico De Progreso",
"PostCode": "15900",
"Location": {
"Latitude": -34.6893,
"Longitude": -56.1804
}
},
{
"Name": "Canelon Grande",
"PostCode": "91400",
"Location": {
"Latitude": -34.5206,
"Longitude": -56.049
}
},
{
"Name": "Canelon Grande De Pacheco",
"PostCode": "90000",
"Location": {
"Latitude": -34.4363,
"Longitude": -56.3783
}
},
{
"Name": "Canelon Grande Norte",
"PostCode": "91300",
"Location": {
"Latitude": -34.4468,
"Longitude": -56.1144
}
},
{
"Name": "Canelones",
"PostCode": "90000",
"Location": {
"Latitude": -34.5228,
"Longitude": -56.2778
}
},
{
"Name": "Capilla De Cella",
"PostCode": "15400",
"Location": {
"Latitude": -34.6989,
"Longitude": -55.5189
}
},
{
"Name": "Capitan Juan Antonio Artigas",
"PostCode": "15500",
"Location": {
"Latitude": -34.7631,
"Longitude": -56.0152
}
},
{
"Name": "Carmel",
"PostCode": "15800",
"Location": {
"Latitude": -34.8093,
"Longitude": -55.9299
}
},
{
"Name": "Carrasco Del Sauce",
"PostCode": "91500",
"Location": {
"Latitude": -34.6279,
"Longitude": -55.8182
}
},
{
"Name": "Casarino",
"PostCode": "15700",
"Location": {
"Latitude": -33.6142,
"Longitude": -56.6893
}
},
{
"Name": "Cerrillos Al Oeste",
"PostCode": "90100",
"Location": {
"Latitude": -34.5991,
"Longitude": -56.4762
}
},
{
"Name": "Cerrillos Al Sur",
"PostCode": "90100",
"Location": {
"Latitude": -34.6369,
"Longitude": -56.3561
}
},
{
"Name": "City Golf",
"PostCode": "15200",
"Location": {
"Latitude": -34.7624,
"Longitude": -55.759
}
},
{
"Name": "Ciudad De La Costa",
"PostCode": "15800",
"Location": {
"Latitude": -34.8197,
"Longitude": -55.952
}
},
{
"Name": "Cochengo",
"PostCode": "91600",
"Location": {
"Latitude": -34.443,
"Longitude": -55.8919
}
},
{
"Name": "Colinas De Carrasco",
"PostCode": "15500",
"Location": {
"Latitude": -34.7631,
"Longitude": -56.0152
}
},
{
"Name": "Colinas De Solymar",
"PostCode": "15800",
"Location": {
"Latitude": -34.7937,
"Longitude": -55.9144
}
},
{
"Name": "Colonia Nicolich",
"PostCode": "15000",
"Location": {
"Latitude": -34.8152,
"Longitude": -56.0244
}
},
{
"Name": "Colonia Treinta Y Tres Orientales",
"PostCode": "96100",
"Location": {
"Latitude": -34.2413,
"Longitude": -55.9167
}
},
{
"Name": "Colorado Chico",
"PostCode": "15900",
"Location": {
"Latitude": -34.6893,
"Longitude": -56.1804
}
},
{
"Name": "Colorado Y Brujas",
"PostCode": "90100",
"Location": {
"Latitude": -34.5991,
"Longitude": -56.4762
}
},
{
"Name": "Costa Azul",
"PostCode": "15300",
"Location": {
"Latitude": -34.7618,
"Longitude": -55.6585
}
},
{
"Name": "Costa De Pando",
"PostCode": "91600",
"Location": {
"Latitude": -34.5669,
"Longitude": -55.9792
}
},
{
"Name": "Costa De Pando Olmos",
"PostCode": "15600",
"Location": {
"Latitude": -34.6696,
"Longitude": -55.9654
}
},
{
"Name": "Costa De Pando San Bautista",
"PostCode": "91200",
"Location": {
"Latitude": -34.3427,
"Longitude": -56.5138
}
},
{
"Name": "Costa De Pando San Jacinto",
"PostCode": "91400",
"Location": {
"Latitude": -34.5206,
"Longitude": -56.049
}
},
{
"Name": "Costa Del Pantanoso",
"PostCode": "91400",
"Location": {
"Latitude": -34.5206,
"Longitude": -56.049
}
},
{
"Name": "Costa Del Sauce",
"PostCode": "91500",
"Location": {
"Latitude": -34.6279,
"Longitude": -55.8182
}
},
{
"Name": "Costa Del Tala Este",
"PostCode": "91200",
"Location": {
"Latitude": -34.3427,
"Longitude": -56.5138
}
},
{
"Name": "Costa Del Tala Norte",
"PostCode": "91100",
"Location": {
"Latitude": -34.2916,
"Longitude": -55.9557
}
},
{
"Name": "Costa Y Guillamon",
"PostCode": "15900",
"Location": {
"Latitude": -34.6893,
"Longitude": -56.1804
}
},
{
"Name": "Costas De Pedernal",
"PostCode": "91800",
"Location": {
"Latitude": -34.0933,
"Longitude": -55.907
}
},
{
"Name": "Costas De Santa Lucia",
"PostCode": "96200",
"Location": {
"Latitude": -34.2081,
"Longitude": -55.732
}
},
{
"Name": "Costas De Solis",
"PostCode": "91600",
"Location": {
"Latitude": -34.443,
"Longitude": -55.8919
}
},
{
"Name": "Costas Del Colorado",
"PostCode": "91300",
"Location": {
"Latitude": -34.4468,
"Longitude": -56.1144
}
},
{
"Name": "Costas Del Colorado Este",
"PostCode": "91200",
"Location": {
"Latitude": -34.3427,
"Longitude": -56.5138
}
},
{
"Name": "Costas Del Tala",
"PostCode": "91300",
"Location": {
"Latitude": -34.4468,
"Longitude": -56.1144
}
},
{
"Name": "Cruz De Los Caminos",
"PostCode": "91500",
"Location": {
"Latitude": -34.6346,
"Longitude": -55.9629
}
},
{
"Name": "Cuchilla Alta",
"PostCode": "15400",
"Location": {
"Latitude": -34.791,
"Longitude": -55.4992
}
},
{
"Name": "Cuchilla Alta Y El Galeon",
"PostCode": "15400",
"Location": {
"Latitude": -34.7739,
"Longitude": -55.5164
}
},
{
"Name": "Cuchilla Cabo De Hornos",
"PostCode": "91700",
"Location": {
"Latitude": -34.4867,
"Longitude": -55.6259
}
},
{
"Name": "Cuchilla De Machin",
"PostCode": "91500",
"Location": {
"Latitude": -34.6279,
"Longitude": -55.8182
}
},
{
"Name": "Cuchilla De Rocha",
"PostCode": "91500",
"Location": {
"Latitude": -34.6708,
"Longitude": -54.423
}
},
{
"Name": "Cuchilla De Sierra",
"PostCode": "15900",
"Location": {
"Latitude": -34.6893,
"Longitude": -56.1804
}
},
{
"Name": "Cuchilla De Zeballos",
"PostCode": "91700",
"Location": {
"Latitude": -34.4867,
"Longitude": -55.6259
}
},
{
"Name": "Cuchilla Verde",
"PostCode": "90200",
"Location": {
"Latitude": -34.2746,
"Longitude": -56.1122
}
},
{
"Name": "Cueva Del Tigre",
"PostCode": "15600",
"Location": {
"Latitude": -34.6696,
"Longitude": -55.9654
}
},
{
"Name": "Cumbres De Carrasco",
"PostCode": "15500",
"Location": {
"Latitude": -34.7631,
"Longitude": -56.0152
}
},
{
"Name": "Dr. Francisco Soca",
"PostCode": "15600",
"Location": {
"Latitude": -34.6843,
"Longitude": -55.702
}
},
{
"Name": "Echevarria",
"PostCode": "90000",
"Location": {
"Latitude": -34.5333,
"Longitude": -56.3167
}
},
{
"Name": "El Bosque",
"PostCode": "15000",
"Location": {
"Latitude": -34.8378,
"Longitude": -55.9731
}
},
{
"Name": "El Bosque De Solymar",
"PostCode": "15800",
"Location": {
"Latitude": -34.8093,
"Longitude": -55.9299
}
},
{
"Name": "El Colorado",
"PostCode": "15900",
"Location": {
"Latitude": -34.6893,
"Longitude": -56.1804
}
},
{
"Name": "El Colorado De Migues",
"PostCode": "91700",
"Location": {
"Latitude": -34.4867,
"Longitude": -55.6259
}
},
{
"Name": "El Colorado San Bautista",
"PostCode": "91200",
"Location": {
"Latitude": -34.3427,
"Longitude": -56.5138
}
},
{
"Name": "El Cuadro",
"PostCode": "91200",
"Location": {
"Latitude": -34.138,
"Longitude": -57.7995
}
},
{
"Name": "El Dorado",
"PostCode": "15900",
"Location": {
"Latitude": -34.6983,
"Longitude": -56.2175
}
},
{
"Name": "El Galeon",
"PostCode": "15400",
"Location": {
"Latitude": -34.7739,
"Longitude": -55.5164
}
},
{
"Name": "El Pinar",
"PostCode": "15800",
"Location": {
"Latitude": -34.7948,
"Longitude": -55.8895
}
},
{
"Name": "Empalme Dogliotti",
"PostCode": "90000",
"Location": {
"Latitude": -34.4363,
"Longitude": -56.3783
}
},
{
"Name": "Empalme Nicolich",
"PostCode": "15000",
"Location": {
"Latitude": -34.8475,
"Longitude": -56.01
}
},
{
"Name": "Empalme Olmos",
"PostCode": "15600",
"Location": {
"Latitude": -34.6975,
"Longitude": -55.8927
}
},
{
"Name": "Empalme Sauce",
"PostCode": "91500",
"Location": {
"Latitude": -34.7153,
"Longitude": -56.0733
}
},
{
"Name": "Esquina Gonzalez",
"PostCode": "90100",
"Location": {
"Latitude": -34.5991,
"Longitude": -56.4762
}
},
{
"Name": "Estacion Atlantida",
"PostCode": "15200",
"Location": {
"Latitude": -34.7448,
"Longitude": -55.7642
}
},
{
"Name": "Estacion La Floresta",
"PostCode": "15300",
"Location": {
"Latitude": -34.7347,
"Longitude": -55.6856
}
},
{
"Name": "Estacion Migues",
"PostCode": "91700",
"Location": {
"Latitude": -34.5243,
"Longitude": -55.6251
}
},
{
"Name": "Estacion Pedrera",
"PostCode": "91600",
"Location": {
"Latitude": -34.6103,
"Longitude": -55.8153
}
},
{
"Name": "Estacion Piedras De Afilar",
"PostCode": "15400",
"Location": {
"Latitude": -34.7739,
"Longitude": -55.5164
}
},
{
"Name": "Estacion Tapia",
"PostCode": "91600",
"Location": {
"Latitude": -34.5677,
"Longitude": -55.7511
}
},
{
"Name": "Estanque De Pando",
"PostCode": "15600",
"Location": {
"Latitude": -34.7013,
"Longitude": -55.9645
}
},
{
"Name": "Feliciano",
"PostCode": "91800",
"Location": {
"Latitude": -33.1828,
"Longitude": -56.8117
}
},
{
"Name": "Fortin De Santa Rosa",
"PostCode": "15100",
"Location": {
"Latitude": -34.7708,
"Longitude": -55.8081
}
},
{
"Name": "Fracc Sobre Ruta 74",
"PostCode": "15500",
"Location": {
"Latitude": -34.7631,
"Longitude": -56.0152
}
},
{
"Name": "Fracc. Cno. Andaluz Y R.84",
"PostCode": "15700",
"Location": {
"Latitude": -33.6142,
"Longitude": -56.6893
}
},
{
"Name": "Fracc. Progreso",
"PostCode": "15900",
"Location": {
"Latitude": -34.6893,
"Longitude": -56.1804
}
},
{
"Name": "Guazuvira",
"PostCode": "15300",
"Location": {
"Latitude": -34.7407,
"Longitude": -55.7028
}
},
{
"Name": "Guazuvira Nuevo",
"PostCode": "15300",
"Location": {
"Latitude": -34.7407,
"Longitude": -55.7028
}
},
{
"Name": "Haras Del Lago",
"PostCode": "15800",
"Location": {
"Latitude": -34.8093,
"Longitude": -55.9299
}
},
{
"Name": "Instituto Adventista",
"PostCode": "15900",
"Location": {
"Latitude": -34.6893,
"Longitude": -56.1804
}
},
{
"Name": "Jardines De Pando",
"PostCode": "15600",
"Location": {
"Latitude": -34.6861,
"Longitude": -55.9656
}
},
{
"Name": "Jaureguiberry",
"PostCode": "15400",
"Location": {
"Latitude": -34.7862,
"Longitude": -55.4247
}
},
{
"Name": "Joaquin Suarez",
"PostCode": "15500",
"Location": {
"Latitude": -34.735,
"Longitude": -56.0347
}
},
{
"Name": "Juanico",
"PostCode": "90000",
"Location": {
"Latitude": -34.5945,
"Longitude": -56.2533
}
},
{
"Name": "La Asuncion",
"PostCode": "15800",
"Location": {
"Latitude": -34.8093,
"Longitude": -55.9299
}
},
{
"Name": "La Chinchilla",
"PostCode": "15200",
"Location": {
"Latitude": -34.7624,
"Longitude": -55.759
}
},
{
"Name": "La Floresta",
"PostCode": "15300",
"Location": {
"Latitude": -34.7557,
"Longitude": -55.681399999999996
}
},
{
"Name": "La Montañesa",
"PostCode": "15600",
"Location": {
"Latitude": -34.72,
"Longitude": -55.8797
}
},
{
"Name": "La Palmita",
"PostCode": "15600",
"Location": {
"Latitude": -34.6895,
"Longitude": -55.8023
}
},
{
"Name": "La Paloma",
"PostCode": "90000",
"Location": {
"Latitude": -34.4883,
"Longitude": -56.1521
}
},
{
"Name": "La Paz",
"PostCode": "15900",
"Location": {
"Latitude": -34.7603,
"Longitude": -56.2259
}
},
{
"Name": "La Totora",
"PostCode": "91700",
"Location": {
"Latitude": -34.4867,
"Longitude": -55.6259
}
},
{
"Name": "La Tuna",
"PostCode": "15400",
"Location": {
"Latitude": -34.7802,
"Longitude": -55.5648
}
},
{
"Name": "Lago Jardin Del Bosque",
"PostCode": "15000",
"Location": {
"Latitude": -34.8475,
"Longitude": -56.01
}
},
{
"Name": "Lagomar",
"PostCode": "15000",
"Location": {
"Latitude": -34.8377,
"Longitude": -55.9832
}
},
{
"Name": "Las Brujas",
"PostCode": "90100",
"Location": {
"Latitude": -34.6333,
"Longitude": -56.3333
}
},
{
"Name": "Las Higueritas",
"PostCode": "15800",
"Location": {
"Latitude": -34.8093,
"Longitude": -55.9299
}
},
{
"Name": "Las Piedras",
"PostCode": "15900",
"Location": {
"Latitude": -34.7302,
"Longitude": -56.2192
}
},
{
"Name": "Las Ranas",
"PostCode": "15600",
"Location": {
"Latitude": -34.6696,
"Longitude": -55.9654
}
},
{
"Name": "Las Toscas",
"PostCode": "15200",
"Location": {
"Latitude": -34.7646,
"Longitude": -55.7379
}
},
{
"Name": "Las Vegas",
"PostCode": "15300",
"Location": {
"Latitude": -34.6626,
"Longitude": -55.8298
}
},
{
"Name": "Las Violetas",
"PostCode": "90000",
"Location": {
"Latitude": -33.6,
"Longitude": -57.1333
}
},
{
"Name": "Lomas De Carrasco",
"PostCode": "15800",
"Location": {
"Latitude": -34.8093,
"Longitude": -55.9299
}
},
{
"Name": "Lomas De Solymar",
"PostCode": "15800",
"Location": {
"Latitude": -34.8093,
"Longitude": -55.9299
}
},
{
"Name": "Lomas De Toledo",
"PostCode": "15700",
"Location": {
"Latitude": -33.6142,
"Longitude": -56.6893
}
},
{
"Name": "Los Ceibos",
"PostCode": "90200",
"Location": {
"Latitude": -33.1821,
"Longitude": -54.2256
}
},
{
"Name": "Los Cerrillos",
"PostCode": "90100",
"Location": {
"Latitude": -34.605,
"Longitude": -56.3564
}
},
{
"Name": "Los Hornos",
"PostCode": "15700",
"Location": {
"Latitude": -33.6142,
"Longitude": -56.6893
}
},
{
"Name": "Los Titanes",
"PostCode": "15400",
"Location": {
"Latitude": -34.7768,
"Longitude": -55.5756
}
},
{
"Name": "Macana",
"PostCode": "91800",
"Location": {
"Latitude": -34.05,
"Longitude": -56.2
}
},
{
"Name": "Margat",
"PostCode": "90200",
"Location": {
"Latitude": -34.2746,
"Longitude": -56.1122
}
},
{
"Name": "Marindia",
"PostCode": "15100",
"Location": {
"Latitude": -34.7743,
"Longitude": -55.8241
}
},
{
"Name": "Mata Siete",
"PostCode": "91500",
"Location": {
"Latitude": -34.6279,
"Longitude": -55.8182
}
},
{
"Name": "Mataojo",
"PostCode": "90000",
"Location": {
"Latitude": -34.5,
"Longitude": -56.3833
}
},
{
"Name": "Medanos De Solymar",
"PostCode": "15800",
"Location": {
"Latitude": -34.8093,
"Longitude": -55.9299
}
},
{
"Name": "Melgarejo",
"PostCode": "90000",
"Location": {
"Latitude": -34.4363,
"Longitude": -56.3783
}
},
{
"Name": "Melilla",
"PostCode": "90100",
"Location": {
"Latitude": -34.7577,
"Longitude": -56.2907
}
},
{
"Name": "Migues",
"PostCode": "91700",
"Location": {
"Latitude": -34.4876,
"Longitude": -55.6279
}
},
{
"Name": "Montes",
"PostCode": "91700",
"Location": {
"Latitude": -34.4934,
"Longitude": -55.5622
}
},
{
"Name": "Montes De Solymar",
"PostCode": "15800",
"Location": {
"Latitude": -34.8093,
"Longitude": -55.9299
}
},
{
"Name": "Murialdo",
"PostCode": "90000",
"Location": {
"Latitude": -34.4363,
"Longitude": -56.3783
}
},
{
"Name": "Nataly",
"PostCode": "15700",
"Location": {
"Latitude": -33.6142,
"Longitude": -56.6893
}
},
{
"Name": "Neptunia",
"PostCode": "15100",
"Location": {
"Latitude": -34.7884,
"Longitude": -55.88
}
},
{
"Name": "Nutrias",
"PostCode": "91800",
"Location": {
"Latitude": -34.0933,
"Longitude": -55.907
}
},
{
"Name": "Olmos",
"PostCode": "15600",
"Location": {
"Latitude": -34.6975,
"Longitude": -55.8927
}
},
{
"Name": "Pando",
"PostCode": "15600",
"Location": {
"Latitude": -34.7172,
"Longitude": -55.9584
}
},
{
"Name": "Pantanoso",
"PostCode": "91500",
"Location": {
"Latitude": -34.5429,
"Longitude": -56.0601
}
},
{
"Name": "Pantanoso Del Sauce",
"PostCode": "91500",
"Location": {
"Latitude": -34.6279,
"Longitude": -55.8182
}
},
{
"Name": "Parada Cabrera",
"PostCode": "15900",
"Location": {
"Latitude": -34.6238,
"Longitude": -56.2545
}
},
{
"Name": "Parador Tajes",
"PostCode": "90100",
"Location": {
"Latitude": -34.6085,
"Longitude": -56.4673
}
},
{
"Name": "Parque Carrasco",
"PostCode": "15000",
"Location": {
"Latitude": -34.8581,
"Longitude": -56.0092
}
},
{
"Name": "Parque De Solymar",
"PostCode": "15800",
"Location": {
"Latitude": -34.8093,
"Longitude": -55.9299
}
},
{
"Name": "Parque Del Plata",
"PostCode": "15300",
"Location": {
"Latitude": -34.7587,
"Longitude": -55.7208
}
},
{
"Name": "Parque Miramar",
"PostCode": "15000",
"Location": {
"Latitude": -34.8475,
"Longitude": -56.01
}
},
{
"Name": "Paso Carrasco",
"PostCode": "15000",
"Location": {
"Latitude": -34.8603,
"Longitude": -56.0522
}
},
{
"Name": "Paso De Cuello",
"PostCode": "90000",
"Location": {
"Latitude": -34.4363,
"Longitude": -56.3783
}
},
{
"Name": "Paso De La Cadena",
"PostCode": "91300",
"Location": {
"Latitude": -34.4423,
"Longitude": -56.1484
}
},
{
"Name": "Paso De La Paloma",
"PostCode": "91400",
"Location": {
"Latitude": -34.5206,
"Longitude": -56.049
}
},
{
"Name": "Paso De La Salamanca",
"PostCode": "91800",
"Location": {
"Latitude": -34.0933,
"Longitude": -55.907
}
},
{
"Name": "Paso De Las Toscas",
"PostCode": "90000",
"Location": {
"Latitude": -34.6717,
"Longitude": -56.3541
}
},
{
"Name": "Paso De Los Alamos",
"PostCode": "90200",
"Location": {
"Latitude": -34.2746,
"Longitude": -56.1122
}
},
{
"Name": "Paso De Los Difuntos",
"PostCode": "91200",
"Location": {
"Latitude": -34.3427,
"Longitude": -56.5138
}
},
{
"Name": "Paso De Los Francos",
"PostCode": "90200",
"Location": {
"Latitude": -34.2746,
"Longitude": -56.1122
}
},
{
"Name": "Paso De Pache",
"PostCode": "90200",
"Location": {
"Latitude": -34.3991,
"Longitude": -56.2816
}
},
{
"Name": "Paso Del Bote",
"PostCode": "90100",
"Location": {
"Latitude": -34.621,
"Longitude": -56.4516
}
},
{
"Name": "Paso Del Colorado",
"PostCode": "15900",
"Location": {
"Latitude": -34.6893,
"Longitude": -56.1804
}
},
{
"Name": "Paso Del Medio",
"PostCode": "90000",
"Location": {
"Latitude": -34.4363,
"Longitude": -56.3783
}
},
{
"Name": "Paso Del Sordo",
"PostCode": "90200",
"Location": {
"Latitude": -34.2746,
"Longitude": -56.1122
}
},
{
"Name": "Paso Espinosa",
"PostCode": "90000",
"Location": {
"Latitude": -34.4943,
"Longitude": -56.2792
}
},
{
"Name": "Paso Palomeque",
"PostCode": "90000",
"Location": {
"Latitude": -34.5221,
"Longitude": -56.2546
}
},
{
"Name": "Paso Rivero De Vejigas",
"PostCode": "91800",
"Location": {
"Latitude": -34.0933,
"Longitude": -55.907
}
},
{
"Name": "Pedernal",
"PostCode": "91800",
"Location": {
"Latitude": -34.3667,
"Longitude": -55.7833
}
},
{
"Name": "Pedernal Chico",
"PostCode": "91800",
"Location": {
"Latitude": -34.0933,
"Longitude": -55.907
}
},
{
"Name": "Pedernal Grande",
"PostCode": "91700",
"Location": {
"Latitude": -34.4867,
"Longitude": -55.6259
}
},
{
"Name": "Piedra Del Toro",
"PostCode": "15600",
"Location": {
"Latitude": -34.6947,
"Longitude": -55.8571
}
},
{
"Name": "Piedra Sola",
"PostCode": "91600",
"Location": {
"Latitude": -34.443,
"Longitude": -55.8919
}
},
{
"Name": "Piedras De Afilar",
"PostCode": "15400",
"Location": {
"Latitude": -34.7419,
"Longitude": -55.5189
}
},
{
"Name": "Piedritas",
"PostCode": "91800",
"Location": {
"Latitude": -34.3333,
"Longitude": -55.65
}
},
{
"Name": "Piedritas De Suarez",
"PostCode": "15600",
"Location": {
"Latitude": -34.6696,
"Longitude": -55.9654
}
},
{
"Name": "Pinamar",
"PostCode": "15100",
"Location": {
"Latitude": -34.7869,
"Longitude": -55.8588
}
},
{
"Name": "Pinamar Y Pinepark",
"PostCode": "15100",
"Location": {
"Latitude": -34.7796,
"Longitude": -55.8421
}
},
{
"Name": "Pinares De Solymar",
"PostCode": "15800",
"Location": {
"Latitude": -34.8093,
"Longitude": -55.9299
}
},
{
"Name": "Pine Park",
"PostCode": "15100",
"Location": {
"Latitude": -34.7796,
"Longitude": -55.8421
}
},
{
"Name": "Ponce Mata Siete",
"PostCode": "91500",
"Location": {
"Latitude": -34.6279,
"Longitude": -55.8182
}
},
{
"Name": "Poquitos",
"PostCode": "15900",
"Location": {
"Latitude": -34.6893,
"Longitude": -56.1804
}
},
{
"Name": "Progreso",
"PostCode": "15900",
"Location": {
"Latitude": -34.6674,
"Longitude": -56.2176
}
},
{
"Name": "Pueblo Castellanos",
"PostCode": "91200",
"Location": {
"Latitude": -34.3427,
"Longitude": -56.5138
}
},
{
"Name": "Puente De Brujas",
"PostCode": "90100",
"Location": {
"Latitude": -34.5991,
"Longitude": -56.4762
}
},
{
"Name": "Puntas De Brujas",
"PostCode": "90100",
"Location": {
"Latitude": -34.5991,
"Longitude": -56.4762
}
},
{
"Name": "Puntas De Cañada Cardozo",
"PostCode": "91300",
"Location": {
"Latitude": -34.4468,
"Longitude": -56.1144
}
},
{
"Name": "Puntas De Cañada Grande",
"PostCode": "15600",
"Location": {
"Latitude": -34.4079,
"Longitude": -56.7391
}
},
{
"Name": "Puntas De Canelon Chico",
"PostCode": "15900",
"Location": {
"Latitude": -34.6893,
"Longitude": -56.1804
}
},
{
"Name": "Puntas De Cochengo",
"PostCode": "91200",
"Location": {
"Latitude": -34.3427,
"Longitude": -56.5138
}
},
{
"Name": "Puntas De Las Violetas",
"PostCode": "91200",
"Location": {
"Latitude": -34.3427,
"Longitude": -56.5138
}
},
{
"Name": "Puntas De Mata Siete",
"PostCode": "91500",
"Location": {
"Latitude": -34.6279,
"Longitude": -55.8182
}
},
{
"Name": "Puntas De Pantanoso",
"PostCode": "91400",
"Location": {
"Latitude": -34.5429,
"Longitude": -56.0601
}
},
{
"Name": "Puntas De Pantanoso Este",
"PostCode": "91400",
"Location": {
"Latitude": -34.5206,
"Longitude": -56.049
}
},
{
"Name": "Puntas De Pedrera",
"PostCode": "91600",
"Location": {
"Latitude": -34.443,
"Longitude": -55.8919
}
},
{
"Name": "Puntas De Toledo",
"PostCode": "15700",
"Location": {
"Latitude": -33.6142,
"Longitude": -56.6893
}
},
{
"Name": "Puntas De Vejigas",
"PostCode": "91800",
"Location": {
"Latitude": -34.0933,
"Longitude": -55.907
}
},
{
"Name": "Puntas Del Arenal",
"PostCode": "91700",
"Location": {
"Latitude": -34.45,
"Longitude": -55.7833
}
},
{
"Name": "Quinta Los Horneros",
"PostCode": "15500",
"Location": {
"Latitude": -34.7631,
"Longitude": -56.0152
}
},
{
"Name": "Quintas Del Bosque",
"PostCode": "15800",
"Location": {
"Latitude": -34.8093,
"Longitude": -55.9299
}
},
{
"Name": "Rancherios De Ponce",
"PostCode": "91500",
"Location": {
"Latitude": -34.6279,
"Longitude": -55.8182
}
},
{
"Name": "Rincon De Carrasco",
"PostCode": "15500",
"Location": {
"Latitude": -34.7631,
"Longitude": -56.0152
}
},
{
"Name": "Rincon De Pando",
"PostCode": "15100",
"Location": {
"Latitude": -34.7796,
"Longitude": -55.8421
}
},
{
"Name": "Rincon De Portezuelo",
"PostCode": "90100",
"Location": {
"Latitude": -34.5991,
"Longitude": -56.4762
}
},
{
"Name": "Rincon De Velazquez",
"PostCode": "90200",
"Location": {
"Latitude": -34.4,
"Longitude": -56.3333
}
},
{
"Name": "Rincon De Vidal",
"PostCode": "90200",
"Location": {
"Latitude": -34.3833,
"Longitude": -56.3833
}
},
{
"Name": "Rincon Del Colorado",
"PostCode": "90100",
"Location": {
"Latitude": -34.6889,
"Longitude": -56.3329
}
},
{
"Name": "Rincon Del Conde",
"PostCode": "91100",
"Location": {
"Latitude": -34.2916,
"Longitude": -55.9557
}
},
{
"Name": "Rincon Del Gigante",
"PostCode": "90000",
"Location": {
"Latitude": -34.4363,
"Longitude": -56.3783
}
},
{
"Name": "Salinas",
"PostCode": "15100",
"Location": {
"Latitude": -34.7773,
"Longitude": -55.8395
}
},
{
"Name": "San Andres",
"PostCode": "15700",
"Location": {
"Latitude": -33.6142,
"Longitude": -56.6893
}
},
{
"Name": "San Antonio",
"PostCode": "91300",
"Location": {
"Latitude": -34.4513,
"Longitude": -56.0804
}
},
{
"Name": "San Bautista",
"PostCode": "91200",
"Location": {
"Latitude": -34.4402,
"Longitude": -55.9586
}
},
{
"Name": "San Jacinto",
"PostCode": "91600",
"Location": {
"Latitude": -34.5446,
"Longitude": -55.8715
}
},
{
"Name": "San Jose De Carrasco",
"PostCode": "15000",
"Location": {
"Latitude": -34.8475,
"Longitude": -56.01
}
},
{
"Name": "San Luis",
"PostCode": "15400",
"Location": {
"Latitude": -34.7686,
"Longitude": -55.5907
}
},
{
"Name": "San Pedro",
"PostCode": "91500",
"Location": {
"Latitude": -34.6279,
"Longitude": -55.8182
}
},
{
"Name": "San Ramon",
"PostCode": "91100",
"Location": {
"Latitude": -34.2916,
"Longitude": -55.9557
}
},
{
"Name": "Santa Ana",
"PostCode": "15400",
"Location": {
"Latitude": -34.7953,
"Longitude": -55.4831
}
},
{
"Name": "Santa Lucia",
"PostCode": "90200",
"Location": {
"Latitude": -34.4533,
"Longitude": -56.3906
}
},
{
"Name": "Santa Lucia Del Este",
"PostCode": "15400",
"Location": {
"Latitude": -34.7893,
"Longitude": -55.5365
}
},
{
"Name": "Santa Rosa",
"PostCode": "91400",
"Location": {
"Latitude": -34.4982,
"Longitude": -56.0379
}
},
{
"Name": "Santa Teresita",
"PostCode": "15000",
"Location": {
"Latitude": -34.8475,
"Longitude": -56.01
}
},
{
"Name": "Santos Lugares",
"PostCode": "15900",
"Location": {
"Latitude": -34.6893,
"Longitude": -56.1804
}
},
{
"Name": "Sarandi De Migues",
"PostCode": "91700",
"Location": {
"Latitude": -34.4867,
"Longitude": -55.6259
}
},
{
"Name": "Sauce",
"PostCode": "91500",
"Location": {
"Latitude": -34.5709,
"Longitude": -56.0816
}
},
{
"Name": "Sauce De Solis",
"PostCode": "30100",
"Location": {
"Latitude": -34.6146,
"Longitude": -55.4214
}
},
{
"Name": "Sauce Solo",
"PostCode": "91700",
"Location": {
"Latitude": -34.4867,
"Longitude": -55.6259
}
},
{
"Name": "Sauce Solo De Migues",
"PostCode": "91700",
"Location": {
"Latitude": -34.4867,
"Longitude": -55.6259
}
},
{
"Name": "Sauce Solo De Montes",
"PostCode": "91700",
"Location": {
"Latitude": -34.4867,
"Longitude": -55.6259
}
},
{
"Name": "Seis Hermanos",
"PostCode": "15700",
"Location": {
"Latitude": -33.6142,
"Longitude": -56.6893
}
},
{
"Name": "Shangrila",
"PostCode": "15000",
"Location": {
"Latitude": -34.8464,
"Longitude": -55.9981
}
},
{
"Name": "Sofia Santos",
"PostCode": "90100",
"Location": {
"Latitude": -34.5991,
"Longitude": -56.4762
}
},
{
"Name": "Solis Chico",
"PostCode": "91700",
"Location": {
"Latitude": -34.4867,
"Longitude": -55.6259
}
},
{
"Name": "Solis Chico De Migues",
"PostCode": "91700",
"Location": {
"Latitude": -34.4867,
"Longitude": -55.6259
}
},
{
"Name": "Solymar",
"PostCode": "15800",
"Location": {
"Latitude": -34.8291,
"Longitude": -55.9637
}
},
{
"Name": "Sosa Diaz",
"PostCode": "15600",
"Location": {
"Latitude": -34.6696,
"Longitude": -55.9654
}
},
{
"Name": "Tala",
"PostCode": "91800",
"Location": {
"Latitude": -34.3435,
"Longitude": -55.7638
}
},
{
"Name": "Talita",
"PostCode": "91600",
"Location": {
"Latitude": -33.9252,
"Longitude": -56.0422
}
},
{
"Name": "Toledo",
"PostCode": "15700",
"Location": {
"Latitude": -34.7381,
"Longitude": -56.0947
}
},
{
"Name": "Totoral Del Sauce",
"PostCode": "91500",
"Location": {
"Latitude": -34.6609,
"Longitude": -55.9933
}
},
{
"Name": "Vejigas",
"PostCode": "91800",
"Location": {
"Latitude": -34.2833,
"Longitude": -55.2333
}
},
{
"Name": "Vejigas De San Ramon",
"PostCode": "91100",
"Location": {
"Latitude": -34.2916,
"Longitude": -55.9557
}
},
{
"Name": "Vejigas De Tala",
"PostCode": "91100",
"Location": {
"Latitude": -34.2916,
"Longitude": -55.9557
}
},
{
"Name": "Viejo Molino San Bernardo",
"PostCode": "15600",
"Location": {
"Latitude": -34.6696,
"Longitude": -55.9654
}
},
{
"Name": "Villa Aeroparque",
"PostCode": "15500",
"Location": {
"Latitude": -34.7913,
"Longitude": -55.9957
}
},
{
"Name": "Villa Arejo",
"PostCode": "90000",
"Location": {
"Latitude": -34.4363,
"Longitude": -56.3783
}
},
{
"Name": "Villa Argentina",
"PostCode": "15200",
"Location": {
"Latitude": -34.7682,
"Longitude": -55.7757
}
},
{
"Name": "Villa Crespo",
"PostCode": "15700",
"Location": {
"Latitude": -33.6142,
"Longitude": -56.6893
}
},
{
"Name": "Villa El Tato",
"PostCode": "15500",
"Location": {
"Latitude": -34.7631,
"Longitude": -56.0152
}
},
{
"Name": "Villa Encantada",
"PostCode": "90100",
"Location": {
"Latitude": -34.5991,
"Longitude": -56.4762
}
},
{
"Name": "Villa Felicidad",
"PostCode": "15900",
"Location": {
"Latitude": -34.6422,
"Longitude": -56.2407
}
},
{
"Name": "Villa Foresti",
"PostCode": "15900",
"Location": {
"Latitude": -34.6893,
"Longitude": -56.1804
}
},
{
"Name": "Villa Fortuna",
"PostCode": "15700",
"Location": {
"Latitude": -33.6142,
"Longitude": -56.6893
}
},
{
"Name": "Villa Hadita",
"PostCode": "15700",
"Location": {
"Latitude": -33.6142,
"Longitude": -56.6893
}
},
{
"Name": "Villa Huertos De Toledo",
"PostCode": "15700",
"Location": {
"Latitude": -33.6142,
"Longitude": -56.6893
}
},
{
"Name": "Villa Juana",
"PostCode": "15100",
"Location": {
"Latitude": -34.7796,
"Longitude": -55.8421
}
},
{
"Name": "Villa Juanita",
"PostCode": "15700",
"Location": {
"Latitude": -33.6142,
"Longitude": -56.6893
}
},
{
"Name": "Villa Los Alpes",
"PostCode": "15700",
"Location": {
"Latitude": -33.6142,
"Longitude": -56.6893
}
},
{
"Name": "Villa Marina",
"PostCode": "15700",
"Location": {
"Latitude": -33.6142,
"Longitude": -56.6893
}
},
{
"Name": "Villa Molfino",
"PostCode": "15700",
"Location": {
"Latitude": -33.6142,
"Longitude": -56.6893
}
},
{
"Name": "Villa Nueva",
"PostCode": "91500",
"Location": {
"Latitude": -34.6,
"Longitude": -56.1333
}
},
{
"Name": "Villa Paz S.A.",
"PostCode": "15900",
"Location": {
"Latitude": -34.6893,
"Longitude": -56.1804
}
},
{
"Name": "Villa Prados De Toledo",
"PostCode": "15700",
"Location": {
"Latitude": -33.6142,
"Longitude": -56.6893
}
},
{
"Name": "Villa San Cono",
"PostCode": "15900",
"Location": {
"Latitude": -34.7028,
"Longitude": -55.8876
}
},
{
"Name": "Villa San Felipe",
"PostCode": "15700",
"Location": {
"Latitude": -33.6142,
"Longitude": -56.6893
}
},
{
"Name": "Villa San Jose",
"PostCode": "15700",
"Location": {
"Latitude": -34.717,
"Longitude": -56.0737
}
},
{
"Name": "Villa Valverde",
"PostCode": "15700",
"Location": {
"Latitude": -33.6142,
"Longitude": -56.6893
}
},
{
"Name": "Vista Linda",
"PostCode": "15900",
"Location": {
"Latitude": -34.6893,
"Longitude": -56.1804
}
}
]
}
]
}
]
},
{
"Name": "Cerro Largo",
"Code": "03",
"Provinces": [
{
"Communities": [
{
"Places": [
{
"Name": "Acegua",
"PostCode": "37000",
"Location": {
"Latitude": -31.8667,
"Longitude": -54.2
}
},
{
"Name": "Aguirre",
"PostCode": "36200",
"Location": {
"Latitude": -32.3667,
"Longitude": -54.7667
}
},
{
"Name": "Amarillo",
"PostCode": "37000",
"Location": {
"Latitude": -32.7519,
"Longitude": -54.6319
}
},
{
"Name": "Arachania",
"PostCode": "37000",
"Location": {
"Latitude": -34.6148,
"Longitude": -54.1507
}
},
{
"Name": "Arbolito",
"PostCode": "37000",
"Location": {
"Latitude": -32.65,
"Longitude": -54.25
}
},
{
"Name": "Arevalo",
"PostCode": "35300",
"Location": {
"Latitude": -32.6333,
"Longitude": -55.1167
}
},
{
"Name": "Arroyo Malo",
"PostCode": "37100",
"Location": {
"Latitude": -33.0201,
"Longitude": -53.5753
}
},
{
"Name": "Arrozal Cesarone",
"PostCode": "37100",
"Location": {
"Latitude": -33.0201,
"Longitude": -53.5753
}
},
{
"Name": "Arrozal Rosales",
"PostCode": "37100",
"Location": {
"Latitude": -33.0201,
"Longitude": -53.5753
}
},
{
"Name": "Asperezas",
"PostCode": "37000",
"Location": {
"Latitude": -32.7519,
"Longitude": -54.6319
}
},
{
"Name": "Bañado De Las Pajas",
"PostCode": "37100",
"Location": {
"Latitude": -33.0201,
"Longitude": -53.5753
}
},
{
"Name": "Bañado De Medina",
"PostCode": "37000",
"Location": {
"Latitude": -32.3833,
"Longitude": -54.35
}
},
{
"Name": "Barra Del Sauce",
"PostCode": "37100",
"Location": {
"Latitude": -33.0201,
"Longitude": -53.5753
}
},
{
"Name": "Barra Del Tacuari",
"PostCode": "37100",
"Location": {
"Latitude": -33.0201,
"Longitude": -53.5753
}
},
{
"Name": "Barrio La Vinchuca",
"PostCode": "37000",
"Location": {
"Latitude": -32.7519,
"Longitude": -54.6319
}
},
{
"Name": "Barrio Lopez Benitez",
"PostCode": "37000",
"Location": {
"Latitude": -32.7519,
"Longitude": -54.6319
}
},
{
"Name": "Berachi",
"PostCode": "37000",
"Location": {
"Latitude": -32.7519,
"Longitude": -54.6319
}
},
{
"Name": "Buena Vista",
"PostCode": "37000",
"Location": {
"Latitude": -32.15,
"Longitude": -54.2
}
},
{
"Name": "Calera De Recalde",
"PostCode": "36200",
"Location": {
"Latitude": -32.5286,
"Longitude": -54.5214
}
},
{
"Name": "Campamento",
"PostCode": "37000",
"Location": {
"Latitude": -32.7519,
"Longitude": -54.6319
}
},
{
"Name": "Cañada Brava",
"PostCode": "97000",
"Location": {
"Latitude": -33.0983,
"Longitude": -56.0159
}
},
{
"Name": "Cañada De Santos",
"PostCode": "37100",
"Location": {
"Latitude": -33.0201,
"Longitude": -53.5753
}
},
{
"Name": "Cañada Grande",
"PostCode": "37100",
"Location": {
"Latitude": -33.0201,
"Longitude": -53.5753
}
},
{
"Name": "Cañada Sarandi",
"PostCode": "37000",
"Location": {
"Latitude": -32.7519,
"Longitude": -54.6319
}
},
{
"Name": "Cañitas",
"PostCode": "37000",
"Location": {
"Latitude": -32.7519,
"Longitude": -54.6319
}
},
{
"Name": "Casa De Las Cronicas",
"PostCode": "37000",
"Location": {
"Latitude": -32.7519,
"Longitude": -54.6319
}
},
{
"Name": "Caserio Las Cañas",
"PostCode": "37000",
"Location": {
"Latitude": -32.7519,
"Longitude": -54.6319
}
},
{
"Name": "Cementerio",
"PostCode": "37000",
"Location": {
"Latitude": -32.7519,
"Longitude": -54.6319
}
},
{
"Name": "Centurion",
"PostCode": "37000",
"Location": {
"Latitude": -32.7519,
"Longitude": -54.6319
}
},
{
"Name": "Cerro De Las Cuentas",
"PostCode": "36200",
"Location": {
"Latitude": -32.6167,
"Longitude": -54.6
}
},
{
"Name": "Chacras De Melo",
"PostCode": "37000",
"Location": {
"Latitude": -32.7519,
"Longitude": -54.6319
}
},
{
"Name": "Coimbra",
"PostCode": "36200",
"Location": {
"Latitude": -32.5286,
"Longitude": -54.5214
}
},
{
"Name": "Colonia Ceres",
"PostCode": "37000",
"Location": {
"Latitude": -32.7519,
"Longitude": -54.6319
}
},
{
"Name": "Colonia Maria Teresa",
"PostCode": "37000",
"Location": {
"Latitude": -32.7519,
"Longitude": -54.6319
}
},
{
"Name": "Colonia Orozco",
"PostCode": "37000",
"Location": {
"Latitude": -32.7519,
"Longitude": -54.6319
}
},
{
"Name": "Conventos",
"PostCode": "37000",
"Location": {
"Latitude": -32.7519,
"Longitude": -54.6319
}
},
{
"Name": "Corral De Piedra",
"PostCode": "37000",
"Location": {
"Latitude": -32.7519,
"Longitude": -54.6319
}
},
{
"Name": "Cruz De Piedra",
"PostCode": "37000",
"Location": {
"Latitude": -32.0333,
"Longitude": -54.1833
}
},
{
"Name": "Cuchilla Cambota",
"PostCode": "37000",
"Location": {
"Latitude": -32.7519,
"Longitude": -54.6319
}
},
{
"Name": "Cuchilla De Melo",
"PostCode": "37000",
"Location": {
"Latitude": -32.7519,
"Longitude": -54.6319
}
},
{
"Name": "Cuchilla Del Carmen",
"PostCode": "35300",
"Location": {
"Latitude": -32.85,
"Longitude": -55.0722
}
},
{
"Name": "Cuchilla Del Paraiso",
"PostCode": "37000",
"Location": {
"Latitude": -32.7519,
"Longitude": -54.6319
}
},
{
"Name": "Cuchilla Peralta",
"PostCode": "37000",
"Location": {
"Latitude": -32.4333,
"Longitude": -56.35
}
},
{
"Name": "Duraznero",
"PostCode": "37000",
"Location": {
"Latitude": -32.7519,
"Longitude": -54.6319
}
},
{
"Name": "Escuela De Agronomia",
"PostCode": "37000",
"Location": {
"Latitude": -32.7519,
"Longitude": -54.6319
}
},
{
"Name": "Esperanza",
"PostCode": "35300",
"Location": {
"Latitude": -33.0,
"Longitude": -55.1333
}
},
{
"Name": "Falda De Sierra De Los Rios",
"PostCode": "37000",
"Location": {
"Latitude": -32.7519,
"Longitude": -54.6319
}
},
{
"Name": "Fraile Muerto",
"PostCode": "36200",
"Location": {
"Latitude": -32.5167,
"Longitude": -54.5333
}
},
{
"Name": "Ganen",
"PostCode": "36200",
"Location": {
"Latitude": -32.5286,
"Longitude": -54.5214
}
},
{
"Name": "Garao",
"PostCode": "37100",
"Location": {
"Latitude": -33.0201,
"Longitude": -53.5753
}
},
{
"Name": "Granja De Acegua",
"PostCode": "37000",
"Location": {
"Latitude": -32.7519,
"Longitude": -54.6319
}
},
{
"Name": "Granja Pallero",
"PostCode": "37000",
"Location": {
"Latitude": -32.7519,
"Longitude": -54.6319
}
},
{
"Name": "Guazunambi",
"PostCode": "37000",
"Location": {
"Latitude": -32.7519,
"Longitude": -54.6319
}
},
{
"Name": "Hipodromo",
"PostCode": "37000",
"Location": {
"Latitude": -34.8615,
"Longitude": -54.9431
}
},
{
"Name": "Infiernillo",
"PostCode": "37000",
"Location": {
"Latitude": -33.9333,
"Longitude": -55.6833
}
},
{
"Name": "Isidoro Noblia",
"PostCode": "37000",
"Location": {
"Latitude": -31.8333,
"Longitude": -54.1667
}
},
{
"Name": "La Coronilla",
"PostCode": "37100",
"Location": {
"Latitude": -33.8896,
"Longitude": -53.5264
}
},
{
"Name": "La Gloria",
"PostCode": "37000",
"Location": {
"Latitude": -32.7519,
"Longitude": -54.6319
}
},
{
"Name": "La Micaela",
"PostCode": "37000",
"Location": {
"Latitude": -32.6333,
"Longitude": -53.9
}
},
{
"Name": "La Mina",
"PostCode": "37000",
"Location": {
"Latitude": -31.9,
"Longitude": -54.15
}
},
{
"Name": "La Pedrera",
"PostCode": "37000",
"Location": {
"Latitude": -32.35,
"Longitude": -54.1333
}
},
{
"Name": "Lago Merin",
"PostCode": "37100",
"Location": {
"Latitude": -33.0201,
"Longitude": -53.5753
}
},
{
"Name": "Laguna Del Junco",
"PostCode": "36100",
"Location": {
"Latitude": -32.8333,
"Longitude": -54.7667
}
},
{
"Name": "Las Limas",
"PostCode": "36200",
"Location": {
"Latitude": -32.5286,
"Longitude": -54.5214
}
},
{
"Name": "Los Cerros",
"PostCode": "36200",
"Location": {
"Latitude": -32.5286,
"Longitude": -54.5214
}
},
{
"Name": "Mangrullo",
"PostCode": "37000",
"Location": {
"Latitude": -32.1167,
"Longitude": -54.0667
}
},
{
"Name": "Maria Isabel",
"PostCode": "37000",
"Location": {
"Latitude": -33.8,
"Longitude": -54.0
}
},
{
"Name": "Mazangano",
"PostCode": "37000",
"Location": {
"Latitude": -32.7519,
"Longitude": -54.6319
}
},
{
"Name": "Melo",
"PostCode": "37000",
"Location": {
"Latitude": -32.3703,
"Longitude": -54.1675
}
},
{
"Name": "Minuano De Acegua",
"PostCode": "37000",
"Location": {
"Latitude": -32.7519,
"Longitude": -54.6319
}
},
{
"Name": "Misterio",
"PostCode": "37000",
"Location": {
"Latitude": -32.7519,
"Longitude": -54.6319
}
},
{
"Name": "Montecito",
"PostCode": "37000",
"Location": {
"Latitude": -32.7519,
"Longitude": -54.6319
}
},
{
"Name": "Nando",
"PostCode": "37000",
"Location": {
"Latitude": -32.1667,
"Longitude": -54.1167
}
},
{
"Name": "Ñangapire",
"PostCode": "37000",
"Location": {
"Latitude": -32.7519,
"Longitude": -54.6319
}
},
{
"Name": "Panteon",
"PostCode": "37000",
"Location": {
"Latitude": -32.7519,
"Longitude": -54.6319
}
},
{
"Name": "Paso De La Cruz",
"PostCode": "37000",
"Location": {
"Latitude": -32.7519,
"Longitude": -54.6319
}
},
{
"Name": "Paso De Las Tropas",
"PostCode": "37000",
"Location": {
"Latitude": -32.7519,
"Longitude": -54.6319
}
},
{
"Name": "Paso De Las Yeguas",
"PostCode": "37000",
"Location": {
"Latitude": -32.7519,
"Longitude": -54.6319
}
},
{
"Name": "Paso De Los Carros",
"PostCode": "36200",
"Location": {
"Latitude": -32.5286,
"Longitude": -54.5214
}
},
{
"Name": "Paso Melo",
"PostCode": "37000",
"Location": {
"Latitude": -32.7519,
"Longitude": -54.6319
}
},
{
"Name": "Paso Pereira",
"PostCode": "45000",
"Location": {
"Latitude": -32.4667,
"Longitude": -55.2333
}
},
{
"Name": "Peñarol",
"PostCode": "37000",
"Location": {
"Latitude": -31.7833,
"Longitude": -54.3333
}
},
{
"Name": "Picada De Maya",
"PostCode": "37100",
"Location": {
"Latitude": -33.0201,
"Longitude": -53.5753
}
},
{
"Name": "Picada De Salome",
"PostCode": "37100",
"Location": {
"Latitude": -33.0201,
"Longitude": -53.5753
}
},
{
"Name": "Piedra Alta",
"PostCode": "45000",
"Location": {
"Latitude": -31.9435,
"Longitude": -55.7274
}
},
{
"Name": "Piñeiro",
"PostCode": "36200",
"Location": {
"Latitude": -32.5286,
"Longitude": -54.5214
}
},
{
"Name": "Placido Rosas",
"PostCode": "37100",
"Location": {
"Latitude": -32.75,
"Longitude": -53.7333
}
},
{
"Name": "Poblado Uruguay",
"PostCode": "37100",
"Location": {
"Latitude": -33.0201,
"Longitude": -53.5753
}
},
{
"Name": "Presidente Doctor Getulio Vargas",
"PostCode": "37100",
"Location": {
"Latitude": -33.0201,
"Longitude": -53.5753
}
},
{
"Name": "Puente Negro",
"PostCode": "37000",
"Location": {
"Latitude": -32.7519,
"Longitude": -54.6319
}
},
{
"Name": "Puntas De Amarillo",
"PostCode": "37000",
"Location": {
"Latitude": -32.7519,
"Longitude": -54.6319
}
},
{
"Name": "Puntas De La Mina",
"PostCode": "37000",
"Location": {
"Latitude": -32.7519,
"Longitude": -54.6319
}
},
{
"Name": "Puntas De Molles",
"PostCode": "37000",
"Location": {
"Latitude": -32.7519,
"Longitude": -54.6319
}
},
{
"Name": "Puntas De Palleros",
"PostCode": "37000",
"Location": {
"Latitude": -32.7519,
"Longitude": -54.6319
}
},
{
"Name": "Puntas De Tacuari",
"PostCode": "36200",
"Location": {
"Latitude": -32.5286,
"Longitude": -54.5214
}
},
{
"Name": "Puntas Del Sauce",
"PostCode": "37100",
"Location": {
"Latitude": -33.0201,
"Longitude": -53.5753
}
},
{
"Name": "Quebracho",
"PostCode": "36200",
"Location": {
"Latitude": -32.6833,
"Longitude": -54.6333
}
},
{
"Name": "Ramon Trigo",
"PostCode": "37000",
"Location": {
"Latitude": -32.3833,
"Longitude": -54.6667
}
},
{
"Name": "Rincon De Contreras",
"PostCode": "36200",
"Location": {
"Latitude": -32.5286,
"Longitude": -54.5214
}
},
{
"Name": "Rincon De La Urbana",
"PostCode": "36200",
"Location": {
"Latitude": -32.5286,
"Longitude": -54.5214
}
},
{
"Name": "Rincon De Los Coroneles",
"PostCode": "37000",
"Location": {
"Latitude": -32.7519,
"Longitude": -54.6319
}
},
{
"Name": "Rincon De Los Olivera",
"PostCode": "37100",
"Location": {
"Latitude": -34.303,
"Longitude": -53.8479
}
},
{
"Name": "Rincon De Paiva",
"PostCode": "37000",
"Location": {
"Latitude": -32.7519,
"Longitude": -54.6319
}
},
{
"Name": "Rincon De Py",
"PostCode": "36200",
"Location": {
"Latitude": -32.5,
"Longitude": -54.4167
}
},
{
"Name": "Rincon De Suarez",
"PostCode": "36200",
"Location": {
"Latitude": -32.5286,
"Longitude": -54.5214
}
},
{
"Name": "Rincon De Tacuari",
"PostCode": "37000",
"Location": {
"Latitude": -32.7519,
"Longitude": -54.6319
}
},
{
"Name": "Rio Branco",
"PostCode": "37100",
"Location": {
"Latitude": -32.598,
"Longitude": -53.3858
}
},
{
"Name": "Rodriguez",
"PostCode": "37000",
"Location": {
"Latitude": -34.381,
"Longitude": -56.538
}
},
{
"Name": "Saldañas",
"PostCode": "37000",
"Location": {
"Latitude": -32.7519,
"Longitude": -54.6319
}
},
{
"Name": "San Diego",
"PostCode": "37000",
"Location": {
"Latitude": -32.7519,
"Longitude": -54.6319
}
},
{
"Name": "San Servando",
"PostCode": "37100",
"Location": {
"Latitude": -32.6333,
"Longitude": -53.3
}
},
{
"Name": "Sanchez",
"PostCode": "36200",
"Location": {
"Latitude": -32.5286,
"Longitude": -54.5214
}
},
{
"Name": "Santa Teresa",
"PostCode": "37000",
"Location": {
"Latitude": -34.4333,
"Longitude": -57.7167
}
},
{
"Name": "Sarandi De Acegua",
"PostCode": "37000",
"Location": {
"Latitude": -32.0167,
"Longitude": -54.2
}
},
{
"Name": "Sarandi De Barcelo",
"PostCode": "37100",
"Location": {
"Latitude": -32.4833,
"Longitude": -53.7167
}
},
{
"Name": "Sarandi De Yaguaron",
"PostCode": "37100",
"Location": {
"Latitude": -33.0201,
"Longitude": -53.5753
}
},
{
"Name": "Sauce De Conventos",
"PostCode": "37000",
"Location": {
"Latitude": -32.7519,
"Longitude": -54.6319
}
},
{
"Name": "Soto Goro",
"PostCode": "37000",
"Location": {
"Latitude": -32.7519,
"Longitude": -54.6319
}
},
{
"Name": "Toledo",
"PostCode": "36200",
"Location": {
"Latitude": -32.5,
"Longitude": -54.0167
}
},
{
"Name": "Tres Boliches",
"PostCode": "37000",
"Location": {
"Latitude": -32.7519,
"Longitude": -54.6319
}
},
{
"Name": "Tres Islas",
"PostCode": "36200",
"Location": {
"Latitude": -32.5167,
"Longitude": -54.6833
}
},
{
"Name": "Tupambae",
"PostCode": "36100",
"Location": {
"Latitude": -32.8333,
"Longitude": -54.7667
}
},
{
"Name": "Uruguay",
"PostCode": "37100",
"Location": {
"Latitude": -32.4833,
"Longitude": -53.5167
}
},
{
"Name": "Villa Viñoles",
"PostCode": "37000",
"Location": {
"Latitude": -32.2,
"Longitude": -54.0667
}
},
{
"Name": "Wenceslao Silvera",
"PostCode": "36200",
"Location": {
"Latitude": -32.5286,
"Longitude": -54.5214
}
}
]
}
]
}
]
},
{
"Name": "Colonia",
"Code": "04",
"Provinces": [
{
"Communities": [
{
"Places": [
{
"Name": "Arrivillaga",
"PostCode": "70500",
"Location": {
"Latitude": -34.4126,
"Longitude": -57.3965
}
},
{
"Name": "Artilleros",
"PostCode": "70000",
"Location": {
"Latitude": -34.3667,
"Longitude": -57.5667
}
},
{
"Name": "Barker",
"PostCode": "70200",
"Location": {
"Latitude": -34.2603,
"Longitude": -57.456
}
},
{
"Name": "Barker Norte",
"PostCode": "70200",
"Location": {
"Latitude": -34.2203,
"Longitude": -57.4776
}
},
{
"Name": "Barrancas Coloradas",
"PostCode": "70300",
"Location": {
"Latitude": -34.2417,
"Longitude": -57.2209
}
},
{
"Name": "Barrio Mendaña",
"PostCode": "70300",
"Location": {
"Latitude": -34.398,
"Longitude": -56.9659
}
},
{
"Name": "Barrio Olimpico",
"PostCode": "70300",
"Location": {
"Latitude": -34.398,
"Longitude": -56.9659
}
},
{
"Name": "Belgrano Norte",
"PostCode": "70700",
"Location": {
"Latitude": -33.8814,
"Longitude": -58.3483
}
},
{
"Name": "Belgrano Sur",
"PostCode": "70700",
"Location": {
"Latitude": -33.9091,
"Longitude": -58.3811
}
},
{
"Name": "Blanca Arena",
"PostCode": "70300",
"Location": {
"Latitude": -34.4356,
"Longitude": -57.2967
}
},
{
"Name": "Boca Del Rosario",
"PostCode": "70300",
"Location": {
"Latitude": -34.4,
"Longitude": -57.3333
}
},
{
"Name": "Boca Del Rosario Oeste",
"PostCode": "70500",
"Location": {
"Latitude": -34.4341,
"Longitude": -57.3349
}
},
{
"Name": "Bonjour",
"PostCode": "70300",
"Location": {
"Latitude": -34.398,
"Longitude": -56.9659
}
},
{
"Name": "Brisas Del Plata",
"PostCode": "70300",
"Location": {
"Latitude": -34.4428,
"Longitude": -57.1693
}
},
{
"Name": "Buena Hora",
"PostCode": "70100",
"Location": {
"Latitude": -34.0765,
"Longitude": -58.1329
}
},
{
"Name": "Campamento Artigas",
"PostCode": "70300",
"Location": {
"Latitude": -34.398,
"Longitude": -56.9659
}
},
{
"Name": "Campana",
"PostCode": "70800",
"Location": {
"Latitude": -34.0326,
"Longitude": -57.902
}
},
{
"Name": "Carmelo",
"PostCode": "70100",
"Location": {
"Latitude": -34.0002,
"Longitude": -58.284
}
},
{
"Name": "Caserio El Cerro",
"PostCode": "70100",
"Location": {
"Latitude": -33.9897,
"Longitude": -58.1504
}
},
{
"Name": "Cerro Carmelo",
"PostCode": "70100",
"Location": {
"Latitude": -33.9897,
"Longitude": -58.1504
}
},
{
"Name": "Cerro De Las Armas",
"PostCode": "70800",
"Location": {
"Latitude": -34.066,
"Longitude": -57.7232
}
},
{
"Name": "Cerros De San Juan",
"PostCode": "70000",
"Location": {
"Latitude": -34.2187,
"Longitude": -57.9307
}
},
{
"Name": "Cerros Negros",
"PostCode": "70300",
"Location": {
"Latitude": -34.398,
"Longitude": -56.9659
}
},
{
"Name": "Chico Torino",
"PostCode": "70400",
"Location": {
"Latitude": -34.3396,
"Longitude": -57.2625
}
},
{
"Name": "Colonia Arrue",
"PostCode": "70100",
"Location": {
"Latitude": -34.0165,
"Longitude": -58.1526
}
},
{
"Name": "Colonia Cosmopolita",
"PostCode": "70500",
"Location": {
"Latitude": -34.3848,
"Longitude": -57.4019
}
},
{
"Name": "Colonia Del Sacramento",
"PostCode": "70000",
"Location": {
"Latitude": -34.4626,
"Longitude": -57.8398
}
},
{
"Name": "Colonia Española",
"PostCode": "70300",
"Location": {
"Latitude": -34.4,
"Longitude": -57.1667
}
},
{
"Name": "Colonia Estrella",
"PostCode": "70100",
"Location": {
"Latitude": -33.964,
"Longitude": -58.2893
}
},
{
"Name": "Colonia Miguelete",
"PostCode": "70800",
"Location": {
"Latitude": -34.0065,
"Longitude": -57.6479
}
},
{
"Name": "Colonia Peirano",
"PostCode": "70200",
"Location": {
"Latitude": -34.2333,
"Longitude": -57.36
}
},
{
"Name": "Colonia Quevedo",
"PostCode": "70300",
"Location": {
"Latitude": -34.398,
"Longitude": -56.9659
}
},
{
"Name": "Colonia Sarandi",
"PostCode": "70800",
"Location": {
"Latitude": -34.1114,
"Longitude": -57.6634
}
},
{
"Name": "Colonia Talice",
"PostCode": "70200",
"Location": {
"Latitude": -34.2333,
"Longitude": -57.36
}
},
{
"Name": "Colonia Valdense",
"PostCode": "70400",
"Location": {
"Latitude": -34.3396,
"Longitude": -57.2625
}
},
{
"Name": "Conchillas",
"PostCode": "70000",
"Location": {
"Latitude": -34.1648,
"Longitude": -58.0339
}
},
{
"Name": "Concordia",
"PostCode": "70300",
"Location": {
"Latitude": -34.381,
"Longitude": -56.538
}
},
{
"Name": "Costa De Colla Al Este",
"PostCode": "70200",
"Location": {
"Latitude": -34.2476,
"Longitude": -57.4097
}
},
{
"Name": "Costa De Rosario",
"PostCode": "70300",
"Location": {
"Latitude": -34.398,
"Longitude": -56.9659
}
},
{
"Name": "Costa De Tarariras",
"PostCode": "70600",
"Location": {
"Latitude": -34.1473,
"Longitude": -57.5886
}
},
{
"Name": "Costa De Vacas",
"PostCode": "70100",
"Location": {
"Latitude": -33.9897,
"Longitude": -58.1504
}
},
{
"Name": "Costa Del Navarro",
"PostCode": "70200",
"Location": {
"Latitude": -34.2333,
"Longitude": -57.36
}
},
{
"Name": "Costas De Juan Gonzalez",
"PostCode": "70100",
"Location": {
"Latitude": -33.9897,
"Longitude": -58.1504
}
},
{
"Name": "Costas De Polonia",
"PostCode": "70200",
"Location": {
"Latitude": -34.2333,
"Longitude": -57.36
}
},
{
"Name": "Costas De San Juan",
"PostCode": "70800",
"Location": {
"Latitude": -34.1114,
"Longitude": -57.6634
}
},
{
"Name": "Cufre",
"PostCode": "70300",
"Location": {
"Latitude": -34.194,
"Longitude": -57.1076
}
},
{
"Name": "Curupi",
"PostCode": "70100",
"Location": {
"Latitude": -33.9897,
"Longitude": -58.1504
}
},
{
"Name": "El Bañado",
"PostCode": "70000",
"Location": {
"Latitude": -34.134,
"Longitude": -57.9793
}
},
{
"Name": "El Caño",
"PostCode": "70000",
"Location": {
"Latitude": -34.4,
"Longitude": -57.6667
}
},
{
"Name": "El Cerro",
"PostCode": "70100",
"Location": {
"Latitude": -33.9815,
"Longitude": -58.2822
}
},
{
"Name": "El Chileno",
"PostCode": "70100",
"Location": {
"Latitude": -33.9897,
"Longitude": -58.1504
}
},
{
"Name": "El Cuadro",
"PostCode": "70800",
"Location": {
"Latitude": -34.138,
"Longitude": -57.7995
}
},
{
"Name": "El Ensueño",
"PostCode": "70000",
"Location": {
"Latitude": -34.4237,
"Longitude": -57.6025
}
},
{
"Name": "El Faro",
"PostCode": "70100",
"Location": {
"Latitude": -33.9897,
"Longitude": -58.1504
}
},
{
"Name": "El General",
"PostCode": "70000",
"Location": {
"Latitude": -34.426,
"Longitude": -57.8296
}
},
{
"Name": "El Quinton",
"PostCode": "70000",
"Location": {
"Latitude": -34.328,
"Longitude": -57.7043
}
},
{
"Name": "El Semillero",
"PostCode": "70000",
"Location": {
"Latitude": -34.3359,
"Longitude": -57.6906
}
},
{
"Name": "Estacion Experimental \"La Estanzuela\"",
"PostCode": "70000",
"Location": {
"Latitude": -34.328,
"Longitude": -57.7043
}
},
{
"Name": "Estancia Anchorena",
"PostCode": "70000",
"Location": {
"Latitude": -34.328,
"Longitude": -57.7043
}
},
{
"Name": "Florencio Sanchez",
"PostCode": "75200",
"Location": {
"Latitude": -33.8779,
"Longitude": -57.3717
}
},
{
"Name": "Gil",
"PostCode": "70800",
"Location": {
"Latitude": -34.1114,
"Longitude": -57.6634
}
},
{
"Name": "Juan Carlos Caseros",
"PostCode": "70000",
"Location": {
"Latitude": -34.328,
"Longitude": -57.7043
}
},
{
"Name": "Juan Gonzalez",
"PostCode": "70100",
"Location": {
"Latitude": -34.0586,
"Longitude": -58.192
}
},
{
"Name": "Juan Jackson",
"PostCode": "75200",
"Location": {
"Latitude": -33.9144,
"Longitude": -57.2285
}
},
{
"Name": "Juan Lacaze",
"PostCode": "70500",
"Location": {
"Latitude": -34.4189,
"Longitude": -57.4529
}
},
{
"Name": "La Estanzuela",
"PostCode": "70000",
"Location": {
"Latitude": -34.3288,
"Longitude": -57.7228
}
},
{
"Name": "La Horqueta",
"PostCode": "70000",
"Location": {
"Latitude": -34.2449,
"Longitude": -57.8757
}
},
{
"Name": "La Paz",
"PostCode": "70200",
"Location": {
"Latitude": -34.3478,
"Longitude": -57.3096
}
},
{
"Name": "La Sierra",
"PostCode": "70300",
"Location": {
"Latitude": -34.7473,
"Longitude": -55.4001
}
},
{
"Name": "Laguna De Los Patos",
"PostCode": "70000",
"Location": {
"Latitude": -34.328,
"Longitude": -57.7043
}
},
{
"Name": "Las Chispas",
"PostCode": "70800",
"Location": {
"Latitude": -34.1114,
"Longitude": -57.6634
}
},
{
"Name": "Las Flores",
"PostCode": "70700",
"Location": {
"Latitude": -33.8331,
"Longitude": -58.3281
}
},
{
"Name": "Lomas De Carmelo",
"PostCode": "70100",
"Location": {
"Latitude": -34.0132,
"Longitude": -58.2781
}
},
{
"Name": "Los Pinos",
"PostCode": "70300",
"Location": {
"Latitude": -34.398,
"Longitude": -56.9659
}
},
{
"Name": "Manantiales",
"PostCode": "70800",
"Location": {
"Latitude": -34.1114,
"Longitude": -57.6634
}
},
{
"Name": "Martin Chico",
"PostCode": "70100",
"Location": {
"Latitude": -34.1612,
"Longitude": -58.2071
}
},
{
"Name": "Martin Chico De Conchillas",
"PostCode": "70000",
"Location": {
"Latitude": -34.328,
"Longitude": -57.7043
}
},
{
"Name": "Media Agua",
"PostCode": "70200",
"Location": {
"Latitude": -34.2333,
"Longitude": -57.36
}
},
{
"Name": "Miguelete De Conchillas",
"PostCode": "70800",
"Location": {
"Latitude": -34.1058,
"Longitude": -57.8521
}
},
{
"Name": "Minas De Narancio",
"PostCode": "70000",
"Location": {
"Latitude": -34.1819,
"Longitude": -57.9206
}
},
{
"Name": "Minuano Y Sauce",
"PostCode": "70200",
"Location": {
"Latitude": -34.2333,
"Longitude": -57.36
}
},
{
"Name": "Molles De Miguelete",
"PostCode": "70800",
"Location": {
"Latitude": -34.1114,
"Longitude": -57.6634
}
},
{
"Name": "Nueva Helvecia",
"PostCode": "70300",
"Location": {
"Latitude": -34.3,
"Longitude": -57.2333
}
},
{
"Name": "Nueva Palmira",
"PostCode": "70700",
"Location": {
"Latitude": -33.87,
"Longitude": -58.408
}
},
{
"Name": "Ombues De Lavalle",
"PostCode": "70800",
"Location": {
"Latitude": -33.9378,
"Longitude": -57.8096
}
},
{
"Name": "Paraje Minuano",
"PostCode": "70500",
"Location": {
"Latitude": -34.4126,
"Longitude": -57.3965
}
},
{
"Name": "Paso Antolin",
"PostCode": "70600",
"Location": {
"Latitude": -34.2,
"Longitude": -57.7833
}
},
{
"Name": "Paso Birriel",
"PostCode": "75200",
"Location": {
"Latitude": -33.7334,
"Longitude": -57.4003
}
},
{
"Name": "Paso De La Quinta",
"PostCode": "70300",
"Location": {
"Latitude": -34.398,
"Longitude": -56.9659
}
},
{
"Name": "Paso Hospital",
"PostCode": "70600",
"Location": {
"Latitude": -34.1267,
"Longitude": -57.6757
}
},
{
"Name": "Paso Hospital Manantiales",
"PostCode": "70800",
"Location": {
"Latitude": -34.1114,
"Longitude": -57.6634
}
},
{
"Name": "Paso Morlan",
"PostCode": "70200",
"Location": {
"Latitude": -34.2333,
"Longitude": -57.36
}
},
{
"Name": "Paso Quicho",
"PostCode": "70200",
"Location": {
"Latitude": -34.2333,
"Longitude": -57.36
}
},
{
"Name": "Pastoreo",
"PostCode": "70200",
"Location": {
"Latitude": -34.3314,
"Longitude": -57.3513
}
},
{
"Name": "Picada De Benitez",
"PostCode": "70300",
"Location": {
"Latitude": -34.398,
"Longitude": -56.9659
}
},
{
"Name": "Piedra Chata",
"PostCode": "75200",
"Location": {
"Latitude": -33.7334,
"Longitude": -57.4003
}
},
{
"Name": "Piedra De Los Indios",
"PostCode": "70000",
"Location": {
"Latitude": -34.377,
"Longitude": -57.8415
}
},
{
"Name": "Piedras Blancas",
"PostCode": "70800",
"Location": {
"Latitude": -34.8286,
"Longitude": -56.1394
}
},
{
"Name": "Playa Azul",
"PostCode": "70300",
"Location": {
"Latitude": -34.398,
"Longitude": -56.9659
}
},
{
"Name": "Playa Britopolis",
"PostCode": "70300",
"Location": {
"Latitude": -34.398,
"Longitude": -56.9659
}
},
{
"Name": "Playa Fomento",
"PostCode": "70300",
"Location": {
"Latitude": -34.398,
"Longitude": -56.9659
}
},
{
"Name": "Playa Parant",
"PostCode": "70300",
"Location": {
"Latitude": -34.398,
"Longitude": -56.9659
}
},
{
"Name": "Polancos",
"PostCode": "70700",
"Location": {
"Latitude": -33.8778,
"Longitude": -58.276
}
},
{
"Name": "Puerto Concordia",
"PostCode": "70200",
"Location": {
"Latitude": -34.2333,
"Longitude": -57.36
}
},
{
"Name": "Puerto Ingles",
"PostCode": "70000",
"Location": {
"Latitude": -34.328,
"Longitude": -57.7043
}
},
{
"Name": "Puerto Platero",
"PostCode": "70000",
"Location": {
"Latitude": -34.4366,
"Longitude": -57.6403
}
},
{
"Name": "Puerto Rosario",
"PostCode": "70200",
"Location": {
"Latitude": -34.2333,
"Longitude": -57.36
}
},
{
"Name": "Punta Francesa",
"PostCode": "70000",
"Location": {
"Latitude": -34.328,
"Longitude": -57.7043
}
},
{
"Name": "Puntas De Juan Gonzalez",
"PostCode": "70800",
"Location": {
"Latitude": -34.1024,
"Longitude": -57.936
}
},
{
"Name": "Puntas De Melo",
"PostCode": "70600",
"Location": {
"Latitude": -34.1473,
"Longitude": -57.5886
}
},
{
"Name": "Puntas De San Juan",
"PostCode": "70800",
"Location": {
"Latitude": -33.9333,
"Longitude": -57.4667
}
},
{
"Name": "Puntas De San Pedro",
"PostCode": "70000",
"Location": {
"Latitude": -33.9333,
"Longitude": -57.4667
}
},
{
"Name": "Puntas Del Riachuelo",
"PostCode": "70600",
"Location": {
"Latitude": -34.1473,
"Longitude": -57.5886
}
},
{
"Name": "Puntas Del Rosario",
"PostCode": "70200",
"Location": {
"Latitude": -33.9785,
"Longitude": -57.1794
}
},
{
"Name": "Puntas Del Sauce",
"PostCode": "70600",
"Location": {
"Latitude": -33.8215,
"Longitude": -57.0195
}
},
{
"Name": "Quinton",
"PostCode": "70000",
"Location": {
"Latitude": -34.328,
"Longitude": -57.7043
}
},
{
"Name": "Radial Hernandez",
"PostCode": "70000",
"Location": {
"Latitude": -34.328,
"Longitude": -57.7043
}
},
{
"Name": "Radial Rosario",
"PostCode": "70200",
"Location": {
"Latitude": -34.2333,
"Longitude": -57.36
}
},
{
"Name": "Real De Vera",
"PostCode": "70000",
"Location": {
"Latitude": -34.328,
"Longitude": -57.7043
}
},
{
"Name": "Reducto",
"PostCode": "70000",
"Location": {
"Latitude": -34.8833,
"Longitude": -56.1833
}
},
{
"Name": "Resguardo Cufre",
"PostCode": "70300",
"Location": {
"Latitude": -34.398,
"Longitude": -56.9659
}
},
{
"Name": "Riachuelo",
"PostCode": "70000",
"Location": {
"Latitude": -34.43,
"Longitude": -57.7296
}
},
{
"Name": "Rincon Del Rey",
"PostCode": "70300",
"Location": {
"Latitude": -34.398,
"Longitude": -56.9659
}
},
{
"Name": "Rosario",
"PostCode": "70200",
"Location": {
"Latitude": -34.3167,
"Longitude": -57.35
}
},
{
"Name": "Rosario Y Colla",
"PostCode": "70200",
"Location": {
"Latitude": -34.2753,
"Longitude": -57.335
}
},
{
"Name": "San Juan",
"PostCode": "70600",
"Location": {
"Latitude": -34.204,
"Longitude": -57.7994
}
},
{
"Name": "San Luis",
"PostCode": "70600",
"Location": {
"Latitude": -34.2408,
"Longitude": -57.5501
}
},
{
"Name": "San Luis De Tarariras",
"PostCode": "70600",
"Location": {
"Latitude": -34.1473,
"Longitude": -57.5886
}
},
{
"Name": "San Luis Sanchez",
"PostCode": "70600",
"Location": {
"Latitude": -34.1728,
"Longitude": -57.6732
}
},
{
"Name": "San Pedro",
"PostCode": "70000",
"Location": {
"Latitude": -34.35,
"Longitude": -57.85
}
},
{
"Name": "San Pedro De Arriba",
"PostCode": "70000",
"Location": {
"Latitude": -34.328,
"Longitude": -57.7043
}
},
{
"Name": "San Pedro Norte",
"PostCode": "70000",
"Location": {
"Latitude": -34.2837,
"Longitude": -57.8277
}
},
{
"Name": "San Roque",
"PostCode": "70800",
"Location": {
"Latitude": -34.0384,
"Longitude": -58.0641
}
},
{
"Name": "Santa Ana",
"PostCode": "70000",
"Location": {
"Latitude": -34.4211,
"Longitude": -57.5954
}
},
{
"Name": "Santa Regina",
"PostCode": "70300",
"Location": {
"Latitude": -34.4373,
"Longitude": -57.1926
}
},
{
"Name": "Santa Rosa",
"PostCode": "70000",
"Location": {
"Latitude": -34.0845,
"Longitude": -57.9961
}
},
{
"Name": "Sarandi Campana",
"PostCode": "70800",
"Location": {
"Latitude": -34.0361,
"Longitude": -57.9562
}
},
{
"Name": "Tarariras",
"PostCode": "70600",
"Location": {
"Latitude": -34.2655,
"Longitude": -57.6187
}
},
{
"Name": "Terminal",
"PostCode": "70200",
"Location": {
"Latitude": -34.2333,
"Longitude": -57.36
}
},
{
"Name": "Tomas Bell",
"PostCode": "70500",
"Location": {
"Latitude": -34.4126,
"Longitude": -57.3965
}
},
{
"Name": "Tres Esquinas",
"PostCode": "70200",
"Location": {
"Latitude": -34.1223,
"Longitude": -57.3718
}
},
{
"Name": "Viboras",
"PostCode": "70100",
"Location": {
"Latitude": -33.9897,
"Longitude": -58.1504
}
},
{
"Name": "Viboras Y Vacas",
"PostCode": "70100",
"Location": {
"Latitude": -33.9293,
"Longitude": -58.1984
}
},
{
"Name": "Villa Pancha",
"PostCode": "70500",
"Location": {
"Latitude": -34.4126,
"Longitude": -57.3965
}
},
{
"Name": "Zagarzazu",
"PostCode": "70100",
"Location": {
"Latitude": -33.9635,
"Longitude": -58.3309
}
},
{
"Name": "Zunin",
"PostCode": "75200",
"Location": {
"Latitude": -33.7334,
"Longitude": -57.4003
}
}
]
}
]
}
]
},
{
"Name": "Durazno",
"Code": "05",
"Provinces": [
{
"Communities": [
{
"Places": [
{
"Name": "Abella",
"PostCode": "97000",
"Location": {
"Latitude": -33.0983,
"Longitude": -56.0159
}
},
{
"Name": "Aguas Buenas",
"PostCode": "97000",
"Location": {
"Latitude": -32.8,
"Longitude": -55.8
}
},
{
"Name": "Arroyo De Los Perros",
"PostCode": "97000",
"Location": {
"Latitude": -33.0983,
"Longitude": -56.0159
}
},
{
"Name": "Barrancas Coloradas",
"PostCode": "97000",
"Location": {
"Latitude": -34.2417,
"Longitude": -57.2209
}
},
{
"Name": "Barrio Duran",
"PostCode": "97000",
"Location": {
"Latitude": -33.0983,
"Longitude": -56.0159
}
},
{
"Name": "Batovi",
"PostCode": "97000",
"Location": {
"Latitude": -31.9167,
"Longitude": -55.9333
}
},
{
"Name": "Baygorria",
"PostCode": "97000",
"Location": {
"Latitude": -32.8768,
"Longitude": -56.8134
}
},
{
"Name": "Blanquillo",
"PostCode": "97000",
"Location": {
"Latitude": -32.7667,
"Longitude": -55.6333
}
},
{
"Name": "Blanquillo Al Oeste",
"PostCode": "97000",
"Location": {
"Latitude": -33.0983,
"Longitude": -56.0159
}
},
{
"Name": "Caballero",
"PostCode": "97000",
"Location": {
"Latitude": -33.0983,
"Longitude": -56.0159
}
},
{
"Name": "Capilla De Farruco",
"PostCode": "97000",
"Location": {
"Latitude": -32.8833,
"Longitude": -55.4167
}
},
{
"Name": "Carlos Reyles",
"PostCode": "97000",
"Location": {
"Latitude": -33.05,
"Longitude": -56.4833
}
},
{
"Name": "Ceibal",
"PostCode": "97000",
"Location": {
"Latitude": -32.8833,
"Longitude": -55.5167
}
},
{
"Name": "Cerrezuelo",
"PostCode": "97000",
"Location": {
"Latitude": -32.7667,
"Longitude": -55.4333
}
},
{
"Name": "Cerro Convento",
"PostCode": "97000",
"Location": {
"Latitude": -32.75,
"Longitude": -55.65
}
},
{
"Name": "Chacras De Durazno",
"PostCode": "97000",
"Location": {
"Latitude": -33.0983,
"Longitude": -56.0159
}
},
{
"Name": "Chileno",
"PostCode": "97000",
"Location": {
"Latitude": -33.0983,
"Longitude": -56.0159
}
},
{
"Name": "Chileno Chico",
"PostCode": "97000",
"Location": {
"Latitude": -33.0983,
"Longitude": -56.0159
}
},
{
"Name": "Chileno Grande (Aguero)",
"PostCode": "97000",
"Location": {
"Latitude": -33.0983,
"Longitude": -56.0159
}
},
{
"Name": "Costa De Cuadra",
"PostCode": "97000",
"Location": {
"Latitude": -33.0983,
"Longitude": -56.0159
}
},
{
"Name": "Cuchilla De Ramirez",
"PostCode": "97000",
"Location": {
"Latitude": -33.0983,
"Longitude": -56.0159
}
},
{
"Name": "Cuchilla Del Rincon",
"PostCode": "97000",
"Location": {
"Latitude": -33.0983,
"Longitude": -56.0159
}
},
{
"Name": "De Dios",
"PostCode": "98000",
"Location": {
"Latitude": -33.4201,
"Longitude": -55.4206
}
},
{
"Name": "Durazno",
"PostCode": "97000",
"Location": {
"Latitude": -33.3806,
"Longitude": -56.5236
}
},
{
"Name": "Elias Regules",
"PostCode": "98000",
"Location": {
"Latitude": -33.4201,
"Longitude": -55.4206
}
},
{
"Name": "Estacion Chileno",
"PostCode": "97000",
"Location": {
"Latitude": -33.0983,
"Longitude": -56.0159
}
},
{
"Name": "Feliciano",
"PostCode": "97000",
"Location": {
"Latitude": -33.1828,
"Longitude": -56.8117
}
},
{
"Name": "Fonseca",
"PostCode": "97000",
"Location": {
"Latitude": -33.0983,
"Longitude": -56.0159
}
},
{
"Name": "Higueras De Carpinteria",
"PostCode": "97000",
"Location": {
"Latitude": -33.0983,
"Longitude": -56.0159
}
},
{
"Name": "La Alegria",
"PostCode": "97000",
"Location": {
"Latitude": -32.6,
"Longitude": -55.5833
}
},
{
"Name": "La Mazamorra",
"PostCode": "97000",
"Location": {
"Latitude": -32.5333,
"Longitude": -55.5
}
},
{
"Name": "La Paloma",
"PostCode": "97000",
"Location": {
"Latitude": -32.7167,
"Longitude": -55.6
}
},
{
"Name": "Las Acacias",
"PostCode": "97000",
"Location": {
"Latitude": -33.0983,
"Longitude": -56.0159
}
},
{
"Name": "Las Cañas",
"PostCode": "97000",
"Location": {
"Latitude": -32.9333,
"Longitude": -55.5167
}
},
{
"Name": "Las Palmas",
"PostCode": "97000",
"Location": {
"Latitude": -33.0983,
"Longitude": -56.0159
}
},
{
"Name": "Las Tunas",
"PostCode": "97000",
"Location": {
"Latitude": -34.7802,
"Longitude": -55.5648
}
},
{
"Name": "Los Agregados",
"PostCode": "97000",
"Location": {
"Latitude": -32.7833,
"Longitude": -55.9
}
},
{
"Name": "Los Tapes",
"PostCode": "97000",
"Location": {
"Latitude": -33.0983,
"Longitude": -56.0159
}
},
{
"Name": "Maestre Campo",
"PostCode": "97000",
"Location": {
"Latitude": -33.0983,
"Longitude": -56.0159
}
},
{
"Name": "Malbajar Este",
"PostCode": "98000",
"Location": {
"Latitude": -33.4201,
"Longitude": -55.4206
}
},
{
"Name": "Malbajar Oeste",
"PostCode": "98000",
"Location": {
"Latitude": -33.4201,
"Longitude": -55.4206
}
},
{
"Name": "Maria Cejas",
"PostCode": "97000",
"Location": {
"Latitude": -33.0833,
"Longitude": -56.1833
}
},
{
"Name": "Mariscala",
"PostCode": "98000",
"Location": {
"Latitude": -34.0409,
"Longitude": -54.7773
}
},
{
"Name": "Mariscala Del Carmen",
"PostCode": "97000",
"Location": {
"Latitude": -33.0983,
"Longitude": -56.0159
}
},
{
"Name": "Molles Chico",
"PostCode": "45100",
"Location": {
"Latitude": -33.5,
"Longitude": -55.2167
}
},
{
"Name": "Molles De Quinteros",
"PostCode": "97000",
"Location": {
"Latitude": -33.0983,
"Longitude": -56.0159
}
},
{
"Name": "Mouriño",
"PostCode": "97000",
"Location": {
"Latitude": -32.9,
"Longitude": -56.1333
}
},
{
"Name": "Municipio De Durazno",
"PostCode": "97000",
"Location": {
"Latitude": -33.0983,
"Longitude": -56.0159
}
},
{
"Name": "Ombues De Oribe",
"PostCode": "97000",
"Location": {
"Latitude": -33.3,
"Longitude": -56.35
}
},
{
"Name": "Palmar De Porrua",
"PostCode": "65100",
"Location": {
"Latitude": -32.7917,
"Longitude": -57.4764
}
},
{
"Name": "Parada Sur",
"PostCode": "45100",
"Location": {
"Latitude": -32.8413,
"Longitude": -56.4527
}
},
{
"Name": "Parish",
"PostCode": "45100",
"Location": {
"Latitude": -32.8413,
"Longitude": -56.4527
}
},
{
"Name": "Paso De Aguirre",
"PostCode": "98000",
"Location": {
"Latitude": -33.4201,
"Longitude": -55.4206
}
},
{
"Name": "Paso De Castro",
"PostCode": "98000",
"Location": {
"Latitude": -33.4201,
"Longitude": -55.4206
}
},
{
"Name": "Paso Del Medio Las Palmas",
"PostCode": "98000",
"Location": {
"Latitude": -33.4201,
"Longitude": -55.4206
}
},
{
"Name": "Paso Ramirez",
"PostCode": "97000",
"Location": {
"Latitude": -33.0983,
"Longitude": -56.0159
}
},
{
"Name": "Paso Real De Carpinteria",
"PostCode": "97000",
"Location": {
"Latitude": -33.0983,
"Longitude": -56.0159
}
},
{
"Name": "Paso Tejera",
"PostCode": "97000",
"Location": {
"Latitude": -33.0983,
"Longitude": -56.0159
}
},
{
"Name": "Pueblo Centenario",
"PostCode": "45100",
"Location": {
"Latitude": -32.8667,
"Longitude": -56.4667
}
},
{
"Name": "Pueblo De Alvarez",
"PostCode": "97000",
"Location": {
"Latitude": -33.0983,
"Longitude": -56.0159
}
},
{
"Name": "Puglia",
"PostCode": "97000",
"Location": {
"Latitude": -33.0983,
"Longitude": -56.0159
}
},
{
"Name": "Puntas De Carpinteria",
"PostCode": "97000",
"Location": {
"Latitude": -33.0983,
"Longitude": -56.0159
}
},
{
"Name": "Puntas De Herrera",
"PostCode": "98000",
"Location": {
"Latitude": -33.4201,
"Longitude": -55.4206
}
},
{
"Name": "Puntas De Malbajar",
"PostCode": "98000",
"Location": {
"Latitude": -33.4201,
"Longitude": -55.4206
}
},
{
"Name": "Rincon De Cuadra",
"PostCode": "97000",
"Location": {
"Latitude": -33.3833,
"Longitude": -56.4167
}
},
{
"Name": "Rincon De Los Tapes",
"PostCode": "97000",
"Location": {
"Latitude": -33.0983,
"Longitude": -56.0159
}
},
{
"Name": "Rolon",
"PostCode": "97000",
"Location": {
"Latitude": -33.1167,
"Longitude": -55.9833
}
},
{
"Name": "Rossell Y Rius",
"PostCode": "98000",
"Location": {
"Latitude": -33.1833,
"Longitude": -55.7
}
},
{
"Name": "Salinas",
"PostCode": "97000",
"Location": {
"Latitude": -34.7724,
"Longitude": -55.8574
}
},
{
"Name": "Salinas Chico",
"PostCode": "97000",
"Location": {
"Latitude": -33.0983,
"Longitude": -56.0159
}
},
{
"Name": "San Jorge",
"PostCode": "97000",
"Location": {
"Latitude": -32.8667,
"Longitude": -55.9167
}
},
{
"Name": "San Jose De Las Cañas",
"PostCode": "97000",
"Location": {
"Latitude": -32.8333,
"Longitude": -55.4833
}
},
{
"Name": "Sandu Chico",
"PostCode": "97000",
"Location": {
"Latitude": -33.0983,
"Longitude": -56.0159
}
},
{
"Name": "Santa Bernardina",
"PostCode": "97000",
"Location": {
"Latitude": -33.3667,
"Longitude": -56.4833
}
},
{
"Name": "Sarandi De La China",
"PostCode": "45100",
"Location": {
"Latitude": -32.8413,
"Longitude": -56.4527
}
},
{
"Name": "Sarandi De Rio Negro",
"PostCode": "97000",
"Location": {
"Latitude": -32.5437,
"Longitude": -56.8658
}
},
{
"Name": "Sarandi Del Yi",
"PostCode": "98000",
"Location": {
"Latitude": -33.35,
"Longitude": -55.6333
}
},
{
"Name": "Sauce De Herrera",
"PostCode": "97000",
"Location": {
"Latitude": -33.0983,
"Longitude": -56.0159
}
},
{
"Name": "Tala De Mariscala",
"PostCode": "98000",
"Location": {
"Latitude": -33.4201,
"Longitude": -55.4206
}
},
{
"Name": "Tejera",
"PostCode": "97000",
"Location": {
"Latitude": -33.3333,
"Longitude": -56.4667
}
},
{
"Name": "Verdun",
"PostCode": "97000",
"Location": {
"Latitude": -32.6667,
"Longitude": -55.45
}
},
{
"Name": "Villa Del Carmen",
"PostCode": "97000",
"Location": {
"Latitude": -33.25,
"Longitude": -56.0167
}
},
{
"Name": "Villasboas",
"PostCode": "97000",
"Location": {
"Latitude": -33.0983,
"Longitude": -56.0159
}
}
]
}
]
}
]
},
{
"Name": "Flores",
"Code": "06",
"Provinces": [
{
"Communities": [
{
"Places": [
{
"Name": "Ahogados",
"PostCode": "94100",
"Location": {
"Latitude": -33.75,
"Longitude": -56.4667
}
},
{
"Name": "Andresito",
"PostCode": "85000",
"Location": {
"Latitude": -33.1683,
"Longitude": -57.1285
}
},
{
"Name": "Arenal Chico",
"PostCode": "85000",
"Location": {
"Latitude": -33.5785,
"Longitude": -57.1102
}
},
{
"Name": "Arenal Grande",
"PostCode": "85000",
"Location": {
"Latitude": -33.5592,
"Longitude": -56.904
}
},
{
"Name": "Arroyo Malo",
"PostCode": "85000",
"Location": {
"Latitude": -33.3333,
"Longitude": -56.9333
}
},
{
"Name": "Cañada Amilivia",
"PostCode": "85000",
"Location": {
"Latitude": -33.5592,
"Longitude": -56.904
}
},
{
"Name": "Cerro Colorado",
"PostCode": "85000",
"Location": {
"Latitude": -33.7262,
"Longitude": -56.7989
}
},
{
"Name": "Chacras",
"PostCode": "85000",
"Location": {
"Latitude": -33.5592,
"Longitude": -56.904
}
},
{
"Name": "Chacras De Borghi",
"PostCode": "85000",
"Location": {
"Latitude": -33.5592,
"Longitude": -56.904
}
},
{
"Name": "Colonia Alemana",
"PostCode": "85000",
"Location": {
"Latitude": -33.4618,
"Longitude": -57.0252
}
},
{
"Name": "Costas De San Jose",
"PostCode": "85000",
"Location": {
"Latitude": -33.85,
"Longitude": -56.8833
}
},
{
"Name": "Costas Del Tala",
"PostCode": "85000",
"Location": {
"Latitude": -33.5592,
"Longitude": -56.904
}
},
{
"Name": "Cuchilla De Villasboas",
"PostCode": "85000",
"Location": {
"Latitude": -33.5592,
"Longitude": -56.904
}
},
{
"Name": "El Coronilla",
"PostCode": "85000",
"Location": {
"Latitude": -33.2608,
"Longitude": -57.077
}
},
{
"Name": "El Totoral",
"PostCode": "85000",
"Location": {
"Latitude": -33.4318,
"Longitude": -56.9709
}
},
{
"Name": "Ferrizo",
"PostCode": "85000",
"Location": {
"Latitude": -33.5592,
"Longitude": -56.904
}
},
{
"Name": "Ismael Cortinas",
"PostCode": "85000",
"Location": {
"Latitude": -33.9606,
"Longitude": -57.0898
}
},
{
"Name": "Juan Jose Castro",
"PostCode": "85000",
"Location": {
"Latitude": -33.5,
"Longitude": -56.75
}
},
{
"Name": "La Alianza",
"PostCode": "85000",
"Location": {
"Latitude": -33.5592,
"Longitude": -56.904
}
},
{
"Name": "La Casilla",
"PostCode": "85000",
"Location": {
"Latitude": -33.6703,
"Longitude": -56.9472
}
},
{
"Name": "La Cordobesa",
"PostCode": "97000",
"Location": {
"Latitude": -33.0983,
"Longitude": -56.0159
}
},
{
"Name": "La Guardia",
"PostCode": "85000",
"Location": {
"Latitude": -33.5592,
"Longitude": -56.904
}
},
{
"Name": "Los Puentes",
"PostCode": "85000",
"Location": {
"Latitude": -33.5592,
"Longitude": -56.904
}
},
{
"Name": "Marincho",
"PostCode": "85000",
"Location": {
"Latitude": -33.2333,
"Longitude": -57.1333
}
},
{
"Name": "Paso  De Lugo",
"PostCode": "85000",
"Location": {
"Latitude": -33.5592,
"Longitude": -56.904
}
},
{
"Name": "Paso Hondo",
"PostCode": "85000",
"Location": {
"Latitude": -32.3333,
"Longitude": -55.8833
}
},
{
"Name": "Pueblo Pintos",
"PostCode": "85000",
"Location": {
"Latitude": -33.884,
"Longitude": -56.8384
}
},
{
"Name": "Puntas De Chamanga",
"PostCode": "85000",
"Location": {
"Latitude": -33.5592,
"Longitude": -56.904
}
},
{
"Name": "Puntas De Marincho",
"PostCode": "85000",
"Location": {
"Latitude": -33.5222,
"Longitude": -57.0497
}
},
{
"Name": "Puntas De San Jose",
"PostCode": "85000",
"Location": {
"Latitude": -33.5592,
"Longitude": -56.904
}
},
{
"Name": "Puntas De Sarandi",
"PostCode": "85000",
"Location": {
"Latitude": -33.5592,
"Longitude": -56.904
}
},
{
"Name": "Puntas Del Corral De Piedra",
"PostCode": "94100",
"Location": {
"Latitude": -33.5224,
"Longitude": -56.5237
}
},
{
"Name": "Puntas Del Sauce",
"PostCode": "85000",
"Location": {
"Latitude": -33.8215,
"Longitude": -57.0195
}
},
{
"Name": "Rincon Del Palacio",
"PostCode": "85000",
"Location": {
"Latitude": -33.5592,
"Longitude": -56.904
}
},
{
"Name": "San Gregorio De Flores",
"PostCode": "85000",
"Location": {
"Latitude": -33.5592,
"Longitude": -56.904
}
},
{
"Name": "Santa Adelaida",
"PostCode": "85000",
"Location": {
"Latitude": -33.7654,
"Longitude": -57.1544
}
},
{
"Name": "Sarandi",
"PostCode": "85000",
"Location": {
"Latitude": -33.7333,
"Longitude": -56.3333
}
},
{
"Name": "Talas De Maciel",
"PostCode": "94100",
"Location": {
"Latitude": -33.5224,
"Longitude": -56.5237
}
},
{
"Name": "Trinidad",
"PostCode": "85000",
"Location": {
"Latitude": -33.5389,
"Longitude": -56.8886
}
},
{
"Name": "Villa Pastora",
"PostCode": "85000",
"Location": {
"Latitude": -33.5592,
"Longitude": -56.904
}
},
{
"Name": "Villasboas",
"PostCode": "85000",
"Location": {
"Latitude": -33.5592,
"Longitude": -56.904
}
}
]
}
]
}
]
},
{
"Name": "Florida",
"Code": "07",
"Provinces": [
{
"Communities": [
{
"Places": [
{
"Name": "25 De Agosto",
"PostCode": "95400",
"Location": {
"Latitude": -34.4117,
"Longitude": -56.4022
}
},
{
"Name": "25 De Mayo",
"PostCode": "95100",
"Location": {
"Latitude": -34.1892,
"Longitude": -56.3394
}
},
{
"Name": "Alejandro Gallinal",
"PostCode": "96500",
"Location": {
"Latitude": -33.8625,
"Longitude": -55.5426
}
},
{
"Name": "Arrayan",
"PostCode": "34200",
"Location": {
"Latitude": -33.1944,
"Longitude": -55.3167
}
},
{
"Name": "Arroyo Chamizo",
"PostCode": "96200",
"Location": {
"Latitude": -34.2081,
"Longitude": -55.732
}
},
{
"Name": "Arroyo De Los Negros",
"PostCode": "94100",
"Location": {
"Latitude": -33.5224,
"Longitude": -56.5237
}
},
{
"Name": "Arroyo Latorre",
"PostCode": "96200",
"Location": {
"Latitude": -34.2081,
"Longitude": -55.732
}
},
{
"Name": "Arroyo Monzon",
"PostCode": "98000",
"Location": {
"Latitude": -33.4201,
"Longitude": -55.4206
}
},
{
"Name": "Arroyo Pelado",
"PostCode": "95500",
"Location": {
"Latitude": -34.2744,
"Longitude": -56.3578
}
},
{
"Name": "Arteaga",
"PostCode": "96500",
"Location": {
"Latitude": -33.8625,
"Longitude": -55.5426
}
},
{
"Name": "Barra Molles Del Timote",
"PostCode": "98000",
"Location": {
"Latitude": -33.4201,
"Longitude": -55.4206
}
},
{
"Name": "Barra Sauce De Mansavillagra",
"PostCode": "98000",
"Location": {
"Latitude": -33.4201,
"Longitude": -55.4206
}
},
{
"Name": "Berrondo",
"PostCode": "94000",
"Location": {
"Latitude": -34.1474,
"Longitude": -56.2812
}
},
{
"Name": "Calleri",
"PostCode": "94100",
"Location": {
"Latitude": -33.5224,
"Longitude": -56.5237
}
},
{
"Name": "Candil",
"PostCode": "94000",
"Location": {
"Latitude": -34.0667,
"Longitude": -56.3
}
},
{
"Name": "Capilla Del Sauce",
"PostCode": "98000",
"Location": {
"Latitude": -33.4167,
"Longitude": -55.6333
}
},
{
"Name": "Cardal",
"PostCode": "95200",
"Location": {
"Latitude": -34.2906,
"Longitude": -56.3889
}
},
{
"Name": "Caserio La Fundacion",
"PostCode": "94100",
"Location": {
"Latitude": -33.5224,
"Longitude": -56.5237
}
},
{
"Name": "Casupa",
"PostCode": "96300",
"Location": {
"Latitude": -34.0999,
"Longitude": -55.6481
}
},
{
"Name": "Cerro De La Macana",
"PostCode": "94000",
"Location": {
"Latitude": -34.1414,
"Longitude": -56.4228
}
},
{
"Name": "Cerros De Florida",
"PostCode": "94000",
"Location": {
"Latitude": -34.1414,
"Longitude": -56.4228
}
},
{
"Name": "Chacras De Florida",
"PostCode": "94000",
"Location": {
"Latitude": -34.1414,
"Longitude": -56.4228
}
},
{
"Name": "Chacras Del Pintado",
"PostCode": "94000",
"Location": {
"Latitude": -34.1414,
"Longitude": -56.4228
}
},
{
"Name": "Chamizo",
"PostCode": "96100",
"Location": {
"Latitude": -34.2413,
"Longitude": -55.9167
}
},
{
"Name": "Chamizo Chico",
"PostCode": "96100",
"Location": {
"Latitude": -34.2413,
"Longitude": -55.9167
}
},
{
"Name": "Chilcas",
"PostCode": "98000",
"Location": {
"Latitude": -33.55,
"Longitude": -55.6667
}
},
{
"Name": "Chingolas",
"PostCode": "98000",
"Location": {
"Latitude": -33.4201,
"Longitude": -55.4206
}
},
{
"Name": "Colonia Sanchez",
"PostCode": "94000",
"Location": {
"Latitude": -34.1414,
"Longitude": -56.4228
}
},
{
"Name": "Corral De Piedra",
"PostCode": "94100",
"Location": {
"Latitude": -33.8833,
"Longitude": -56.45
}
},
{
"Name": "Costa De Arias",
"PostCode": "94000",
"Location": {
"Latitude": -34.1414,
"Longitude": -56.4228
}
},
{
"Name": "Costa De Illescas",
"PostCode": "98000",
"Location": {
"Latitude": -33.4201,
"Longitude": -55.4206
}
},
{
"Name": "Costa De La Cruz",
"PostCode": "94000",
"Location": {
"Latitude": -34.1414,
"Longitude": -56.4228
}
},
{
"Name": "Costa De Parana",
"PostCode": "94100",
"Location": {
"Latitude": -33.5224,
"Longitude": -56.5237
}
},
{
"Name": "Costa Del Tala",
"PostCode": "94100",
"Location": {
"Latitude": -33.5224,
"Longitude": -56.5237
}
},
{
"Name": "Costas De Arias",
"PostCode": "94000",
"Location": {
"Latitude": -34.1414,
"Longitude": -56.4228
}
},
{
"Name": "Costas De Chamizo",
"PostCode": "96100",
"Location": {
"Latitude": -34.2413,
"Longitude": -55.9167
}
},
{
"Name": "Costas De Chamizo Grande",
"PostCode": "96200",
"Location": {
"Latitude": -34.2081,
"Longitude": -55.732
}
},
{
"Name": "Costas De Maciel",
"PostCode": "94100",
"Location": {
"Latitude": -33.5224,
"Longitude": -56.5237
}
},
{
"Name": "Costas De Santa Lucia Chico",
"PostCode": "95200",
"Location": {
"Latitude": -34.2906,
"Longitude": -56.3889
}
},
{
"Name": "Costas Del Amarillo",
"PostCode": "96300",
"Location": {
"Latitude": -34.0999,
"Longitude": -55.6481
}
},
{
"Name": "Costas Del Pintado",
"PostCode": "94000",
"Location": {
"Latitude": -34.1414,
"Longitude": -56.4228
}
},
{
"Name": "Costas Del Santa Lucia Grande",
"PostCode": "96100",
"Location": {
"Latitude": -34.2413,
"Longitude": -55.9167
}
},
{
"Name": "Cuchilla Santo Domingo",
"PostCode": "94100",
"Location": {
"Latitude": -33.5224,
"Longitude": -56.5237
}
},
{
"Name": "Dr. A. Gallinal",
"PostCode": "94000",
"Location": {
"Latitude": -34.1414,
"Longitude": -56.4228
}
},
{
"Name": "Estacion Capilla Del Sauce",
"PostCode": "98000",
"Location": {
"Latitude": -33.4201,
"Longitude": -55.4206
}
},
{
"Name": "Ferrer",
"PostCode": "98000",
"Location": {
"Latitude": -33.4833,
"Longitude": -55.5667
}
},
{
"Name": "Florida",
"PostCode": "94000",
"Location": {
"Latitude": -34.0956,
"Longitude": -56.2142
}
},
{
"Name": "Fray Marcos",
"PostCode": "96200",
"Location": {
"Latitude": -34.1939,
"Longitude": -55.7345
}
},
{
"Name": "Goñi",
"PostCode": "97000",
"Location": {
"Latitude": -33.5167,
"Longitude": -56.4
}
},
{
"Name": "Hernandarias",
"PostCode": "94000",
"Location": {
"Latitude": -34.1414,
"Longitude": -56.4228
}
},
{
"Name": "Independencia",
"PostCode": "95300",
"Location": {
"Latitude": -34.3517,
"Longitude": -56.3983
}
},
{
"Name": "Juncal",
"PostCode": "94000",
"Location": {
"Latitude": -34.0971,
"Longitude": -56.1851
}
},
{
"Name": "La Cimbra",
"PostCode": "94100",
"Location": {
"Latitude": -33.5224,
"Longitude": -56.5237
}
},
{
"Name": "La Cruz",
"PostCode": "94000",
"Location": {
"Latitude": -33.9299,
"Longitude": -56.2385
}
},
{
"Name": "La Escobilla",
"PostCode": "96200",
"Location": {
"Latitude": -34.2081,
"Longitude": -55.732
}
},
{
"Name": "La Macana",
"PostCode": "94000",
"Location": {
"Latitude": -34.05,
"Longitude": -56.2
}
},
{
"Name": "La Palma",
"PostCode": "98000",
"Location": {
"Latitude": -33.4201,
"Longitude": -55.4206
}
},
{
"Name": "La Victoria",
"PostCode": "98000",
"Location": {
"Latitude": -33.4201,
"Longitude": -55.4206
}
},
{
"Name": "Las Piedritas",
"PostCode": "94000",
"Location": {
"Latitude": -34.1414,
"Longitude": -56.4228
}
},
{
"Name": "Mansavillagra",
"PostCode": "98000",
"Location": {
"Latitude": -33.4201,
"Longitude": -55.4206
}
},
{
"Name": "Mendoza Chico",
"PostCode": "95600",
"Location": {
"Latitude": -34.2375,
"Longitude": -56.2167
}
},
{
"Name": "Mendoza Grande",
"PostCode": "95500",
"Location": {
"Latitude": -34.2744,
"Longitude": -56.3578
}
},
{
"Name": "Molles Del Pescado",
"PostCode": "34200",
"Location": {
"Latitude": -33.4667,
"Longitude": -55.2
}
},
{
"Name": "Molles Del Timote",
"PostCode": "94000",
"Location": {
"Latitude": -34.1414,
"Longitude": -56.4228
}
},
{
"Name": "Montecoral",
"PostCode": "98000",
"Location": {
"Latitude": -33.4201,
"Longitude": -55.4206
}
},
{
"Name": "Nico Perez",
"PostCode": "34200",
"Location": {
"Latitude": -33.4833,
"Longitude": -55.15
}
},
{
"Name": "Palermo",
"PostCode": "94000",
"Location": {
"Latitude": -34.9102,
"Longitude": -56.1784
}
},
{
"Name": "Pantanoso De Castro",
"PostCode": "94000",
"Location": {
"Latitude": -34.1414,
"Longitude": -56.4228
}
},
{
"Name": "Paso Calleros",
"PostCode": "94000",
"Location": {
"Latitude": -34.1414,
"Longitude": -56.4228
}
},
{
"Name": "Paso De Los Novillos",
"PostCode": "95100",
"Location": {
"Latitude": -34.166,
"Longitude": -56.4012
}
},
{
"Name": "Paso Real De Mansavillagra",
"PostCode": "96500",
"Location": {
"Latitude": -33.8625,
"Longitude": -55.5426
}
},
{
"Name": "Paso Vela",
"PostCode": "95100",
"Location": {
"Latitude": -34.1776,
"Longitude": -56.3703
}
},
{
"Name": "Piedra Campana",
"PostCode": "96400",
"Location": {
"Latitude": -33.9911,
"Longitude": -55.6474
}
},
{
"Name": "Piedras Coloradas",
"PostCode": "94100",
"Location": {
"Latitude": -32.3718,
"Longitude": -57.609
}
},
{
"Name": "Pintado",
"PostCode": "94100",
"Location": {
"Latitude": -33.8347,
"Longitude": -56.307
}
},
{
"Name": "Polanco Del Yi",
"PostCode": "94100",
"Location": {
"Latitude": -33.4833,
"Longitude": -56.15
}
},
{
"Name": "Pueblo De Los Morochos",
"PostCode": "35100",
"Location": {
"Latitude": -33.2667,
"Longitude": -55.1
}
},
{
"Name": "Puente De Mendoza",
"PostCode": "95500",
"Location": {
"Latitude": -34.2744,
"Longitude": -56.3578
}
},
{
"Name": "Puntas De Calleros",
"PostCode": "94000",
"Location": {
"Latitude": -34.1414,
"Longitude": -56.4228
}
},
{
"Name": "Puntas De Chamame",
"PostCode": "96500",
"Location": {
"Latitude": -33.8625,
"Longitude": -55.5426
}
},
{
"Name": "Puntas De Chamizo",
"PostCode": "96300",
"Location": {
"Latitude": -34.0999,
"Longitude": -55.6481
}
},
{
"Name": "Puntas De Illescas",
"PostCode": "34200",
"Location": {
"Latitude": -33.1944,
"Longitude": -55.3167
}
},
{
"Name": "Puntas De La Escobilla",
"PostCode": "96200",
"Location": {
"Latitude": -34.2081,
"Longitude": -55.732
}
},
{
"Name": "Puntas De Maciel",
"PostCode": "94100",
"Location": {
"Latitude": -33.6,
"Longitude": -56.35
}
},
{
"Name": "Puntas De Mansavillagra",
"PostCode": "96500",
"Location": {
"Latitude": -33.8625,
"Longitude": -55.5426
}
},
{
"Name": "Puntas De Sarandi",
"PostCode": "94100",
"Location": {
"Latitude": -33.5224,
"Longitude": -56.5237
}
},
{
"Name": "Puntas De Sauce De Maciel",
"PostCode": "94100",
"Location": {
"Latitude": -33.5224,
"Longitude": -56.5237
}
},
{
"Name": "Puntas Del Arroyo Latorre",
"PostCode": "96200",
"Location": {
"Latitude": -34.2081,
"Longitude": -55.732
}
},
{
"Name": "Reboledo",
"PostCode": "96400",
"Location": {
"Latitude": -33.9911,
"Longitude": -55.6474
}
},
{
"Name": "Rincon De Los Camilos",
"PostCode": "97000",
"Location": {
"Latitude": -33.0983,
"Longitude": -56.0159
}
},
{
"Name": "Rincon De Vignoli",
"PostCode": "95500",
"Location": {
"Latitude": -34.2744,
"Longitude": -56.3578
}
},
{
"Name": "Rincon Sauce Del Yi",
"PostCode": "98000",
"Location": {
"Latitude": -33.4201,
"Longitude": -55.4206
}
},
{
"Name": "San Gabriel",
"PostCode": "94000",
"Location": {
"Latitude": -34.05,
"Longitude": -55.8833
}
},
{
"Name": "San Geronimo",
"PostCode": "94000",
"Location": {
"Latitude": -34.1414,
"Longitude": -56.4228
}
},
{
"Name": "San Juan",
"PostCode": "94000",
"Location": {
"Latitude": -33.9333,
"Longitude": -57.4667
}
},
{
"Name": "San Pedro De Timote",
"PostCode": "94000",
"Location": {
"Latitude": -34.1414,
"Longitude": -56.4228
}
},
{
"Name": "Santa Clara",
"PostCode": "98000",
"Location": {
"Latitude": -32.9167,
"Longitude": -54.9667
}
},
{
"Name": "Santa Teresa",
"PostCode": "94000",
"Location": {
"Latitude": -34.4333,
"Longitude": -57.7167
}
},
{
"Name": "Sarandi Grande",
"PostCode": "94100",
"Location": {
"Latitude": -33.7333,
"Longitude": -56.3333
}
},
{
"Name": "Sauce De Maciel",
"PostCode": "94100",
"Location": {
"Latitude": -33.5224,
"Longitude": -56.5237
}
},
{
"Name": "Sauce De Villanueva",
"PostCode": "97000",
"Location": {
"Latitude": -33.0983,
"Longitude": -56.0159
}
},
{
"Name": "Sauce Del Yi",
"PostCode": "97000",
"Location": {
"Latitude": -33.4667,
"Longitude": -55.6167
}
},
{
"Name": "Tabare",
"PostCode": "98000",
"Location": {
"Latitude": -33.4201,
"Longitude": -55.4206
}
},
{
"Name": "Tala De Castro",
"PostCode": "94000",
"Location": {
"Latitude": -34.1414,
"Longitude": -56.4228
}
},
{
"Name": "Tala De Maciel",
"PostCode": "94100",
"Location": {
"Latitude": -33.5224,
"Longitude": -56.5237
}
},
{
"Name": "Talita",
"PostCode": "94000",
"Location": {
"Latitude": -33.9252,
"Longitude": -56.0422
}
},
{
"Name": "Tornero",
"PostCode": "94000",
"Location": {
"Latitude": -34.1414,
"Longitude": -56.4228
}
},
{
"Name": "Urioste",
"PostCode": "94000",
"Location": {
"Latitude": -34.1414,
"Longitude": -56.4228
}
},
{
"Name": "Vignoli",
"PostCode": "96300",
"Location": {
"Latitude": -34.0999,
"Longitude": -55.6481
}
},
{
"Name": "Villa Hipica",
"PostCode": "94100",
"Location": {
"Latitude": -33.5224,
"Longitude": -56.5237
}
},
{
"Name": "Villa Vieja",
"PostCode": "94000",
"Location": {
"Latitude": -34.0584,
"Longitude": -56.3673
}
}
]
}
]
}
]
},
{
"Name": "Lavalleja",
"Code": "08",
"Provinces": [
{
"Communities": [
{
"Places": [
{
"Name": "19 De Junio",
"PostCode": "30300",
"Location": {
"Latitude": -33.6102,
"Longitude": -54.3299
}
},
{
"Name": "Abra De Zabaleta",
"PostCode": "30000",
"Location": {
"Latitude": -34.0654,
"Longitude": -55.0475
}
},
{
"Name": "Aguas Blancas",
"PostCode": "30100",
"Location": {
"Latitude": -34.6146,
"Longitude": -55.4214
}
},
{
"Name": "Alonso",
"PostCode": "30300",
"Location": {
"Latitude": -33.4199,
"Longitude": -54.388
}
},
{
"Name": "Aramendia",
"PostCode": "30300",
"Location": {
"Latitude": -33.6378,
"Longitude": -54.6195
}
},
{
"Name": "Arequita",
"PostCode": "30000",
"Location": {
"Latitude": -34.0654,
"Longitude": -55.0475
}
},
{
"Name": "Arroyo De Los Patos",
"PostCode": "30000",
"Location": {
"Latitude": -34.0654,
"Longitude": -55.0475
}
},
{
"Name": "Arroyo Del Medio",
"PostCode": "30000",
"Location": {
"Latitude": -34.0654,
"Longitude": -55.0475
}
},
{
"Name": "Azucar",
"PostCode": "30300",
"Location": {
"Latitude": -34.7787,
"Longitude": -55.2358
}
},
{
"Name": "Barra De Los Chanchos",
"PostCode": "30000",
"Location": {
"Latitude": -34.0654,
"Longitude": -55.0475
}
},
{
"Name": "Barrancas",
"PostCode": "30000",
"Location": {
"Latitude": -33.6341,
"Longitude": -53.8059
}
},
{
"Name": "Barriga Negra",
"PostCode": "30000",
"Location": {
"Latitude": -34.0654,
"Longitude": -55.0475
}
},
{
"Name": "Barrio La Coronilla - Ancap",
"PostCode": "30000",
"Location": {
"Latitude": -34.3947,
"Longitude": -55.299
}
},
{
"Name": "Blanes Viale",
"PostCode": "30000",
"Location": {
"Latitude": -34.0654,
"Longitude": -55.0475
}
},
{
"Name": "Campanero",
"PostCode": "30000",
"Location": {
"Latitude": -34.3307,
"Longitude": -55.25
}
},
{
"Name": "Canteras Del Verdun",
"PostCode": "30000",
"Location": {
"Latitude": -34.0654,
"Longitude": -55.0475
}
},
{
"Name": "Carnales",
"PostCode": "30300",
"Location": {
"Latitude": -33.6167,
"Longitude": -54.5703
}
},
{
"Name": "Casupa Chico",
"PostCode": "30000",
"Location": {
"Latitude": -34.0654,
"Longitude": -55.0475
}
},
{
"Name": "Cerro Pelado",
"PostCode": "30000",
"Location": {
"Latitude": -34.8815,
"Longitude": -54.9767
}
},
{
"Name": "Chamame",
"PostCode": "30000",
"Location": {
"Latitude": -34.0654,
"Longitude": -55.0475
}
},
{
"Name": "Colon",
"PostCode": "30000",
"Location": {
"Latitude": -33.8764,
"Longitude": -54.7203
}
},
{
"Name": "Consejo Del Niño",
"PostCode": "30000",
"Location": {
"Latitude": -34.0654,
"Longitude": -55.0475
}
},
{
"Name": "Costa Del Lenguazo",
"PostCode": "30000",
"Location": {
"Latitude": -34.0654,
"Longitude": -55.0475
}
},
{
"Name": "Costas De Corrales",
"PostCode": "30300",
"Location": {
"Latitude": -33.6167,
"Longitude": -54.5703
}
},
{
"Name": "Costas Del Soldado",
"PostCode": "30000",
"Location": {
"Latitude": -34.1906,
"Longitude": -55.3451
}
},
{
"Name": "El Alto",
"PostCode": "30000",
"Location": {
"Latitude": -34.0654,
"Longitude": -55.0475
}
},
{
"Name": "El Perdido",
"PostCode": "30000",
"Location": {
"Latitude": -34.0654,
"Longitude": -55.0475
}
},
{
"Name": "El Soldado",
"PostCode": "30000",
"Location": {
"Latitude": -34.2057,
"Longitude": -55.3622
}
},
{
"Name": "El Tigre",
"PostCode": "30000",
"Location": {
"Latitude": -34.0654,
"Longitude": -55.0475
}
},
{
"Name": "Espuelitas",
"PostCode": "30000",
"Location": {
"Latitude": -34.0654,
"Longitude": -55.0475
}
},
{
"Name": "Estacion Andreoni",
"PostCode": "30000",
"Location": {
"Latitude": -34.0654,
"Longitude": -55.0475
}
},
{
"Name": "Estacion Ortiz",
"PostCode": "30000",
"Location": {
"Latitude": -34.3398,
"Longitude": -55.3933
}
},
{
"Name": "Estacion Solis",
"PostCode": "30000",
"Location": {
"Latitude": -34.3663,
"Longitude": -55.4478
}
},
{
"Name": "Gaetan (Cuchilla De Carbajal)",
"PostCode": "96300",
"Location": {
"Latitude": -34.0999,
"Longitude": -55.6481
}
},
{
"Name": "Godoy",
"PostCode": "34200",
"Location": {
"Latitude": -31.7667,
"Longitude": -56.0167
}
},