[
{
"Provinces": [
{
"Communities": [
{
"Places": [
{
"Name": "Aberdeen",
"PostCode": "6270",
"Latitude": -32.4833,
"Longitude": 24.0667
},
{
"Name": "Acornhoek",
"PostCode": "1227",
"Latitude": -24.5833,
"Longitude": 31.0833
},
{
"Name": "Acornhoek",
"PostCode": "1360",
"Latitude": -24.5833,
"Longitude": 31.0833
},
{
"Name": "Acornhoek",
"PostCode": "1361",
"Latitude": -24.5833,
"Longitude": 31.0833
},
{
"Name": "Acornhoek",
"PostCode": "1365",
"Latitude": -24.5833,
"Longitude": 31.0833
},
{
"Name": "Acornhoek",
"PostCode": "1367",
"Latitude": -24.5833,
"Longitude": 31.0833
},
{
"Name": "Acornhoek",
"PostCode": "1370",
"Latitude": -24.5833,
"Longitude": 31.0833
},
{
"Name": "Acornhoek",
"PostCode": "1378",
"Latitude": -24.5833,
"Longitude": 31.0833
},
{
"Name": "Addo",
"PostCode": "6105",
"Latitude": -33.5667,
"Longitude": 25.6833
},
{
"Name": "Addo",
"PostCode": "6107",
"Latitude": -33.5667,
"Longitude": 25.6833
},
{
"Name": "Addo",
"PostCode": "6109",
"Latitude": -33.5667,
"Longitude": 25.6833
},
{
"Name": "Addo",
"PostCode": "6115",
"Latitude": -33.5667,
"Longitude": 25.6833
},
{
"Name": "Adelaide",
"PostCode": "5760",
"Latitude": -32.7,
"Longitude": 26.3
},
{
"Name": "Adendorp",
"PostCode": "6282",
"Latitude": -32.3,
"Longitude": 24.55
},
{
"Name": "Albertina",
"PostCode": "6695",
"Latitude": -34.2,
"Longitude": 21.5833
},
{
"Name": "Albertina",
"PostCode": "6696",
"Latitude": -34.2,
"Longitude": 21.5833
},
{
"Name": "Albertinia",
"PostCode": "6695",
"Latitude": -34.2,
"Longitude": 21.5833
},
{
"Name": "Alberton",
"PostCode": "1447",
"Latitude": -26.2333,
"Longitude": 28.1333
},
{
"Name": "Alberton",
"PostCode": "1448",
"Latitude": -26.2333,
"Longitude": 28.1333
},
{
"Name": "Alberton",
"PostCode": "1449",
"Latitude": -26.2333,
"Longitude": 28.1333
},
{
"Name": "Alberton",
"PostCode": "1451",
"Latitude": -26.2333,
"Longitude": 28.1333
},
{
"Name": "Alberton",
"PostCode": "1452",
"Latitude": -26.2333,
"Longitude": 28.1333
},
{
"Name": "Alberton",
"PostCode": "1453",
"Latitude": -26.2333,
"Longitude": 28.1333
},
{
"Name": "Alberton",
"PostCode": "1454",
"Latitude": -26.2333,
"Longitude": 28.1333
},
{
"Name": "Alberton",
"PostCode": "1455",
"Latitude": -26.2333,
"Longitude": 28.1333
},
{
"Name": "Alberton",
"PostCode": "1456",
"Latitude": -26.2333,
"Longitude": 28.1333
},
{
"Name": "Alberton",
"PostCode": "1457",
"Latitude": -26.2333,
"Longitude": 28.1333
},
{
"Name": "Alberton",
"PostCode": "1458",
"Latitude": -26.2333,
"Longitude": 28.1333
},
{
"Name": "Alberton",
"PostCode": "1481",
"Latitude": -26.2333,
"Longitude": 28.1333
},
{
"Name": "Alexander Bay",
"PostCode": "8290",
"Latitude": -28.5833,
"Longitude": 16.4833
},
{
"Name": "Alexander Bay",
"PostCode": "8292",
"Latitude": -28.5833,
"Longitude": 16.4833
},
{
"Name": "Alexander Bay",
"PostCode": "8294",
"Latitude": -28.5833,
"Longitude": 16.4833
},
{
"Name": "Alexandria",
"PostCode": "6185",
"Latitude": -24.9167,
"Longitude": 31.15
},
{
"Name": "Alexandria",
"PostCode": "6186",
"Latitude": -24.9167,
"Longitude": 31.15
},
{
"Name": "Alexandria",
"PostCode": "6187",
"Latitude": -24.9167,
"Longitude": 31.15
},
{
"Name": "Alexandria",
"PostCode": "6189",
"Latitude": -24.9167,
"Longitude": 31.15
},
{
"Name": "Alice",
"PostCode": "5700",
"Latitude": -32.7833,
"Longitude": 26.8333
},
{
"Name": "Alice",
"PostCode": "5701",
"Latitude": -32.7833,
"Longitude": 26.8333
},
{
"Name": "Alice",
"PostCode": "5702",
"Latitude": -32.7833,
"Longitude": 26.8333
},
{
"Name": "Alice",
"PostCode": "5703",
"Latitude": -32.7833,
"Longitude": 26.8333
},
{
"Name": "Alice",
"PostCode": "5705",
"Latitude": -32.7833,
"Longitude": 26.8333
},
{
"Name": "Alice",
"PostCode": "5706",
"Latitude": -32.7833,
"Longitude": 26.8333
},
{
"Name": "Alice",
"PostCode": "5708",
"Latitude": -32.7833,
"Longitude": 26.8333
},
{
"Name": "Alicedale",
"PostCode": "6135",
"Latitude": -33.3167,
"Longitude": 26.0833
},
{
"Name": "Aliwal North",
"PostCode": "9750",
"Latitude": -30.7,
"Longitude": 26.7
},
{
"Name": "Aliwal North",
"PostCode": "9752",
"Latitude": -30.7,
"Longitude": 26.7
},
{
"Name": "Aliwal North",
"PostCode": "9754",
"Latitude": -30.7,
"Longitude": 26.7
},
{
"Name": "Aliwal-Noord",
"PostCode": "9750",
"Latitude": -30.7,
"Longitude": 26.7
},
{
"Name": "Allanridge",
"PostCode": "9490",
"Latitude": -27.75,
"Longitude": 26.6667
},
{
"Name": "Allanridge",
"PostCode": "9492",
"Latitude": -27.75,
"Longitude": 26.6667
},
{
"Name": "Allen'S Nek",
"PostCode": "1709",
"Latitude": -31.6667,
"Longitude": 28.0333
},
{
"Name": "Allen'S Nek",
"PostCode": "1737",
"Latitude": -31.6667,
"Longitude": 28.0333
},
{
"Name": "Alrode",
"PostCode": "1428",
"Latitude": -26.3,
"Longitude": 28.1333
},
{
"Name": "Alrode",
"PostCode": "1451",
"Latitude": -26.2333,
"Longitude": 28.1333
},
{
"Name": "Alrode",
"PostCode": "1484",
"Latitude": -26.3,
"Longitude": 28.1333
},
{
"Name": "Amanzimtoti",
"PostCode": "3279",
"Latitude": -30.05,
"Longitude": 30.8833
},
{
"Name": "Amanzimtoti",
"PostCode": "4100",
"Latitude": -30.05,
"Longitude": 30.8833
},
{
"Name": "Amanzimtoti",
"PostCode": "4120",
"Latitude": -30.05,
"Longitude": 30.8833
},
{
"Name": "Amanzimtoti",
"PostCode": "4125",
"Latitude": -30.05,
"Longitude": 30.8833
},
{
"Name": "Amanzimtoti",
"PostCode": "4126",
"Latitude": -30.05,
"Longitude": 30.8833
},
{
"Name": "Amanzimtoti",
"PostCode": "4135",
"Latitude": -30.05,
"Longitude": 30.8833
},
{
"Name": "Amanzimtoti",
"PostCode": "4136",
"Latitude": -30.05,
"Longitude": 30.8833
},
{
"Name": "Amanzimtoti",
"PostCode": "4140",
"Latitude": -30.05,
"Longitude": 30.8833
},
{
"Name": "Amanzimtoti",
"PostCode": "4145",
"Latitude": -30.05,
"Longitude": 30.8833
},
{
"Name": "Amanzimtoti",
"PostCode": "4150",
"Latitude": -30.05,
"Longitude": 30.8833
},
{
"Name": "Amanzimtoti",
"PostCode": "4155",
"Latitude": -30.05,
"Longitude": 30.8833
},
{
"Name": "Amanzimtoti",
"PostCode": "4160",
"Latitude": -30.05,
"Longitude": 30.8833
},
{
"Name": "Amersfoort",
"PostCode": "2490",
"Latitude": -26.9833,
"Longitude": 28.85
},
{
"Name": "Amsterdam",
"PostCode": "2375",
"Latitude": -26.6167,
"Longitude": 30.6667
},
{
"Name": "Anerley",
"PostCode": "4230",
"Latitude": -30.6667,
"Longitude": 30.5
},
{
"Name": "Arlington",
"PostCode": "9602",
"Latitude": -28.0333,
"Longitude": 27.85
},
{
"Name": "Ashton",
"PostCode": "6715",
"Latitude": -33.8167,
"Longitude": 20.05
},
{
"Name": "Athlone",
"PostCode": "7764",
"Latitude": -33.9667,
"Longitude": 18.5
},
{
"Name": "Atlantis",
"PostCode": "7304",
"Latitude": -33.5667,
"Longitude": 18.4833
},
{
"Name": "Atlantis",
"PostCode": "7348",
"Latitude": -33.5667,
"Longitude": 18.4833
},
{
"Name": "Atlantis",
"PostCode": "7349",
"Latitude": -33.5667,
"Longitude": 18.4833
},
{
"Name": "Atlantis",
"PostCode": "7350",
"Latitude": -33.5667,
"Longitude": 18.4833
},
{
"Name": "Atlantis",
"PostCode": "7353",
"Latitude": -33.5667,
"Longitude": 18.4833
},
{
"Name": "Atlantis",
"PostCode": "7354",
"Latitude": -33.5667,
"Longitude": 18.4833
},
{
"Name": "Atlantis",
"PostCode": "7358",
"Latitude": -33.5667,
"Longitude": 18.4833
},
{
"Name": "Atok",
"PostCode": "0749",
"Latitude": -23.95,
"Longitude": 29.1333
},
{
"Name": "Atteridgeville",
"PostCode": "0008",
"Latitude": -25.7728,
"Longitude": 28.0678
},
{
"Name": "Bakone",
"PostCode": "0746",
"Latitude": -23.95,
"Longitude": 29.1333
},
{
"Name": "Bakone",
"PostCode": "0757",
"Latitude": -23.6774,
"Longitude": 29.4869
},
{
"Name": "Balfour",
"PostCode": "2410",
"Latitude": -26.65,
"Longitude": 28.5833
},
{
"Name": "Bamokgoko",
"PostCode": "0432",
"Latitude": -25.1039,
"Longitude": 28.5219
},
{
"Name": "Barberton",
"PostCode": "1300",
"Latitude": -25.7833,
"Longitude": 31.05
},
{
"Name": "Barberton",
"PostCode": "1303",
"Latitude": -25.7833,
"Longitude": 31.05
},
{
"Name": "Barberton",
"PostCode": "1307",
"Latitude": -25.7833,
"Longitude": 31.05
},
{
"Name": "Barberton",
"PostCode": "1309",
"Latitude": -25.7833,
"Longitude": 31.05
},
{
"Name": "Barkly East",
"PostCode": "9786",
"Latitude": -30.9667,
"Longitude": 27.6
},
{
"Name": "Barkly East",
"PostCode": "9787",
"Latitude": -30.9667,
"Longitude": 27.6
},
{
"Name": "Barkly West",
"PostCode": "8375",
"Latitude": -28.5333,
"Longitude": 24.5167
},
{
"Name": "Barkly West",
"PostCode": "8376",
"Latitude": -28.5333,
"Longitude": 24.5167
},
{
"Name": "Barkly West",
"PostCode": "8377",
"Latitude": -28.5333,
"Longitude": 24.5167
},
{
"Name": "Bathurst",
"PostCode": "6166",
"Latitude": -33.4833,
"Longitude": 26.8333
},
{
"Name": "Beaconsfield",
"PostCode": "8315",
"Latitude": -22.9333,
"Longitude": 30.1167
},
{
"Name": "Beaufort Wes",
"PostCode": "6970",
"Latitude": -32.35,
"Longitude": 22.5833
},
{
"Name": "Beaufort West",
"PostCode": "6940",
"Latitude": -32.35,
"Longitude": 22.5833
},
{
"Name": "Beaufort West",
"PostCode": "6950",
"Latitude": -32.35,
"Longitude": 22.5833
},
{
"Name": "Beaufort West",
"PostCode": "6970",
"Latitude": -32.35,
"Longitude": 22.5833
},
{
"Name": "Beaufort West",
"PostCode": "6973",
"Latitude": -32.35,
"Longitude": 22.5833
},
{
"Name": "Beaufort-Wes",
"PostCode": "6970",
"Latitude": -32.35,
"Longitude": 22.5833
},
{
"Name": "Bedford",
"PostCode": "5780",
"Latitude": -32.6833,
"Longitude": 26.0833
},
{
"Name": "Bedfordview",
"PostCode": "2007",
"Latitude": -26.1667,
"Longitude": 28.15
},
{
"Name": "Bedworth Park",
"PostCode": "1940",
"Latitude": -26.7167,
"Longitude": 27.8833
},
{
"Name": "Bekkersdal",
"PostCode": "1779",
"Latitude": -26.2833,
"Longitude": 27.7167
},
{
"Name": "Bekkersdal",
"PostCode": "1782",
"Latitude": -26.3167,
"Longitude": 27.65
},
{
"Name": "Belfast",
"PostCode": "1100",
"Latitude": -25.6833,
"Longitude": 30.0333
},
{
"Name": "Belfast",
"PostCode": "1101",
"Latitude": -25.6833,
"Longitude": 30.0333
},
{
"Name": "Belfast",
"PostCode": "1102",
"Latitude": -25.6833,
"Longitude": 30.0333
},
{
"Name": "Belfast",
"PostCode": "1121",
"Latitude": -25.6833,
"Longitude": 30.0333
},
{
"Name": "Belfast",
"PostCode": "1130",
"Latitude": -25.6833,
"Longitude": 30.0333
},
{
"Name": "Belfast",
"PostCode": "1151",
"Latitude": -25.6833,
"Longitude": 30.0333
},
{
"Name": "Belfast",
"PostCode": "1152",
"Latitude": -25.6833,
"Longitude": 30.0333
},
{
"Name": "Belfast",
"PostCode": "1153",
"Latitude": -24.9333,
"Longitude": 31.3667
},
{
"Name": "Belfast",
"PostCode": "1192",
"Latitude": -25.6833,
"Longitude": 30.0333
},
{
"Name": "Belfast",
"PostCode": "1193",
"Latitude": -25.6833,
"Longitude": 30.0333
},
{
"Name": "Belfast",
"PostCode": "1194",
"Latitude": -25.6833,
"Longitude": 30.0333
},
{
"Name": "Belfast",
"PostCode": "1301",
"Latitude": -25.6833,
"Longitude": 30.0333
},
{
"Name": "Belhar",
"PostCode": "7493",
"Latitude": -33.9222,
"Longitude": 18.5333
},
{
"Name": "Belhar",
"PostCode": "7504",
"Latitude": -33.95,
"Longitude": 18.6333
},
{
"Name": "Bellville",
"PostCode": "7530",
"Latitude": -33.9,
"Longitude": 18.6333
},
{
"Name": "Bellville",
"PostCode": "7532",
"Latitude": -33.9,
"Longitude": 18.6333
},
{
"Name": "Bellville",
"PostCode": "7533",
"Latitude": -33.9,
"Longitude": 18.6333
},
{
"Name": "Bellville",
"PostCode": "7536",
"Latitude": -33.9,
"Longitude": 18.6333
},
{
"Name": "Bellville",
"PostCode": "7537",
"Latitude": -33.9,
"Longitude": 18.6333
},
{
"Name": "Bellville",
"PostCode": "7538",
"Latitude": -33.9,
"Longitude": 18.6333
},
{
"Name": "Bellville",
"PostCode": "7539",
"Latitude": -33.9,
"Longitude": 18.6333
},
{
"Name": "Bellville",
"PostCode": "7540",
"Latitude": -33.9,
"Longitude": 18.6333
},
{
"Name": "Benoni",
"PostCode": "1501",
"Latitude": -26.1833,
"Longitude": 28.3167
},
{
"Name": "Benoni",
"PostCode": "1502",
"Latitude": -26.1833,
"Longitude": 28.3167
},
{
"Name": "Benoni",
"PostCode": "1503",
"Latitude": -26.1833,
"Longitude": 28.3167
},
{
"Name": "Benoni",
"PostCode": "1504",
"Latitude": -26.1833,
"Longitude": 28.3167
},
{
"Name": "Benoni",
"PostCode": "1505",
"Latitude": -26.1833,
"Longitude": 28.3167
},
{
"Name": "Benoni",
"PostCode": "1506",
"Latitude": -26.1833,
"Longitude": 28.3167
},
{
"Name": "Benoni",
"PostCode": "1507",
"Latitude": -26.1833,
"Longitude": 28.3167
},
{
"Name": "Benoni",
"PostCode": "1508",
"Latitude": -26.1833,
"Longitude": 28.3167
},
{
"Name": "Benoni",
"PostCode": "1509",
"Latitude": -26.1833,
"Longitude": 28.3167
},
{
"Name": "Benoni",
"PostCode": "1511",
"Latitude": -26.1833,
"Longitude": 28.3167
},
{
"Name": "Benoni",
"PostCode": "1514",
"Latitude": -26.1833,
"Longitude": 28.3167
},
{
"Name": "Benoni",
"PostCode": "1515",
"Latitude": -26.1833,
"Longitude": 28.3167
},
{
"Name": "Benoni",
"PostCode": "1516",
"Latitude": -26.1833,
"Longitude": 28.3167
},
{
"Name": "Benoni",
"PostCode": "1517",
"Latitude": -26.1833,
"Longitude": 28.3167
},
{
"Name": "Benoni",
"PostCode": "1518",
"Latitude": -26.1833,
"Longitude": 28.3167
},
{
"Name": "Benoni",
"PostCode": "1520",
"Latitude": -26.1833,
"Longitude": 28.3167
},
{
"Name": "Benoni",
"PostCode": "1522",
"Latitude": -26.1833,
"Longitude": 28.3167
},
{
"Name": "Benoni",
"PostCode": "1524",
"Latitude": -26.1833,
"Longitude": 28.3167
},
{
"Name": "Benoni",
"PostCode": "1525",
"Latitude": -26.1833,
"Longitude": 28.3167
},
{
"Name": "Benoni",
"PostCode": "1526",
"Latitude": -26.1833,
"Longitude": 28.3167
},
{
"Name": "Benoni",
"PostCode": "1527",
"Latitude": -26.1833,
"Longitude": 28.3167
},
{
"Name": "Bergville",
"PostCode": "3350",
"Latitude": -28.7333,
"Longitude": 29.3667
},
{
"Name": "Bergville",
"PostCode": "3351",
"Latitude": -28.7333,
"Longitude": 29.3667
},
{
"Name": "Bergville",
"PostCode": "3352",
"Latitude": -28.7333,
"Longitude": 29.3667
},
{
"Name": "Bergville",
"PostCode": "3354",
"Latitude": -28.7333,
"Longitude": 29.3667
},
{
"Name": "Bergvliet",
"PostCode": "7945",
"Latitude": -34.0475,
"Longitude": 18.4525
},
{
"Name": "Bethal",
"PostCode": "2309",
"Latitude": -26.45,
"Longitude": 29.4667
},
{
"Name": "Bethal",
"PostCode": "2311",
"Latitude": -26.45,
"Longitude": 29.4667
},
{
"Name": "Bethal",
"PostCode": "2312",
"Latitude": -26.45,
"Longitude": 29.4667
},
{
"Name": "Bethal",
"PostCode": "2320",
"Latitude": -26.45,
"Longitude": 29.4667
},
{
"Name": "Bethelsdorp",
"PostCode": "6028",
"Latitude": -33.8833,
"Longitude": 25.5
},
{
"Name": "Bethlehem",
"PostCode": "9700",
"Latitude": -28.2333,
"Longitude": 28.3
},
{
"Name": "Bethlehem",
"PostCode": "9701",
"Latitude": -28.2333,
"Longitude": 28.3
},
{
"Name": "Bethlehem",
"PostCode": "9702",
"Latitude": -28.2333,
"Longitude": 28.3
},
{
"Name": "Bethlehem",
"PostCode": "9703",
"Latitude": -28.2333,
"Longitude": 28.3
},
{
"Name": "Bethlehem",
"PostCode": "9704",
"Latitude": -28.2333,
"Longitude": 28.3
},
{
"Name": "Bethlehem",
"PostCode": "9705",
"Latitude": -28.2333,
"Longitude": 28.3
},
{
"Name": "Bethlehem",
"PostCode": "9706",
"Latitude": -28.2333,
"Longitude": 28.3
},
{
"Name": "Bethulie",
"PostCode": "9992",
"Latitude": -30.5333,
"Longitude": 21.2833
},
{
"Name": "Bisho",
"PostCode": "5605",
"Latitude": -32.8667,
"Longitude": 27.4333
},
{
"Name": "Bisho",
"PostCode": "5606",
"Latitude": -32.8667,
"Longitude": 27.4333
},
{
"Name": "Bisho",
"PostCode": "5608",
"Latitude": -32.8667,
"Longitude": 27.4333
},
{
"Name": "Bisho",
"PostCode": "5620",
"Latitude": -32.8667,
"Longitude": 27.4333
},
{
"Name": "Bisho",
"PostCode": "5671",
"Latitude": -32.8667,
"Longitude": 27.4333
},
{
"Name": "Bitterfontein",
"PostCode": "8201",
"Latitude": -31.0333,
"Longitude": 18.2667
},
{
"Name": "Bitterfontein",
"PostCode": "8202",
"Latitude": -31.0333,
"Longitude": 18.2667
},
{
"Name": "Bitterfontein",
"PostCode": "8204",
"Latitude": -31.0333,
"Longitude": 18.2667
},
{
"Name": "Bitterfontein",
"PostCode": "8205",
"Latitude": -31.0333,
"Longitude": 18.2667
},
{
"Name": "Bizana",
"PostCode": "4800",
"Latitude": -30.85,
"Longitude": 29.85
},
{
"Name": "Bizana",
"PostCode": "4802",
"Latitude": -30.85,
"Longitude": 29.85
},
{
"Name": "Bizana",
"PostCode": "4803",
"Latitude": -30.85,
"Longitude": 29.85
},
{
"Name": "Bizana",
"PostCode": "4804",
"Latitude": -30.85,
"Longitude": 29.85
},
{
"Name": "Blackheath",
"PostCode": "7580",
"Latitude": -26.1333,
"Longitude": 27.9667
},
{
"Name": "Blinkpan",
"PostCode": "2250",
"Latitude": -26.1,
"Longitude": 29.4333
},
{
"Name": "Bloemfontein",
"PostCode": "9300",
"Latitude": -29.1333,
"Longitude": 26.2
},
{
"Name": "Bloemfontein",
"PostCode": "9301",
"Latitude": -29.123,
"Longitude": 26.1662
},
{
"Name": "Bloemfontein",
"PostCode": "9302",
"Latitude": -29.1333,
"Longitude": 26.2
},
{
"Name": "Bloemfontein",
"PostCode": "9303",
"Latitude": -29.1333,
"Longitude": 26.2
},
{
"Name": "Bloemfontein",
"PostCode": "9305",
"Latitude": -29.1333,
"Longitude": 26.2
},
{
"Name": "Bloemfontein",
"PostCode": "9306",
"Latitude": -29.1333,
"Longitude": 26.2
},
{
"Name": "Bloemfontein",
"PostCode": "9307",
"Latitude": -29.1333,
"Longitude": 26.2
},
{
"Name": "Bloemfontein",
"PostCode": "9309",
"Latitude": -29.1333,
"Longitude": 26.2
},
{
"Name": "Bloemfontein",
"PostCode": "9310",
"Latitude": -29.1333,
"Longitude": 26.2
},
{
"Name": "Bloemfontein",
"PostCode": "9311",
"Latitude": -29.1333,
"Longitude": 26.2
},
{
"Name": "Bloemfontein",
"PostCode": "9312",
"Latitude": -29.1333,
"Longitude": 26.2
},
{
"Name": "Bloemfontein",
"PostCode": "9313",
"Latitude": -29.1333,
"Longitude": 26.2
},
{
"Name": "Bloemfontein",
"PostCode": "9315",
"Latitude": -29.1333,
"Longitude": 26.2
},
{
"Name": "Bloemfontein",
"PostCode": "9317",
"Latitude": -29.1333,
"Longitude": 26.2
},
{
"Name": "Bloemfontein",
"PostCode": "9320",
"Latitude": -29.1333,
"Longitude": 26.2
},
{
"Name": "Bloemfontein",
"PostCode": "9321",
"Latitude": -29.1333,
"Longitude": 26.2
},
{
"Name": "Bloemfontein",
"PostCode": "9322",
"Latitude": -29.1333,
"Longitude": 26.2
},
{
"Name": "Bloemfontein",
"PostCode": "9323",
"Latitude": -29.1333,
"Longitude": 26.2
},
{
"Name": "Bloemfontein",
"PostCode": "9324",
"Latitude": -29.1333,
"Longitude": 26.2
},
{
"Name": "Bloemfontein",
"PostCode": "9325",
"Latitude": -29.1333,
"Longitude": 26.2
},
{
"Name": "Bloemfontein",
"PostCode": "9326",
"Latitude": -29.1333,
"Longitude": 26.2
},
{
"Name": "Bloemfontein",
"PostCode": "9327",
"Latitude": -29.1333,
"Longitude": 26.2
},
{
"Name": "Bloemfontein",
"PostCode": "9330",
"Latitude": -29.1333,
"Longitude": 26.2
},
{
"Name": "Bloemfontein",
"PostCode": "9332",
"Latitude": -29.1333,
"Longitude": 26.2
},
{
"Name": "Bloemfontein",
"PostCode": "9334",
"Latitude": -29.1333,
"Longitude": 26.2
},
{
"Name": "Bloemfontein",
"PostCode": "9356",
"Latitude": -29.1333,
"Longitude": 26.2
},
{
"Name": "Bloemfontein",
"PostCode": "9358",
"Latitude": -29.1333,
"Longitude": 26.2
},
{
"Name": "Bloemfontein",
"PostCode": "9360",
"Latitude": -29.1333,
"Longitude": 26.2
},
{
"Name": "Bloemfontein",
"PostCode": "9364",
"Latitude": -29.1333,
"Longitude": 26.2
},
{
"Name": "Bloemfontein",
"PostCode": "9380",
"Latitude": -29.1333,
"Longitude": 26.2
},
{
"Name": "Bloemfontein",
"PostCode": "9781",
"Latitude": -29.2333,
"Longitude": 26.7333
},
{
"Name": "Bloemfontein",
"PostCode": "9928",
"Latitude": -29.1333,
"Longitude": 26.2
},
{
"Name": "Bloemhof",
"PostCode": "2660",
"Latitude": -27.65,
"Longitude": 25.6
},
{
"Name": "Bloemhof",
"PostCode": "2661",
"Latitude": -27.65,
"Longitude": 25.6
},
{
"Name": "Bloemhof",
"PostCode": "2662",
"Latitude": -27.65,
"Longitude": 25.6
},
{
"Name": "Bloemspruit",
"PostCode": "9364",
"Latitude": -29.1333,
"Longitude": 26.25
},
{
"Name": "Blood River",
"PostCode": "3024",
"Latitude": -28.1909,
"Longitude": 30.2879
},
{
"Name": "Bloubergrant",
"PostCode": "7441",
"Latitude": -33.8213,
"Longitude": 18.4454
},
{
"Name": "Bloubergrant",
"PostCode": "7444",
"Latitude": -33.8326,
"Longitude": 18.4632
},
{
"Name": "Bloubergrant",
"PostCode": "7449",
"Latitude": -33.8667,
"Longitude": 18.4833
},
{
"Name": "Bloubergstrand",
"PostCode": "7441",
"Latitude": -33.8213,
"Longitude": 18.4454
},
{
"Name": "Bluff",
"PostCode": "4052",
"Latitude": -29.85,
"Longitude": 31.0167
},
{
"Name": "Bluff",
"PostCode": "4139",
"Latitude": -30.05,
"Longitude": 30.8833
},
{
"Name": "Bochum",
"PostCode": "0626",
"Latitude": -24.1667,
"Longitude": 29.0
},
{
"Name": "Bochum",
"PostCode": "0718",
"Latitude": -23.2833,
"Longitude": 29.1167
},
{
"Name": "Bochum",
"PostCode": "0790",
"Latitude": -23.2833,
"Longitude": 29.1167
},
{
"Name": "Bochum",
"PostCode": "0807",
"Latitude": -23.2833,
"Longitude": 29.1167
},
{
"Name": "Bochum",
"PostCode": "0828",
"Latitude": -23.2833,
"Longitude": 29.1167
},
{
"Name": "Bochum",
"PostCode": "0849",
"Latitude": -23.2833,
"Longitude": 29.1167
},
{
"Name": "Bohlokong",
"PostCode": "9702",
"Latitude": -28.2333,
"Longitude": 28.3
},
{
"Name": "Boitekong",
"PostCode": "0308",
"Latitude": -25.6667,
"Longitude": 27.25
},
{
"Name": "Boksburg",
"PostCode": "1446",
"Latitude": -26.2167,
"Longitude": 28.25
},
{
"Name": "Boksburg",
"PostCode": "1459",
"Latitude": -26.2167,
"Longitude": 28.25
},
{
"Name": "Boksburg",
"PostCode": "1460",
"Latitude": -26.2167,
"Longitude": 28.25
},
{
"Name": "Boksburg",
"PostCode": "1461",
"Latitude": -26.2167,
"Longitude": 28.25
},
{
"Name": "Boksburg",
"PostCode": "1462",
"Latitude": -26.1786,
"Longitude": 28.2459
},
{
"Name": "Boksburg",
"PostCode": "1463",
"Latitude": -26.2167,
"Longitude": 28.25
},
{
"Name": "Boksburg",
"PostCode": "1464",
"Latitude": -26.2167,
"Longitude": 28.25
},
{
"Name": "Boksburg",
"PostCode": "1465",
"Latitude": -26.2167,
"Longitude": 28.25
},
{
"Name": "Boksburg",
"PostCode": "1466",
"Latitude": -26.2167,
"Longitude": 28.25
},
{
"Name": "Boksburg",
"PostCode": "1467",
"Latitude": -26.2167,
"Longitude": 28.25
},
{
"Name": "Boksburg",
"PostCode": "1469",
"Latitude": -26.2167,
"Longitude": 28.25
},
{
"Name": "Boksburg",
"PostCode": "1470",
"Latitude": -26.1749,
"Longitude": 28.2494
},
{
"Name": "Boksburg",
"PostCode": "1471",
"Latitude": -26.2167,
"Longitude": 28.25
},
{
"Name": "Boksburg",
"PostCode": "1472",
"Latitude": -26.2167,
"Longitude": 28.25
},
{
"Name": "Boksburg",
"PostCode": "1474",
"Latitude": -26.2167,
"Longitude": 28.25
},
{
"Name": "Boksburg",
"PostCode": "1477",
"Latitude": -26.2167,
"Longitude": 28.25
},
{
"Name": "Boksburg",
"PostCode": "1478",
"Latitude": -26.2167,
"Longitude": 28.25
},
{
"Name": "Boksburg",
"PostCode": "1479",
"Latitude": -26.2167,
"Longitude": 28.25
},
{
"Name": "Boksburg",
"PostCode": "1482",
"Latitude": -26.2167,
"Longitude": 28.25
},
{
"Name": "Boksburg",
"PostCode": "1485",
"Latitude": -26.2167,
"Longitude": 28.25
},
{
"Name": "Boleu",
"PostCode": "0474",
"Latitude": -25.15,
"Longitude": 29.3833
},
{
"Name": "Bonnievale",
"PostCode": "6730",
"Latitude": -33.9333,
"Longitude": 22.0333
},
{
"Name": "Bonnievale",
"PostCode": "6741",
"Latitude": -33.9333,
"Longitude": 20.1
},
{
"Name": "Boordfontein",
"PostCode": "0182",
"Latitude": -25.6771,
"Longitude": 28.1867
},
{
"Name": "Boordfontein",
"PostCode": "0201",
"Latitude": -25.7069,
"Longitude": 28.2294
},
{
"Name": "Boordfontein West",
"PostCode": "0182",
"Latitude": -25.6771,
"Longitude": 28.1867
},
{
"Name": "Boordfontein West",
"PostCode": "0201",
"Latitude": -25.7069,
"Longitude": 28.2294
},
{
"Name": "Boordfontein-Wes",
"PostCode": "0182",
"Latitude": -25.6771,
"Longitude": 28.1867
},
{
"Name": "Boordfontein-Wes",
"PostCode": "0201",
"Latitude": -25.7069,
"Longitude": 28.2294
},
{
"Name": "Bosbokrand",
"PostCode": "1286",
"Latitude": -24.8333,
"Longitude": 31.0667
},
{
"Name": "Boshof",
"PostCode": "8340",
"Latitude": -28.55,
"Longitude": 25.2333
},
{
"Name": "Boskop",
"PostCode": "2528",
"Latitude": -29.5,
"Longitude": 26.2
},
{
"Name": "Botha'S Hill",
"PostCode": "3660",
"Latitude": -29.7167,
"Longitude": 30.7333
},
{
"Name": "Bothaville",
"PostCode": "9660",
"Latitude": -27.3667,
"Longitude": 26.6167
},
{
"Name": "Bothaville",
"PostCode": "9661",
"Latitude": -27.3667,
"Longitude": 26.6167
},
{
"Name": "Bothaville",
"PostCode": "9663",
"Latitude": -27.3667,
"Longitude": 26.6167
},
{
"Name": "Botshabelo",
"PostCode": "9781",
"Latitude": -29.2333,
"Longitude": 26.7333
},
{
"Name": "Botshabelo",
"PostCode": "9782",
"Latitude": -29.2333,
"Longitude": 26.7333
},
{
"Name": "Botshabelo",
"PostCode": "9785",
"Latitude": -29.2333,
"Longitude": 26.7333
},
{
"Name": "Botshabelo",
"PostCode": "9788",
"Latitude": -29.2333,
"Longitude": 26.7333
},
{
"Name": "Botshabelo",
"PostCode": "9789",
"Latitude": -29.2333,
"Longitude": 26.7333
},
{
"Name": "Boyne",
"PostCode": "0727",
"Latitude": -23.9333,
"Longitude": 29.8167
},
{
"Name": "Boyne",
"PostCode": "0728",
"Latitude": -23.9333,
"Longitude": 29.8167
},
{
"Name": "Boyne",
"PostCode": "0764",
"Latitude": -23.9333,
"Longitude": 29.8167
},
{
"Name": "Boyne",
"PostCode": "0766",
"Latitude": -23.9333,
"Longitude": 29.8167
},
{
"Name": "Brackenfell",
"PostCode": "7560",
"Latitude": -33.8667,
"Longitude": 18.6833
},
{
"Name": "Brakpan",
"PostCode": "1540",
"Latitude": -26.2333,
"Longitude": 28.3667
},
{
"Name": "Brakpan",
"PostCode": "1541",
"Latitude": -26.2333,
"Longitude": 28.3667
},
{
"Name": "Brakpan",
"PostCode": "1542",
"Latitude": -26.2333,
"Longitude": 28.3667
},
{
"Name": "Brakpan",
"PostCode": "1543",
"Latitude": -26.2333,
"Longitude": 28.3667
},
{
"Name": "Brakpan",
"PostCode": "1544",
"Latitude": -26.2333,
"Longitude": 28.3667
},
{
"Name": "Brakpan",
"PostCode": "1545",
"Latitude": -26.2333,
"Longitude": 28.3667
},
{
"Name": "Brakpan",
"PostCode": "1546",
"Latitude": -26.2333,
"Longitude": 28.3667
},
{
"Name": "Brakpan",
"PostCode": "1547",
"Latitude": -26.2333,
"Longitude": 28.3667
},
{
"Name": "Brakpan",
"PostCode": "1548",
"Latitude": -26.2333,
"Longitude": 28.3667
},
{
"Name": "Brakpan",
"PostCode": "1549",
"Latitude": -26.2333,
"Longitude": 28.3667
},
{
"Name": "Brakpan",
"PostCode": "1550",
"Latitude": -26.2333,
"Longitude": 28.3667
},
{
"Name": "Brakpan",
"PostCode": "1552",
"Latitude": -26.2333,
"Longitude": 28.3667
},
{
"Name": "Brakpan",
"PostCode": "1553",
"Latitude": -26.2333,
"Longitude": 28.3667
},
{
"Name": "Brakpan",
"PostCode": "1554",
"Latitude": -26.2333,
"Longitude": 28.3667
},
{
"Name": "Brakpan North",
"PostCode": "1541",
"Latitude": -26.2333,
"Longitude": 28.3667
},
{
"Name": "Brakpan North",
"PostCode": "1545",
"Latitude": -26.2333,
"Longitude": 28.3667
},
{
"Name": "Bramley",
"PostCode": "2054",
"Latitude": -26.2,
"Longitude": 28.0833
},
{
"Name": "Bramley",
"PostCode": "2066",
"Latitude": -26.2,
"Longitude": 28.0833
},
{
"Name": "Bramley",
"PostCode": "2073",
"Latitude": -26.2,
"Longitude": 28.0833
},
{
"Name": "Bramley",
"PostCode": "2090",
"Latitude": -26.2,
"Longitude": 28.0833
},
{
"Name": "Bramley",
"PostCode": "2144",
"Latitude": -26.2,
"Longitude": 28.0833
},
{
"Name": "Bramley",
"PostCode": "2148",
"Latitude": -26.2,
"Longitude": 28.0833
},
{
"Name": "Brandfort",
"PostCode": "9400",
"Latitude": -28.7,
"Longitude": 26.4667
},
{
"Name": "Bredasdorp",
"PostCode": "7281",
"Latitude": -34.5333,
"Longitude": 20.0333
},
{
"Name": "Bredasdorp",
"PostCode": "7282",
"Latitude": -34.5333,
"Longitude": 20.0333
},
{
"Name": "Bredasdorp",
"PostCode": "7283",
"Latitude": -34.5333,
"Longitude": 20.0333
},
{
"Name": "Bredasdorp",
"PostCode": "7285",
"Latitude": -34.5333,
"Longitude": 20.0333
},
{
"Name": "Bredasdorp",
"PostCode": "7287",
"Latitude": -34.5333,
"Longitude": 20.0333
},
{
"Name": "Breyten",
"PostCode": "2330",
"Latitude": -26.3,
"Longitude": 29.9833
},
{
"Name": "Brits",
"PostCode": "0189",
"Latitude": -25.6333,
"Longitude": 27.7833
},
{
"Name": "Brits",
"PostCode": "0210",
"Latitude": -25.6333,
"Longitude": 27.7833
},
{
"Name": "Brits",
"PostCode": "0217",
"Latitude": -25.6333,
"Longitude": 27.7833
},
{
"Name": "Brits",
"PostCode": "0220",
"Latitude": -25.6333,
"Longitude": 27.7833
},
{
"Name": "Brits",
"PostCode": "0232",
"Latitude": -25.6333,
"Longitude": 27.7833
},
{
"Name": "Brits",
"PostCode": "0240",
"Latitude": -25.6333,
"Longitude": 27.7833
},
{
"Name": "Brits",
"PostCode": "0250",
"Latitude": -25.6333,
"Longitude": 27.7833
},
{
"Name": "Brits",
"PostCode": "0251",
"Latitude": -25.6333,
"Longitude": 27.7833
},
{
"Name": "Brits",
"PostCode": "0252",
"Latitude": -25.6333,
"Longitude": 27.7833
},
{
"Name": "Brits",
"PostCode": "0253",
"Latitude": -25.6333,
"Longitude": 27.7833
},
{
"Name": "Brits",
"PostCode": "0255",
"Latitude": -25.6333,
"Longitude": 27.7833
},
{
"Name": "Brits",
"PostCode": "0257",
"Latitude": -25.6333,
"Longitude": 27.7833
},
{
"Name": "Brits",
"PostCode": "0258",
"Latitude": -25.6333,
"Longitude": 27.7833
},
{
"Name": "Brits",
"PostCode": "0259",
"Latitude": -25.6333,
"Longitude": 27.7833
},
{
"Name": "Brits",
"PostCode": "0260",
"Latitude": -25.6333,
"Longitude": 27.7833
},
{
"Name": "Brits",
"PostCode": "0261",
"Latitude": -25.6333,
"Longitude": 27.7833
},
{
"Name": "Brits",
"PostCode": "0264",
"Latitude": -25.6333,
"Longitude": 27.7833
},
{
"Name": "Brits",
"PostCode": "0265",
"Latitude": -25.6333,
"Longitude": 27.7833
},
{
"Name": "Brits",
"PostCode": "0267",
"Latitude": -25.6333,
"Longitude": 27.7833
},
{
"Name": "Brits",
"PostCode": "0268",
"Latitude": -25.6333,
"Longitude": 27.7833
},
{
"Name": "Brits",
"PostCode": "0269",
"Latitude": -25.6333,
"Longitude": 27.7833
},
{
"Name": "Brits",
"PostCode": "0270",
"Latitude": -25.6333,
"Longitude": 27.7833
},
{
"Name": "Brits",
"PostCode": "0271",
"Latitude": -25.6333,
"Longitude": 27.7833
},
{
"Name": "Brits",
"PostCode": "0273",
"Latitude": -25.6333,
"Longitude": 27.7833
},
{
"Name": "Brits",
"PostCode": "0274",
"Latitude": -25.6333,
"Longitude": 27.7833
},
{
"Name": "Brits",
"PostCode": "0275",
"Latitude": -25.6333,
"Longitude": 27.7833
},
{
"Name": "Brits",
"PostCode": "0276",
"Latitude": -25.6333,
"Longitude": 27.7833
},
{
"Name": "Brits",
"PostCode": "0277",
"Latitude": -25.6333,
"Longitude": 27.7833
},
{
"Name": "Britstown",
"PostCode": "8782",
"Latitude": -30.5833,
"Longitude": 23.5
},
{
"Name": "Bromhof",
"PostCode": "2154",
"Latitude": -26.2,
"Longitude": 28.0833
},
{
"Name": "Bromhof",
"PostCode": "2188",
"Latitude": -26.1894,
"Longitude": 28.0779
},
{
"Name": "Bronkhorstspruit",
"PostCode": "1020",
"Latitude": -25.8083,
"Longitude": 28.7406
},
{
"Name": "Bronkhorstspruit",
"PostCode": "1021",
"Latitude": -25.8083,
"Longitude": 28.7406
},
{
"Name": "Bronkhorstspruit",
"PostCode": "1022",
"Latitude": -25.8083,
"Longitude": 28.7406
},
{
"Name": "Bronkhorstspruit",
"PostCode": "1024",
"Latitude": -25.8083,
"Longitude": 28.7406
},
{
"Name": "Bronkhorstspruit",
"PostCode": "1025",
"Latitude": -25.8083,
"Longitude": 28.7406
},
{
"Name": "Bronkhorstspruit",
"PostCode": "1026",
"Latitude": -25.8083,
"Longitude": 28.7406
},
{
"Name": "Bronkhorstspruit",
"PostCode": "1027",
"Latitude": -25.8083,
"Longitude": 28.7406
},
{
"Name": "Bronkhorstspruit",
"PostCode": "1028",
"Latitude": -25.8083,
"Longitude": 28.7406
},
{
"Name": "Bryanston",
"PostCode": "2021",
"Latitude": -26.2,
"Longitude": 28.0833
},
{
"Name": "Bryanston",
"PostCode": "2031",
"Latitude": -26.2,
"Longitude": 28.0833
},
{
"Name": "Bryanston",
"PostCode": "2052",
"Latitude": -26.05,
"Longitude": 28.0333
},
{
"Name": "Bryanston",
"PostCode": "2055",
"Latitude": -26.1167,
"Longitude": 28.0333
},
{
"Name": "Bryanston",
"PostCode": "2056",
"Latitude": -26.05,
"Longitude": 28.0333
},
{
"Name": "Bryanston",
"PostCode": "2057",
"Latitude": -26.05,
"Longitude": 28.0333
},
{
"Name": "Bryanston",
"PostCode": "2060",
"Latitude": -26.2,
"Longitude": 28.0833
},
{
"Name": "Bryanston",
"PostCode": "2069",
"Latitude": -26.05,
"Longitude": 28.0333
},
{
"Name": "Bryanston",
"PostCode": "2072",
"Latitude": -26.05,
"Longitude": 28.0333
},
{
"Name": "Bryanston",
"PostCode": "2077",
"Latitude": -26.05,
"Longitude": 28.0333
},
{
"Name": "Bryanston",
"PostCode": "2128",
"Latitude": -26.05,
"Longitude": 28.0333
},
{
"Name": "Bryanston",
"PostCode": "2152",
"Latitude": -26.2,
"Longitude": 28.0833
},
{
"Name": "Bryanston",
"PostCode": "2165",
"Latitude": -26.05,
"Longitude": 28.0333
},
{
"Name": "Bryanston",
"PostCode": "2189",
"Latitude": -26.05,
"Longitude": 28.0333
},
{
"Name": "Bryanston",
"PostCode": "2191",
"Latitude": -26.05,
"Longitude": 28.0333
},
{
"Name": "Bryanston",
"PostCode": "2196",
"Latitude": -26.1345,
"Longitude": 28.0529
},
{
"Name": "Bultfontein",
"PostCode": "9670",
"Latitude": -25.1167,
"Longitude": 28.5667
},
{
"Name": "Bulwer",
"PostCode": "3244",
"Latitude": -29.8,
"Longitude": 29.75
},
{
"Name": "Burgersdorp",
"PostCode": "9744",
"Latitude": -30.9833,
"Longitude": 26.3167
},
{
"Name": "Burgersfort",
"PostCode": "1085",
"Latitude": -24.6667,
"Longitude": 30.3333
},
{
"Name": "Burgersfort",
"PostCode": "1160",
"Latitude": -24.6667,
"Longitude": 30.3333
},
{
"Name": "Bushbuckridge",
"PostCode": "1255",
"Latitude": -24.8333,
"Longitude": 31.0667
},
{
"Name": "Bushbuckridge",
"PostCode": "1282",
"Latitude": -24.8333,
"Longitude": 31.0667
},
{
"Name": "Bushbuckridge",
"PostCode": "1283",
"Latitude": -24.8333,
"Longitude": 31.0667
},
{
"Name": "Bushbuckridge",
"PostCode": "1284",
"Latitude": -24.8333,
"Longitude": 31.0667
},
{
"Name": "Bushbuckridge",
"PostCode": "1285",
"Latitude": -24.8333,
"Longitude": 31.0667
},
{
"Name": "Butterworth",
"PostCode": "4960",
"Latitude": -32.3333,
"Longitude": 28.15
},
{
"Name": "Butterworth",
"PostCode": "4961",
"Latitude": -32.3333,
"Longitude": 28.15
},
{
"Name": "Butterworth",
"PostCode": "4963",
"Latitude": -32.3333,
"Longitude": 28.15
},
{
"Name": "Butterworth",
"PostCode": "4968",
"Latitude": -32.3333,
"Longitude": 28.15
},
{
"Name": "Butterworth",
"PostCode": "5013",
"Latitude": -32.3333,
"Longitude": 28.15
},
{
"Name": "Cala",
"PostCode": "5455",
"Latitude": -31.5167,
"Longitude": 27.7
},
{
"Name": "Caledon",
"PostCode": "7185",
"Latitude": -34.2167,
"Longitude": 19.4167
},
{
"Name": "Caledon",
"PostCode": "7230",
"Latitude": -34.2167,
"Longitude": 19.4167
},
{
"Name": "Caledon",
"PostCode": "7232",
"Latitude": -34.2167,
"Longitude": 19.4167
},
{
"Name": "Caledon",
"PostCode": "7250",
"Latitude": -34.15,
"Longitude": 19.9
},
{
"Name": "Calitzdorp",
"PostCode": "6660",
"Latitude": -33.5333,
"Longitude": 21.6833
},
{
"Name": "Calvinia",
"PostCode": "8190",
"Latitude": -31.4667,
"Longitude": 19.7833
},
{
"Name": "Calvinia",
"PostCode": "8191",
"Latitude": -31.4667,
"Longitude": 19.7833
},
{
"Name": "Calvinia",
"PostCode": "8193",
"Latitude": -31.4667,
"Longitude": 19.7833
},
{
"Name": "Cambridge",
"PostCode": "5247",
"Latitude": -32.9667,
"Longitude": 27.8833
},
{
"Name": "Cape Town",
"PostCode": "7100",
"Latitude": -33.9167,
"Longitude": 18.4167
},
{
"Name": "Cape Town",
"PostCode": "7103",
"Latitude": -33.9167,
"Longitude": 18.4167
},
{
"Name": "Cape Town",
"PostCode": "7400",
"Latitude": -33.9167,
"Longitude": 18.4167
},
{
"Name": "Cape Town",
"PostCode": "7404",
"Latitude": -33.9167,
"Longitude": 18.4167
},
{
"Name": "Cape Town",
"PostCode": "7405",
"Latitude": -33.9167,
"Longitude": 18.4167
},
{
"Name": "Cape Town",
"PostCode": "7406",
"Latitude": -33.9167,
"Longitude": 18.4167
},
{
"Name": "Cape Town",
"PostCode": "7407",
"Latitude": -33.9167,
"Longitude": 18.4167
},
{
"Name": "Cape Town",
"PostCode": "7420",
"Latitude": -33.9167,
"Longitude": 18.4167
},
{
"Name": "Cape Town",
"PostCode": "7425",
"Latitude": -33.9167,
"Longitude": 18.4167
},
{
"Name": "Cape Town",
"PostCode": "7430",
"Latitude": -33.9167,
"Longitude": 18.4167
},
{
"Name": "Cape Town",
"PostCode": "7435",
"Latitude": -33.8667,
"Longitude": 18.4833
},
{
"Name": "Cape Town",
"PostCode": "7437",
"Latitude": -33.9167,
"Longitude": 18.4167
},
{
"Name": "Cape Town",
"PostCode": "7439",
"Latitude": -33.9167,
"Longitude": 18.4167
},
{
"Name": "Cape Town",
"PostCode": "7441",
"Latitude": -33.9167,
"Longitude": 18.4167
},
{
"Name": "Cape Town",
"PostCode": "7455",
"Latitude": -33.9333,
"Longitude": 18.5167
},
{
"Name": "Cape Town",
"PostCode": "7456",
"Latitude": -33.9167,
"Longitude": 18.4167
},
{
"Name": "Cape Town",
"PostCode": "7460",
"Latitude": -33.8917,
"Longitude": 18.5583
},
{
"Name": "Cape Town",
"PostCode": "7463",
"Latitude": -33.9167,
"Longitude": 18.4167
},
{
"Name": "Cape Town",
"PostCode": "7489",
"Latitude": -33.9167,
"Longitude": 18.4167
},
{
"Name": "Cape Town",
"PostCode": "7490",
"Latitude": -33.9167,
"Longitude": 18.4167
},
{
"Name": "Cape Town",
"PostCode": "7493",
"Latitude": -33.9167,
"Longitude": 18.4167
},
{
"Name": "Cape Town",
"PostCode": "7499",
"Latitude": -33.9167,
"Longitude": 18.4167
},
{
"Name": "Cape Town",
"PostCode": "7500",
"Latitude": -33.9167,
"Longitude": 18.4167
},
{
"Name": "Cape Town",
"PostCode": "7507",
"Latitude": -33.9167,
"Longitude": 18.4167
},
{
"Name": "Cape Town",
"PostCode": "7525",
"Latitude": -33.9167,
"Longitude": 18.4167
},
{
"Name": "Cape Town",
"PostCode": "7530",
"Latitude": -33.9,
"Longitude": 18.6333
},
{
"Name": "Cape Town",
"PostCode": "7535",
"Latitude": -33.9167,
"Longitude": 18.4167
},
{
"Name": "Cape Town",
"PostCode": "7550",
"Latitude": -33.8333,
"Longitude": 18.65
},
{
"Name": "Cape Town",
"PostCode": "7551",
"Latitude": -33.9167,
"Longitude": 18.4167
},
{
"Name": "Cape Town",
"PostCode": "7560",
"Latitude": -33.8667,
"Longitude": 18.6833
},
{
"Name": "Cape Town",
"PostCode": "7561",
"Latitude": -33.9167,
"Longitude": 18.4167
},
{
"Name": "Cape Town",
"PostCode": "7700",
"Latitude": -33.9167,
"Longitude": 18.4167
},
{
"Name": "Cape Town",
"PostCode": "7705",
"Latitude": -33.9167,
"Longitude": 18.4167
},
{
"Name": "Cape Town",
"PostCode": "7708",
"Latitude": -33.975,
"Longitude": 18.475
},
{
"Name": "Cape Town",
"PostCode": "7725",
"Latitude": -33.9167,
"Longitude": 18.4167
},
{
"Name": "Cape Town",
"PostCode": "7735",
"Latitude": -33.9167,
"Longitude": 18.4167
},
{
"Name": "Cape Town",
"PostCode": "7745",
"Latitude": -33.9167,
"Longitude": 18.4167
},
{
"Name": "Cape Town",
"PostCode": "7750",
"Latitude": -33.9833,
"Longitude": 18.575
},
{
"Name": "Cape Town",
"PostCode": "7751",
"Latitude": -33.9167,
"Longitude": 18.4167
},
{
"Name": "Cape Town",
"PostCode": "7755",
"Latitude": -33.9167,
"Longitude": 18.4167
},
{
"Name": "Cape Town",
"PostCode": "7760",
"Latitude": -33.9167,
"Longitude": 18.4167
},
{
"Name": "Cape Town",
"PostCode": "7764",
"Latitude": -33.9778,
"Longitude": 18.5167
},
{
"Name": "Cape Town",
"PostCode": "7766",
"Latitude": -33.9167,
"Longitude": 18.4167
},
{
"Name": "Cape Town",
"PostCode": "7779",
"Latitude": -33.9167,
"Longitude": 18.4167
},
{
"Name": "Cape Town",
"PostCode": "7780",
"Latitude": -33.9167,
"Longitude": 18.4167
},
{
"Name": "Cape Town",
"PostCode": "7782",
"Latitude": -33.9167,
"Longitude": 18.4167
},
{
"Name": "Cape Town",
"PostCode": "7783",
"Latitude": -33.9167,
"Longitude": 18.4167
},
{
"Name": "Cape Town",
"PostCode": "7784",
"Latitude": -33.9167,
"Longitude": 18.4167
},
{
"Name": "Cape Town",
"PostCode": "7785",
"Latitude": -33.9167,
"Longitude": 18.4167
},
{
"Name": "Cape Town",
"PostCode": "7789",
"Latitude": -33.9167,
"Longitude": 18.4167
},
{
"Name": "Cape Town",
"PostCode": "7800",
"Latitude": -34.0167,
"Longitude": 18.4722
},
{
"Name": "Cape Town",
"PostCode": "7801",
"Latitude": -33.9167,
"Longitude": 18.4167
},
{
"Name": "Cape Town",
"PostCode": "7806",
"Latitude": -33.9166,
"Longitude": 18.4166
},
{
"Name": "Cape Town",
"PostCode": "7808",
"Latitude": -33.9167,
"Longitude": 18.4167
},
{
"Name": "Cape Town",
"PostCode": "7824",
"Latitude": -33.9167,
"Longitude": 18.4167
},
{
"Name": "Cape Town",
"PostCode": "7848",
"Latitude": -33.9167,
"Longitude": 18.4167
},
{
"Name": "Cape Town",
"PostCode": "7864",
"Latitude": -33.9167,
"Longitude": 18.4167
},
{
"Name": "Cape Town",
"PostCode": "7872",
"Latitude": -33.9167,
"Longitude": 18.4167
},
{
"Name": "Cape Town",
"PostCode": "7880",
"Latitude": -33.9167,
"Longitude": 18.4167
},
{
"Name": "Cape Town",
"PostCode": "7888",
"Latitude": -33.9167,
"Longitude": 18.4167
},
{
"Name": "Cape Town",
"PostCode": "7915",
"Latitude": -33.9167,
"Longitude": 18.4167
},
{
"Name": "Cape Town",
"PostCode": "7925",
"Latitude": -33.9167,
"Longitude": 18.4167
},
{
"Name": "Cape Town",
"PostCode": "7935",
"Latitude": -33.9167,
"Longitude": 18.4167
},
{
"Name": "Cape Town",
"PostCode": "7937",
"Latitude": -33.9167,
"Longitude": 18.4167
},
{
"Name": "Cape Town",
"PostCode": "7941",
"Latitude": -33.9167,
"Longitude": 18.4167
},
{
"Name": "Cape Town",
"PostCode": "7945",
"Latitude": -33.9258,
"Longitude": 18.4232
},
{
"Name": "Cape Town",
"PostCode": "7950",
"Latitude": -33.9167,
"Longitude": 18.4167
},
{
"Name": "Cape Town",
"PostCode": "7965",
"Latitude": -33.9167,
"Longitude": 18.4167
},
{
"Name": "Cape Town",
"PostCode": "7966",
"Latitude": -33.9167,
"Longitude": 18.4167
},
{
"Name": "Cape Town",
"PostCode": "7974",
"Latitude": -33.9167,
"Longitude": 18.4167
},
{
"Name": "Cape Town",
"PostCode": "7975",
"Latitude": -33.9167,
"Longitude": 18.4167
},
{
"Name": "Cape Town",
"PostCode": "8000",
"Latitude": -33.9161,
"Longitude": 18.4139
},
{
"Name": "Cape Town",
"PostCode": "8001",
"Latitude": -33.9258,
"Longitude": 18.4232
},
{
"Name": "Cape Town",
"PostCode": "8002",
"Latitude": -33.9125,
"Longitude": 18.4193
},
{
"Name": "Cape Town",
"PostCode": "8003",
"Latitude": -33.9167,
"Longitude": 18.4167
},
{
"Name": "Cape Town",
"PostCode": "8005",
"Latitude": -33.9185,
"Longitude": 18.4131
},
{
"Name": "Cape Town",
"PostCode": "8007",
"Latitude": -33.9167,
"Longitude": 18.4167
},
{
"Name": "Cape Town",
"PostCode": "8008",
"Latitude": -33.9167,
"Longitude": 18.4167
},
{
"Name": "Cape Town",
"PostCode": "8010",
"Latitude": -33.9167,
"Longitude": 18.4167
},
{
"Name": "Cape Town",
"PostCode": "8012",
"Latitude": -33.9167,
"Longitude": 18.4167
},
{
"Name": "Cape Town",
"PostCode": "8017",
"Latitude": -33.9167,
"Longitude": 18.4167
},
{
"Name": "Cape Town",
"PostCode": "8018",
"Latitude": -33.9167,
"Longitude": 18.4167
},
{
"Name": "Cape Town",
"PostCode": "8020",
"Latitude": -33.9167,
"Longitude": 18.4167
},
{
"Name": "Cape Town",
"PostCode": "8040",
"Latitude": -33.9277,
"Longitude": 18.3999
},
{
"Name": "Cape Town",
"PostCode": "8050",
"Latitude": -33.9167,
"Longitude": 18.4167
},
{
"Name": "Cape Town",
"PostCode": "8051",
"Latitude": -33.9167,
"Longitude": 18.4167
},
{
"Name": "Cape Town",
"PostCode": "8060",
"Latitude": -33.9192,
"Longitude": 18.3964
},
{
"Name": "Cape Town",
"PostCode": "8160",
"Latitude": -33.9167,
"Longitude": 18.4167
},
{
"Name": "Carletonville",
"PostCode": "2495",
"Latitude": -26.3667,
"Longitude": 27.4
},
{
"Name": "Carletonville",
"PostCode": "2496",
"Latitude": -26.3667,
"Longitude": 27.4
},
{
"Name": "Carletonville",
"PostCode": "2499",
"Latitude": -26.3667,
"Longitude": 27.4
},
{
"Name": "Carletonville",
"PostCode": "2500",
"Latitude": -26.3667,
"Longitude": 27.4
},
{
"Name": "Carletonville",
"PostCode": "2501",
"Latitude": -26.3667,
"Longitude": 27.4
},
{
"Name": "Carletonville",
"PostCode": "2502",
"Latitude": -26.3667,
"Longitude": 27.4
},
{
"Name": "Carletonville",
"PostCode": "2503",
"Latitude": -26.3667,
"Longitude": 27.4
},
{
"Name": "Carletonville",
"PostCode": "2504",
"Latitude": -26.3667,
"Longitude": 27.4
},
{
"Name": "Carletonville",
"PostCode": "2507",
"Latitude": -26.3667,
"Longitude": 27.4
},
{
"Name": "Carletonville",
"PostCode": "2508",
"Latitude": -26.3667,
"Longitude": 27.4
},
{
"Name": "Carletonville",
"PostCode": "2509",
"Latitude": -26.3667,
"Longitude": 27.4
},
{
"Name": "Carletonville",
"PostCode": "2511",
"Latitude": -26.3667,
"Longitude": 27.4
},
{
"Name": "Carletonville",
"PostCode": "2513",
"Latitude": -26.3667,
"Longitude": 27.4
},
{
"Name": "Carletonville",
"PostCode": "2516",
"Latitude": -26.3667,
"Longitude": 27.4
},
{
"Name": "Carletonville",
"PostCode": "2517",
"Latitude": -26.3667,
"Longitude": 27.4
},
{
"Name": "Carletonville",
"PostCode": "2519",
"Latitude": -26.3667,
"Longitude": 27.4
},
{
"Name": "Carltonville",
"PostCode": "2534",
"Latitude": -26.7167,
"Longitude": 27.1
},
{
"Name": "Carnarvon",
"PostCode": "8922",
"Latitude": -30.95,
"Longitude": 22.1333
},
{
"Name": "Carnarvon",
"PostCode": "8925",
"Latitude": -30.95,
"Longitude": 22.1333
},
{
"Name": "Carolina",
"PostCode": "1185",
"Latitude": -26.0693,
"Longitude": 30.1149
},
{
"Name": "Cathcart",
"PostCode": "5310",
"Latitude": -32.3,
"Longitude": 27.1333
},
{
"Name": "Cato Ridge",
"PostCode": "3680",
"Latitude": -29.7333,
"Longitude": 30.5833
},
{
"Name": "Centurion",
"PostCode": "0014",
"Latitude": -25.7069,
"Longitude": 28.2294
},
{
"Name": "Centurion",
"PostCode": "0046",
"Latitude": -25.8744,
"Longitude": 28.1706
},
{
"Name": "Centurion",
"PostCode": "0051",
"Latitude": -25.8744,
"Longitude": 28.1706
},
{
"Name": "Centurion",
"PostCode": "0149",
"Latitude": -25.7069,
"Longitude": 28.2294
},
{
"Name": "Centurion",
"PostCode": "0157",
"Latitude": -25.8744,
"Longitude": 28.1706
},
{
"Name": "Centurion",
"PostCode": "0163",
"Latitude": -25.7069,
"Longitude": 28.2294
},
{
"Name": "Centurion",
"PostCode": "0171",
"Latitude": -25.8744,
"Longitude": 28.1706
},
{
"Name": "Centurion",
"PostCode": "0172",
"Latitude": -25.8744,
"Longitude": 28.1706
},
{
"Name": "Ceres",
"PostCode": "6835",
"Latitude": -33.3667,
"Longitude": 19.3167
},
{
"Name": "Ceres",
"PostCode": "6836",
"Latitude": -33.3667,
"Longitude": 19.3167
},
{
"Name": "Ceres",
"PostCode": "6837",
"Latitude": -33.3667,
"Longitude": 19.3167
},
{
"Name": "Ceres",
"PostCode": "6838",
"Latitude": -33.3667,
"Longitude": 19.3167
},
{
"Name": "Ceres",
"PostCode": "6840",
"Latitude": -33.3667,
"Longitude": 19.3167
},
{
"Name": "Ceza",
"PostCode": "3871",
"Latitude": -27.9833,
"Longitude": 31.3833
},
{
"Name": "Chatsworth",
"PostCode": "3604",
"Latitude": -29.8167,
"Longitude": 30.85
},
{
"Name": "Chatsworth",
"PostCode": "3610",
"Latitude": -29.9167,
"Longitude": 30.9
},
{
"Name": "Chatsworth",
"PostCode": "4030",
"Latitude": -33.55,
"Longitude": 18.5833
},
{
"Name": "Chatsworth",
"PostCode": "4054",
"Latitude": -33.55,
"Longitude": 18.5833
},
{
"Name": "Chatsworth",
"PostCode": "4084",
"Latitude": -33.55,
"Longitude": 18.5833
},
{
"Name": "Chatsworth",
"PostCode": "4087",
"Latitude": -33.55,
"Longitude": 18.5833
},
{
"Name": "Chatsworth",
"PostCode": "4092",
"Latitude": -29.9,
"Longitude": 30.9833
},
{
"Name": "Chatsworth",
"PostCode": "4132",
"Latitude": -33.55,
"Longitude": 18.5833
},
{
"Name": "Chatsworth",
"PostCode": "4142",
"Latitude": -33.55,
"Longitude": 18.5833
},
{
"Name": "Chatsworth",
"PostCode": "4147",
"Latitude": -26.1167,
"Longitude": 28.0917
},
{
"Name": "Christiana",
"PostCode": "2680",
"Latitude": -28.2333,
"Longitude": 21.25
},
{
"Name": "Chromite",
"PostCode": "0362",
"Latitude": -24.6,
"Longitude": 27.4
},
{
"Name": "Chuenespoort",
"PostCode": "0745",
"Latitude": -23.95,
"Longitude": 29.1333
},
{
"Name": "Citrusdal",
"PostCode": "7340",
"Latitude": -32.6,
"Longitude": 19.0167
},
{
"Name": "Clanwilliam",
"PostCode": "8120",
"Latitude": -32.1833,
"Longitude": 18.9
},
{
"Name": "Clanwilliam",
"PostCode": "8138",
"Latitude": -32.1833,
"Longitude": 18.9
},
{
"Name": "Claremont",
"PostCode": "7708",
"Latitude": -33.9833,
"Longitude": 18.4667
},
{
"Name": "Claremont",
"PostCode": "7740",
"Latitude": -33.9833,
"Longitude": 18.4667
},
{
"Name": "Clarens",
"PostCode": "9707",
"Latitude": -28.5167,
"Longitude": 28.4167
},
{
"Name": "Clarkebury",
"PostCode": "5024",
"Latitude": -31.7833,
"Longitude": 28.3
},
{
"Name": "Clarkebury",
"PostCode": "5026",
"Latitude": -31.7833,
"Longitude": 28.3
},
{
"Name": "Clernaville",
"PostCode": "3610",
"Latitude": -29.8139,
"Longitude": 30.8389
},
{
"Name": "Clocolan",
"PostCode": "9735",
"Latitude": -28.9,
"Longitude": 27.5667
},
{
"Name": "Coalville",
"PostCode": "1033",
"Latitude": -26.0333,
"Longitude": 29.1667
},
{
"Name": "Cofimvaba",
"PostCode": "5329",
"Latitude": -32.0167,
"Longitude": 27.5833
},
{
"Name": "Cofimvaba",
"PostCode": "5331",
"Latitude": -32.0167,
"Longitude": 27.5833
},
{
"Name": "Cofimvaba",
"PostCode": "5375",
"Latitude": -32.0167,
"Longitude": 27.5833
},
{
"Name": "Cofimvaba",
"PostCode": "5376",
"Latitude": -32.0167,
"Longitude": 27.5833
},
{
"Name": "Cofimvaba",
"PostCode": "5377",
"Latitude": -32.0167,
"Longitude": 27.5833
},
{
"Name": "Cofimvaba",
"PostCode": "5380",
"Latitude": -32.0167,
"Longitude": 27.5833
},
{
"Name": "Cofimvaba",
"PostCode": "5381",
"Latitude": -32.0167,
"Longitude": 27.5833
},
{
"Name": "Cofimvaba",
"PostCode": "5382",
"Latitude": -32.0167,
"Longitude": 27.5833
},
{
"Name": "Colchester",
"PostCode": "6175",
"Latitude": -33.6,
"Longitude": 26.9
},
{
"Name": "Colenso",
"PostCode": "3360",
"Latitude": -28.7333,
"Longitude": 29.8167
},
{
"Name": "Colesberg",
"PostCode": "9795",
"Latitude": -30.7333,
"Longitude": 25.1
},
{
"Name": "Colesberg",
"PostCode": "9797",
"Latitude": -30.7333,
"Longitude": 25.1
},
{
"Name": "Colesberg",
"PostCode": "9922",
"Latitude": -30.7333,
"Longitude": 25.1
},
{
"Name": "Coligny",
"PostCode": "2725",
"Latitude": -26.3333,
"Longitude": 26.3167
},
{
"Name": "Coligny",
"PostCode": "2726",
"Latitude": -26.3333,
"Longitude": 26.3167
},
{
"Name": "Coligny",
"PostCode": "2727",
"Latitude": -26.3333,
"Longitude": 26.3167
},
{
"Name": "Constantia",
"PostCode": "7806",
"Latitude": -34.0167,
"Longitude": 18.45
},
{
"Name": "Cookhouse",
"PostCode": "5820",
"Latitude": -32.75,
"Longitude": 25.8167
},
{
"Name": "Cookhouse",
"PostCode": "5821",
"Latitude": -32.75,
"Longitude": 25.8167
},
{
"Name": "Cookhouse",
"PostCode": "5824",
"Latitude": -32.75,
"Longitude": 25.8167
},
{
"Name": "Cookhouse",
"PostCode": "5830",
"Latitude": -32.75,
"Longitude": 25.8167
},
{
"Name": "Cornelia",
"PostCode": "9850",
"Latitude": -23.7167,
"Longitude": 29.1333
},
{
"Name": "Cradock",
"PostCode": "5365",
"Latitude": -32.1833,
"Longitude": 25.6167
},
{
"Name": "Cradock",
"PostCode": "5870",
"Latitude": -32.1833,
"Longitude": 25.6167
},
{
"Name": "Cradock",
"PostCode": "5880",
"Latitude": -32.1833,
"Longitude": 25.6167
},
{
"Name": "Cradock",
"PostCode": "5881",
"Latitude": -32.1833,
"Longitude": 25.6167
},
{
"Name": "Cradock",
"PostCode": "5882",
"Latitude": -32.1833,
"Longitude": 25.6167
},
{
"Name": "Cradock",
"PostCode": "5883",
"Latitude": -32.1833,
"Longitude": 25.6167
},
{
"Name": "Cradock",
"PostCode": "5884",
"Latitude": -32.1833,
"Longitude": 25.6167
},
{
"Name": "Crawford",
"PostCode": "7764",
"Latitude": -33.9833,
"Longitude": 18.5
},
{
"Name": "Creighton",
"PostCode": "3263",
"Latitude": -30.0333,
"Longitude": 29.8333
},
{
"Name": "Cullinan",
"PostCode": "1002",
"Latitude": -25.6756,
"Longitude": 28.5222
},
{
"Name": "Cullinan",
"PostCode": "1003",
"Latitude": -25.6756,
"Longitude": 28.5222
},
{
"Name": "Cullinan",
"PostCode": "1004",
"Latitude": -25.6756,
"Longitude": 28.5222
},
{
"Name": "Cullinan",
"PostCode": "1005",
"Latitude": -25.6756,
"Longitude": 28.5222
},
{
"Name": "Dalpark",
"PostCode": "1541",
"Latitude": -26.2333,
"Longitude": 28.3667
},
{
"Name": "Dalpark",
"PostCode": "1552",
"Latitude": -26.2333,
"Longitude": 28.3667
},
{
"Name": "Dalton",
"PostCode": "3230",
"Latitude": -29.3333,
"Longitude": 30.6333
},
{
"Name": "Dalton",
"PostCode": "3236",
"Latitude": -29.3333,
"Longitude": 30.6333
},
{
"Name": "Dalton",
"PostCode": "3238",
"Latitude": -29.3333,
"Longitude": 30.6333
},
{
"Name": "Dalton",
"PostCode": "3242",
"Latitude": -29.4,
"Longitude": 30.85
},
{
"Name": "Dalton",
"PostCode": "3259",
"Latitude": -29.3333,
"Longitude": 30.6333
},
{
"Name": "Danielskuil",
"PostCode": "8405",
"Latitude": -28.1833,
"Longitude": 23.5333
},
{
"Name": "Dannhause",
"PostCode": "3080",
"Latitude": -28.0,
"Longitude": 30.05
},
{
"Name": "Dannhauser",
"PostCode": "3080",
"Latitude": -28.0,
"Longitude": 30.05
},
{
"Name": "Darling",
"PostCode": "7345",
"Latitude": -26.9833,
"Longitude": 29.3167
},
{
"Name": "Darling",
"PostCode": "7351",
"Latitude": -33.3833,
"Longitude": 18.3833
},
{
"Name": "Darnall",
"PostCode": "4480",
"Latitude": -26.4,
"Longitude": 23.25
},
{
"Name": "Dassenberg",
"PostCode": "7347",
"Latitude": -33.0833,
"Longitude": 18.75
},
{
"Name": "Dassenberg",
"PostCode": "7349",
"Latitude": -33.5667,
"Longitude": 18.4833
},
{
"Name": "Dassenberg",
"PostCode": "7352",
"Latitude": -33.3367,
"Longitude": 18.3467
},
{
"Name": "Daveyton",
"PostCode": "1519",
"Latitude": -26.15,
"Longitude": 28.4167
},
{
"Name": "Daveyton",
"PostCode": "1520",
"Latitude": -26.15,
"Longitude": 28.4167
},
{
"Name": "Daveyton",
"PostCode": "1521",
"Latitude": -26.15,
"Longitude": 28.4167
},
{
"Name": "De Aar",
"PostCode": "7000",
"Latitude": -30.65,
"Longitude": 24.0167
},
{
"Name": "De Aar",
"PostCode": "8780",
"Latitude": -30.65,
"Longitude": 24.0167
},
{
"Name": "De Deur",
"PostCode": "1884",
"Latitude": -26.5333,
"Longitude": 27.9333
},
{
"Name": "Dealesville",
"PostCode": "9348",
"Latitude": -28.6667,
"Longitude": 25.7667
},
{
"Name": "Delareyville",
"PostCode": "2718",
"Latitude": -26.6833,
"Longitude": 25.4667
},
{
"Name": "Delareyville",
"PostCode": "2747",
"Latitude": -26.6833,
"Longitude": 25.4667
},
{
"Name": "Delareyville",
"PostCode": "2748",
"Latitude": -26.6833,
"Longitude": 25.4667
},
{
"Name": "Delareyville",
"PostCode": "2771",
"Latitude": -26.6833,
"Longitude": 25.4667
},
{
"Name": "Delareyville",
"PostCode": "2772",
"Latitude": -26.6833,
"Longitude": 25.4667
},
{
"Name": "Delareyville",
"PostCode": "2776",
"Latitude": -26.6833,
"Longitude": 25.4667
},
{
"Name": "Delft",
"PostCode": "7100",
"Latitude": -33.9778,
"Longitude": 18.6167
},
{
"Name": "Delmas",
"PostCode": "2210",
"Latitude": -26.15,
"Longitude": 28.6833
},
{
"Name": "Delmas",
"PostCode": "2211",
"Latitude": -26.15,
"Longitude": 28.6833
},
{
"Name": "Delmas",
"PostCode": "2213",
"Latitude": -26.15,
"Longitude": 28.6833
},
{
"Name": "Delmore",
"PostCode": "1401",
"Latitude": -26.2,
"Longitude": 28.175
},
{
"Name": "Delmore",
"PostCode": "1404",
"Latitude": -26.2167,
"Longitude": 28.1833
},
{
"Name": "Delportshoop",
"PostCode": "8377",
"Latitude": -28.4167,
"Longitude": 24.3
},
{
"Name": "Dendron",
"PostCode": "0786",
"Latitude": -23.3833,
"Longitude": 29.3333
},
{
"Name": "Deneysville",
"PostCode": "1932",
"Latitude": -26.8833,
"Longitude": 28.1
},
{
"Name": "Denneboom",
"PostCode": "0160",
"Latitude": -25.7181,
"Longitude": 28.3342
},
{
"Name": "Derdepoortpark",
"PostCode": "0035",
"Latitude": -25.7069,
"Longitude": 28.2294
},
{
"Name": "Desainagar",
"PostCode": "4399",
"Latitude": -29.114,
"Longitude": 30.6772
},
{
"Name": "Desainagar",
"PostCode": "4405",
"Latitude": -29.5833,
"Longitude": 31.1333
},
{
"Name": "Despatch",
"PostCode": "6220",
"Latitude": -33.8,
"Longitude": 25.4667
},
{
"Name": "Devon",
"PostCode": "2260",
"Latitude": -26.35,
"Longitude": 28.7667
},
{
"Name": "Dewetsdorp",
"PostCode": "9940",
"Latitude": -29.5833,
"Longitude": 26.6667
},
{
"Name": "Dibasabophelo",
"PostCode": "0457",
"Latitude": -24.9667,
"Longitude": 29.3
},
{
"Name": "Diep River",
"PostCode": "7800",
"Latitude": -34.0345,
"Longitude": 18.4651
},
{
"Name": "Diep River",
"PostCode": "7945",
"Latitude": -33.8021,
"Longitude": 19.5229
},
{
"Name": "Diepkloof",
"PostCode": "1804",
"Latitude": -26.2333,
"Longitude": 27.9333
},
{
"Name": "Diepkloof",
"PostCode": "1862",
"Latitude": -26.4667,
"Longitude": 28.2333
},
{
"Name": "Dikgakeng",
"PostCode": "9873",
"Latitude": -28.5333,
"Longitude": 28.8
},
{
"Name": "Dikgale",
"PostCode": "0721",
"Latitude": -23.7333,
"Longitude": 29.7833
},
{
"Name": "Dinokana",
"PostCode": "2868",
"Latitude": -25.45,
"Longitude": 25.8667
},
{
"Name": "Dobsonville",
"PostCode": "1723",
"Latitude": -26.2167,
"Longitude": 27.8667
},
{
"Name": "Dobsonville",
"PostCode": "1863",
"Latitude": -26.2167,
"Longitude": 27.8667
},
{
"Name": "Dobsonville",
"PostCode": "1865",
"Latitude": -26.2167,
"Longitude": 27.8667
},
{
"Name": "Dobsonville",
"PostCode": "1874",
"Latitude": -26.2167,
"Longitude": 27.8667
},
{
"Name": "Dobsonville",
"PostCode": "1875",
"Latitude": -26.2167,
"Longitude": 27.8667
},
{
"Name": "Donnybrook",
"PostCode": "3237",
"Latitude": -29.9333,
"Longitude": 29.8667
},
{
"Name": "Donnybrook",
"PostCode": "3241",
"Latitude": -29.9333,
"Longitude": 29.8667
},
{
"Name": "Doonside",
"PostCode": "4126",
"Latitude": -30.0667,
"Longitude": 30.8833
},
{
"Name": "Doornpoort",
"PostCode": "0017",
"Latitude": -25.6333,
"Longitude": 28.2667
},
{
"Name": "Doornpoort",
"PostCode": "0186",
"Latitude": -25.7069,
"Longitude": 28.2294
},
{
"Name": "Dordrecht",
"PostCode": "5420",
"Latitude": -31.3667,
"Longitude": 27.05
},
{
"Name": "Dordrecht",
"PostCode": "5435",
"Latitude": -31.3667,
"Longitude": 27.05
},
{
"Name": "Dordrecht",
"PostCode": "5436",
"Latitude": -31.3667,
"Longitude": 27.05
},
{
"Name": "Dormerton",
"PostCode": "4091",
"Latitude": -29.85,
"Longitude": 31.0
},
{
"Name": "Dormerton",
"PostCode": "4138",
"Latitude": -30.05,
"Longitude": 30.8833
},
{
"Name": "Douglas",
"PostCode": "8730",
"Latitude": -29.0667,
"Longitude": 23.7667
},
{
"Name": "Douglas",
"PostCode": "8735",
"Latitude": -26.0167,
"Longitude": 29.3667
},
{
"Name": "Driekop",
"PostCode": "1128",
"Latitude": -24.5833,
"Longitude": 30.1667
},
{
"Name": "Driekop",
"PostCode": "1131",
"Latitude": -24.5833,
"Longitude": 30.1667
},
{
"Name": "Dube",
"PostCode": "1801",
"Latitude": -26.25,
"Longitude": 27.9167
},
{
"Name": "Duduza",
"PostCode": "1494",
"Latitude": -26.3667,
"Longitude": 28.4167
},
{
"Name": "Duduza",
"PostCode": "1496",
"Latitude": -26.3667,
"Longitude": 28.4167
},
{
"Name": "Duiwelskloof",
"PostCode": "0815",
"Latitude": -23.7,
"Longitude": 30.1333
},
{
"Name": "Dundee",
"PostCode": "3000",
"Latitude": -28.1667,
"Longitude": 30.2333
},
{
"Name": "Dundee",
"PostCode": "3003",
"Latitude": -28.1667,
"Longitude": 30.2333
},
{
"Name": "Dundee",
"PostCode": "3004",
"Latitude": -28.1667,
"Longitude": 30.2333
},
{
"Name": "Dundee",
"PostCode": "3006",
"Latitude": -28.1667,
"Longitude": 30.2333
},
{
"Name": "Dundee",
"PostCode": "3016",
"Latitude": -28.1667,
"Longitude": 30.2333
},
{
"Name": "Dundee",
"PostCode": "3017",
"Latitude": -28.1667,
"Longitude": 30.2333
},
{
"Name": "Dundee",
"PostCode": "3081",
"Latitude": -28.1667,
"Longitude": 30.2333
},
{
"Name": "Dundonald",
"PostCode": "2336",
"Latitude": -26.5333,
"Longitude": 29.9833
},
{
"Name": "Dunnottar",
"PostCode": "1496",
"Latitude": -26.35,
"Longitude": 28.4167
},
{
"Name": "Durban",
"PostCode": "3611",
"Latitude": -29.85,
"Longitude": 31.0167
},
{
"Name": "Durban",
"PostCode": "3629",
"Latitude": -29.85,
"Longitude": 31.0167
},
{
"Name": "Durban",
"PostCode": "3630",
"Latitude": -29.85,
"Longitude": 31.0167
},
{
"Name": "Durban",
"PostCode": "4000",
"Latitude": -29.85,
"Longitude": 31.0167
},
{
"Name": "Durban",
"PostCode": "4001",
"Latitude": -29.8561,
"Longitude": 31.0352
},
{
"Name": "Durban",
"PostCode": "4004",
"Latitude": -29.85,
"Longitude": 31.0167
},
{
"Name": "Durban",
"PostCode": "4005",
"Latitude": -29.85,
"Longitude": 31.0167
},
{
"Name": "Durban",
"PostCode": "4006",
"Latitude": -29.85,
"Longitude": 31.0167
},
{
"Name": "Durban",
"PostCode": "4007",
"Latitude": -29.85,
"Longitude": 31.0167
},
{
"Name": "Durban",
"PostCode": "4008",
"Latitude": -29.85,
"Longitude": 31.0167
},
{
"Name": "Durban",
"PostCode": "4011",
"Latitude": -29.85,
"Longitude": 31.0167
},
{
"Name": "Durban",
"PostCode": "4013",
"Latitude": -29.85,
"Longitude": 31.0167
},
{
"Name": "Durban",
"PostCode": "4014",
"Latitude": -29.85,
"Longitude": 31.0167
},
{
"Name": "Durban",
"PostCode": "4015",
"Latitude": -29.85,
"Longitude": 31.0167
},
{
"Name": "Durban",
"PostCode": "4016",
"Latitude": -29.85,
"Longitude": 31.0167
},
{
"Name": "Durban",
"PostCode": "4017",
"Latitude": -29.85,
"Longitude": 31.0167
},
{
"Name": "Durban",
"PostCode": "4018",
"Latitude": -29.85,
"Longitude": 31.0167
},
{
"Name": "Durban",
"PostCode": "4022",
"Latitude": -29.85,
"Longitude": 31.0167
},
{
"Name": "Durban",
"PostCode": "4023",
"Latitude": -29.85,
"Longitude": 31.0167
},
{
"Name": "Durban",
"PostCode": "4024",
"Latitude": -29.85,
"Longitude": 31.0167
},
{
"Name": "Durban",
"PostCode": "4025",
"Latitude": -29.85,
"Longitude": 31.0167
},
{
"Name": "Durban",
"PostCode": "4026",
"Latitude": -29.85,
"Longitude": 31.0167
},
{
"Name": "Durban",
"PostCode": "4027",
"Latitude": -29.85,
"Longitude": 31.0167
},
{
"Name": "Durban",
"PostCode": "4028",
"Latitude": -29.85,
"Longitude": 31.0167
},
{
"Name": "Durban",
"PostCode": "4029",
"Latitude": -29.85,
"Longitude": 31.0167
},
{
"Name": "Durban",
"PostCode": "4034",
"Latitude": -29.85,
"Longitude": 31.0167
},
{
"Name": "Durban",
"PostCode": "4035",
"Latitude": -29.85,
"Longitude": 31.0167
},
{
"Name": "Durban",
"PostCode": "4036",
"Latitude": -29.85,
"Longitude": 31.0167
},
{
"Name": "Durban",
"PostCode": "4037",
"Latitude": -29.85,
"Longitude": 31.0167
},
{
"Name": "Durban",
"PostCode": "4038",
"Latitude": -29.85,
"Longitude": 31.0167
},
{
"Name": "Durban",
"PostCode": "4051",
"Latitude": -29.8,
"Longitude": 31.0333
},
{
"Name": "Durban",
"PostCode": "4052",
"Latitude": -29.85,
"Longitude": 31.0167
},
{
"Name": "Durban",
"PostCode": "4053",
"Latitude": -29.85,
"Longitude": 31.0167
},
{
"Name": "Durban",
"PostCode": "4056",
"Latitude": -29.85,
"Longitude": 31.0167
},
{
"Name": "Durban",
"PostCode": "4057",
"Latitude": -29.85,
"Longitude": 31.0167
},
{
"Name": "Durban",
"PostCode": "4058",
"Latitude": -29.85,
"Longitude": 31.0167
},
{
"Name": "Durban",
"PostCode": "4059",
"Latitude": -29.85,
"Longitude": 31.0167
},
{
"Name": "Durban",
"PostCode": "4060",
"Latitude": -29.85,
"Longitude": 31.0167
},
{
"Name": "Durban",
"PostCode": "4061",
"Latitude": -29.85,
"Longitude": 31.0167
},
{
"Name": "Durban",
"PostCode": "4062",
"Latitude": -29.85,
"Longitude": 31.0167
},
{
"Name": "Durban",
"PostCode": "4063",
"Latitude": -29.85,
"Longitude": 31.0167
},
{
"Name": "Durban",
"PostCode": "4064",
"Latitude": -29.85,
"Longitude": 31.0167
},
{
"Name": "Durban",
"PostCode": "4065",
"Latitude": -29.85,
"Longitude": 31.0167
},
{
"Name": "Durban",
"PostCode": "4067",
"Latitude": -29.85,
"Longitude": 31.0167
},
{
"Name": "Durban",
"PostCode": "4068",
"Latitude": -29.85,
"Longitude": 31.0167
},
{
"Name": "Durban",
"PostCode": "4069",
"Latitude": -29.85,
"Longitude": 31.0167
},
{
"Name": "Durban",
"PostCode": "4070",
"Latitude": -29.85,
"Longitude": 31.0167
},
{
"Name": "Durban",
"PostCode": "4071",
"Latitude": -29.85,
"Longitude": 31.0167
},
{
"Name": "Durban",
"PostCode": "4074",
"Latitude": -29.85,
"Longitude": 31.0167
},
{
"Name": "Durban",
"PostCode": "4075",
"Latitude": -29.85,
"Longitude": 31.0167
},
{
"Name": "Durban",
"PostCode": "4078",
"Latitude": -29.85,
"Longitude": 31.0167
},
{
"Name": "Durban",
"PostCode": "4080",
"Latitude": -29.85,
"Longitude": 31.0167
},
{
"Name": "Durban",
"PostCode": "4083",
"Latitude": -29.85,
"Longitude": 31.0167
},
{
"Name": "Durban",
"PostCode": "4085",
"Latitude": -29.85,
"Longitude": 31.0167
},
{
"Name": "Durban",
"PostCode": "4090",
"Latitude": -29.85,
"Longitude": 31.0167
},
{
"Name": "Durban",
"PostCode": "4091",
"Latitude": -29.85,
"Longitude": 31.0167
},
{
"Name": "Durban",
"PostCode": "4092",
"Latitude": -29.85,
"Longitude": 31.0167
},
{
"Name": "Durban",
"PostCode": "4093",
"Latitude": -29.85,
"Longitude": 31.0167
},
{
"Name": "Durban",
"PostCode": "4094",
"Latitude": -29.85,
"Longitude": 31.0167
},
{
"Name": "Durban",
"PostCode": "4101",
"Latitude": -29.85,
"Longitude": 31.0167
},
{
"Name": "Durban",
"PostCode": "4104",
"Latitude": -29.85,
"Longitude": 31.0167
},
{
"Name": "Durban",
"PostCode": "4137",
"Latitude": -29.85,
"Longitude": 31.0167
},
{
"Name": "Durban",
"PostCode": "4162",
"Latitude": -29.85,
"Longitude": 31.0167
},
{
"Name": "Durban",
"PostCode": "4309",
"Latitude": -26.1167,
"Longitude": 28.05
},
{
"Name": "Durban",
"PostCode": "4310",
"Latitude": -29.85,
"Longitude": 31.0167
},
{
"Name": "Durban",
"PostCode": "4359",
"Latitude": -29.75,
"Longitude": 30.9833
},
{
"Name": "Durban",
"PostCode": "4360",
"Latitude": -29.85,
"Longitude": 31.0167
},
{
"Name": "Durban",
"PostCode": "4362",
"Latitude": -29.85,
"Longitude": 31.0167
},
{
"Name": "Durban North",
"PostCode": "4019",
"Latitude": -29.8,
"Longitude": 31.0333
},
{
"Name": "Durban North",
"PostCode": "4051",
"Latitude": -29.8,
"Longitude": 31.0333
},
{
"Name": "Durban North",
"PostCode": "4098",
"Latitude": -29.8,
"Longitude": 31.0333
},
{
"Name": "Durban-Noord",
"PostCode": "4051",
"Latitude": -29.8,
"Longitude": 31.0333
},
{
"Name": "Durbanville",
"PostCode": "7550",
"Latitude": -33.8333,
"Longitude": 18.65
},
{
"Name": "Dwars River",
"PostCode": "0812",
"Latitude": -23.45,
"Longitude": 29.75
},
{
"Name": "Dzanani",
"PostCode": "0955",
"Latitude": -22.8833,
"Longitude": 30.1667
},
{
"Name": "East London",
"PostCode": "5201",
"Latitude": -33.0249,
"Longitude": 27.9082
},
{
"Name": "East London",
"PostCode": "5204",
"Latitude": -33.0333,
"Longitude": 27.9167
},
{
"Name": "East London",
"PostCode": "5205",
"Latitude": -33.0333,
"Longitude": 27.9167
},
{
"Name": "East London",
"PostCode": "5206",
"Latitude": -33.0333,
"Longitude": 27.9167
},
{
"Name": "East London",
"PostCode": "5207",
"Latitude": -33.0333,
"Longitude": 27.9167
},
{
"Name": "East London",
"PostCode": "5208",
"Latitude": -33.0333,
"Longitude": 27.9167
},
{
"Name": "East London",
"PostCode": "5209",
"Latitude": -33.0333,
"Longitude": 27.9167
},
{
"Name": "East London",
"PostCode": "5210",
"Latitude": -33.0333,
"Longitude": 27.9167
},
{
"Name": "East London",
"PostCode": "5211",
"Latitude": -33.0333,
"Longitude": 27.9167
},
{
"Name": "East London",
"PostCode": "5212",
"Latitude": -33.0333,
"Longitude": 27.9167
},
{
"Name": "East London",
"PostCode": "5213",
"Latitude": -33.0333,
"Longitude": 27.9167
},
{
"Name": "East London",
"PostCode": "5214",
"Latitude": -33.0333,
"Longitude": 27.9167
},
{
"Name": "East London",
"PostCode": "5216",
"Latitude": -33.0333,
"Longitude": 27.9167
},
{
"Name": "East London",
"PostCode": "5217",
"Latitude": -33.0333,
"Longitude": 27.9167
},
{
"Name": "East London",
"PostCode": "5218",
"Latitude": -33.0333,
"Longitude": 27.9167
},
{
"Name": "East London",
"PostCode": "5219",
"Latitude": -33.0333,
"Longitude": 27.9167
},
{
"Name": "East London",
"PostCode": "5220",
"Latitude": -33.0333,
"Longitude": 27.9167
},
{
"Name": "East London",
"PostCode": "5241",
"Latitude": -33.0333,
"Longitude": 27.9167
},
{
"Name": "East London",
"PostCode": "5247",
"Latitude": -33.0333,
"Longitude": 27.9167
},
{
"Name": "East London",
"PostCode": "5252",
"Latitude": -33.0333,
"Longitude": 27.9167
},
{
"Name": "East London",
"PostCode": "5253",
"Latitude": -33.0333,
"Longitude": 27.9167
},
{
"Name": "East London",
"PostCode": "5259",
"Latitude": -33.0333,
"Longitude": 27.9167
},
{
"Name": "East London",
"PostCode": "5260",
"Latitude": -33.0333,
"Longitude": 27.9167
},
{
"Name": "East London",
"PostCode": "5264",
"Latitude": -33.0333,
"Longitude": 27.9167
},
{
"Name": "East London",
"PostCode": "5265",
"Latitude": -33.0333,
"Longitude": 27.9167
},
{
"Name": "East London",
"PostCode": "5272",
"Latitude": -33.0333,
"Longitude": 27.9167
},
{
"Name": "East London",
"PostCode": "5275",
"Latitude": -33.0333,
"Longitude": 27.9167
},
{
"Name": "East London",
"PostCode": "5284",
"Latitude": -33.0333,
"Longitude": 27.9167
},
{
"Name": "East London",
"PostCode": "5288",
"Latitude": -33.0333,
"Longitude": 27.9167
},
{
"Name": "East London",
"PostCode": "5292",
"Latitude": -33.0333,
"Longitude": 27.9167
},
{
"Name": "East London",
"PostCode": "5688",
"Latitude": -33.0333,
"Longitude": 27.9167
},
{
"Name": "Eastern Cape",
"PostCode": "5740",
"Latitude": -32.765,
"Longitude": 26.685
},
{
"Name": "Eastern Cape",
"PostCode": "5900",
"Latitude": -29.8389,
"Longitude": 26.2444
},
{
"Name": "Edenburg",
"PostCode": "9908",
"Latitude": -29.7333,
"Longitude": 25.9333
},
{
"Name": "Edendale",
"PostCode": "3201",
"Latitude": -29.65,
"Longitude": 30.2833
},
{
"Name": "Edendale",
"PostCode": "3204",
"Latitude": -29.6167,
"Longitude": 30.3833
},
{
"Name": "Edendale",
"PostCode": "3217",
"Latitude": -29.6167,
"Longitude": 30.3833
},
{
"Name": "Edendale",
"PostCode": "3218",
"Latitude": -29.65,
"Longitude": 30.2833
},
{
"Name": "Edenvale",
"PostCode": "1609",
"Latitude": -26.1333,
"Longitude": 28.1833
},
{
"Name": "Edenvale",
"PostCode": "1611",
"Latitude": -26.1333,
"Longitude": 28.1833
},
{
"Name": "Edenvale",
"PostCode": "1612",
"Latitude": -26.1333,
"Longitude": 28.1833
},
{
"Name": "Edenvale",
"PostCode": "1613",
"Latitude": -26.1333,
"Longitude": 28.1833
},
{
"Name": "Edenvale",
"PostCode": "1614",
"Latitude": -26.1333,
"Longitude": 28.1833
},
{
"Name": "Edenvale",
"PostCode": "1645",
"Latitude": -26.1333,
"Longitude": 28.1833
},
{
"Name": "Edenville",
"PostCode": "9535",
"Latitude": -29.2667,
"Longitude": 21.6333
},
{
"Name": "Eerste River",
"PostCode": "7100",
"Latitude": -34.0,
"Longitude": 18.7333
},
{
"Name": "Eerste River",
"PostCode": "7101",
"Latitude": -34.0,
"Longitude": 18.7333
},
{
"Name": "Eerste River",
"PostCode": "7102",
"Latitude": -34.0,
"Longitude": 18.7333
},
{
"Name": "Eerste River",
"PostCode": "7105",
"Latitude": -34.0,
"Longitude": 18.7333
},
{
"Name": "Eerste Rivier",
"PostCode": "7100",
"Latitude": -33.9778,
"Longitude": 18.6167
},
{
"Name": "Eersterivier",
"PostCode": "7100",
"Latitude": -34.0167,
"Longitude": 18.7
},
{
"Name": "Eersterus",
"PostCode": "0022",
"Latitude": -25.7236,
"Longitude": 28.3194
},
{
"Name": "Ekangala",
"PostCode": "1021",
"Latitude": -25.6944,
"Longitude": 28.7483
},
{
"Name": "Elandsfontein",
"PostCode": "1429",
"Latitude": -26.3833,
"Longitude": 27.8667
},
{
"Name": "Elandskop",
"PostCode": "3226",
"Latitude": -29.3167,
"Longitude": 29.7
},
{
"Name": "Eldoradopark",
"PostCode": "1811",
"Latitude": -26.3,
"Longitude": 27.9
},
{
"Name": "Eldoradopark",
"PostCode": "1812",
"Latitude": -26.3,
"Longitude": 27.9
},
{
"Name": "Eldoradopark",
"PostCode": "1813",
"Latitude": -26.3,
"Longitude": 27.9
},
{
"Name": "Eldoradopark",
"PostCode": "1821",
"Latitude": -26.3,
"Longitude": 27.9
},
{
"Name": "Eldoradopark",
"PostCode": "1832",
"Latitude": -26.3,
"Longitude": 27.9
},
{
"Name": "Elliot",
"PostCode": "5460",
"Latitude": -30.9167,
"Longitude": 26.6833
},
{
"Name": "Elliotdale",
"PostCode": "5070",
"Latitude": -31.9667,
"Longitude": 28.6833
},
{
"Name": "Elliotdale",
"PostCode": "5072",
"Latitude": -31.9667,
"Longitude": 28.6833
},
{
"Name": "Elliotdale",
"PostCode": "5073",
"Latitude": -31.9667,
"Longitude": 28.6833
},
{
"Name": "Elliotdale",
"PostCode": "5075",
"Latitude": -31.9667,
"Longitude": 28.6833
},
{
"Name": "Elliotdale",
"PostCode": "5118",
"Latitude": -31.9667,
"Longitude": 28.6833
},
{
"Name": "Ellisras",
"PostCode": "0531",
"Latitude": -23.6667,
"Longitude": 27.7333
},
{
"Name": "Ellisras",
"PostCode": "0532",
"Latitude": -23.6667,
"Longitude": 27.7333
},
{
"Name": "Ellisras",
"PostCode": "0533",
"Latitude": -23.6667,
"Longitude": 27.7333
},
{
"Name": "Ellisras",
"PostCode": "0534",
"Latitude": -23.6667,
"Longitude": 27.7333
},
{
"Name": "Ellisras",
"PostCode": "0536",
"Latitude": -23.6667,
"Longitude": 27.7333
},
{
"Name": "Ellisras",
"PostCode": "0555",
"Latitude": -23.6667,
"Longitude": 27.7333
},
{
"Name": "Ellisras",
"PostCode": "0556",
"Latitude": -23.6667,
"Longitude": 27.7333
},
{
"Name": "Ellisras",
"PostCode": "0557",
"Latitude": -23.6667,
"Longitude": 27.7333
},
{
"Name": "Elsburg",
"PostCode": "1409",
"Latitude": -26.2333,
"Longitude": 28.2
},
{
"Name": "Elsburg",
"PostCode": "1428",
"Latitude": -26.3,
"Longitude": 28.1333
},
{
"Name": "Elsies River",
"PostCode": "7490",
"Latitude": -33.9222,
"Longitude": 18.5222
},
{
"Name": "Elsiesrivier",
"PostCode": "7490",
"Latitude": -33.9167,
"Longitude": 18.5667
},
{
"Name": "Elspark",
"PostCode": "7764",
"Latitude": -33.9778,
"Longitude": 18.5167
},
{
"Name": "Embalenhle",
"PostCode": "2285",
"Latitude": -26.5333,
"Longitude": 29.0667
},
{
"Name": "Emerald Hill",
"PostCode": "6011",
"Latitude": -34.0,
"Longitude": 25.55
},
{
"Name": "Emerald Hill",
"PostCode": "6070",
"Latitude": -34.0,
"Longitude": 25.55
},
{
"Name": "Emondlo",
"PostCode": "3101",
"Latitude": -28.2533,
"Longitude": 29.9933
},
{
"Name": "Empangeni",
"PostCode": "3875",
"Latitude": -28.75,
"Longitude": 31.9
},
{
"Name": "Empangeni",
"PostCode": "3879",
"Latitude": -28.75,
"Longitude": 31.9
},
{
"Name": "Empangeni",
"PostCode": "3880",
"Latitude": -28.75,
"Longitude": 31.8999
},
{
"Name": "Empangeni",
"PostCode": "3881",
"Latitude": -28.75,
"Longitude": 31.9
},
{
"Name": "Empangeni",
"PostCode": "3882",
"Latitude": -28.75,
"Longitude": 31.9
},
{
"Name": "Empangeni",
"PostCode": "3884",
"Latitude": -28.75,
"Longitude": 31.9
},
{
"Name": "Empangeni",
"PostCode": "3900",
"Latitude": -28.7901,
"Longitude": 32.0971
},
{
"Name": "Empangeni",
"PostCode": "3910",
"Latitude": -28.75,
"Longitude": 31.9
},
{
"Name": "Empangeni",
"PostCode": "3920",
"Latitude": -28.75,
"Longitude": 31.9
},
{
"Name": "Empangeni",
"PostCode": "3965",
"Latitude": -28.75,
"Longitude": 31.9
},
{
"Name": "Empangeni",
"PostCode": "3970",
"Latitude": -27.5667,
"Longitude": 32.0833
},
{
"Name": "Empumalanga",
"PostCode": "0458",
"Latitude": -25.3167,
"Longitude": 31.1
},
{
"Name": "Engcobo",
"PostCode": "5050",
"Latitude": -31.6833,
"Longitude": 28.0
},
{
"Name": "Engcobo",
"PostCode": "5051",
"Latitude": -31.6667,
"Longitude": 28.0
},
{
"Name": "Engcobo",
"PostCode": "5052",
"Latitude": -31.6833,
"Longitude": 28.0
},
{
"Name": "Engcobo",
"PostCode": "5054",
"Latitude": -31.6833,
"Longitude": 28.0
},
{
"Name": "Engcobo",
"PostCode": "5055",
"Latitude": -31.6833,
"Longitude": 28.0
},
{
"Name": "Engcobo",
"PostCode": "5056",
"Latitude": -31.6833,
"Longitude": 28.0
},
{
"Name": "Engcobo",
"PostCode": "5057",
"Latitude": -31.6833,
"Longitude": 28.0
},
{
"Name": "Engcobo",
"PostCode": "5058",
"Latitude": -31.6833,
"Longitude": 28.0
},
{
"Name": "Ennerdale",
"PostCode": "1824",
"Latitude": -26.4167,
"Longitude": 27.8333
},
{
"Name": "Ennerdale",
"PostCode": "1825",
"Latitude": -26.4167,
"Longitude": 27.8333
},
{
"Name": "Ennerdale",
"PostCode": "1830",
"Latitude": -26.3167,
"Longitude": 27.8333
},
{
"Name": "Ermelo",
"PostCode": "2330",
"Latitude": -26.5333,
"Longitude": 29.9833
},
{
"Name": "Ermelo",
"PostCode": "2332",
"Latitude": -26.5333,
"Longitude": 29.9833
},
{
"Name": "Ermelo",
"PostCode": "2333",
"Latitude": -26.5333,
"Longitude": 29.9833
},
{
"Name": "Ermelo",
"PostCode": "2334",
"Latitude": -26.5333,
"Longitude": 29.9833
},
{
"Name": "Ermelo",
"PostCode": "2336",
"Latitude": -26.5333,
"Longitude": 29.9833
},
{
"Name": "Ermelo",
"PostCode": "2337",
"Latitude": -26.5333,
"Longitude": 29.9833
},
{
"Name": "Ermelo",
"PostCode": "2339",
"Latitude": -26.5333,
"Longitude": 29.9833
},
{
"Name": "Ermelo",
"PostCode": "2340",
"Latitude": -26.5333,
"Longitude": 29.9833
},
{
"Name": "Ermelo",
"PostCode": "2341",
"Latitude": -26.5333,
"Longitude": 29.9833
},
{
"Name": "Ermelo",
"PostCode": "2351",
"Latitude": -26.5333,
"Longitude": 29.9833
},
{
"Name": "Ermelo",
"PostCode": "2352",
"Latitude": -26.5333,
"Longitude": 29.9833
},
{
"Name": "Ermelo",
"PostCode": "2353",
"Latitude": -26.5333,
"Longitude": 29.9833
},
{
"Name": "Ermelo",
"PostCode": "2355",
"Latitude": -26.5333,
"Longitude": 29.9833
},
{
"Name": "Ermelo",
"PostCode": "2356",
"Latitude": -26.5333,
"Longitude": 29.9833
},
{
"Name": "Ermelo",
"PostCode": "2357",
"Latitude": -26.5333,
"Longitude": 29.9833
},
{
"Name": "Ermelo",
"PostCode": "2370",
"Latitude": -26.5333,
"Longitude": 29.9833
},
{
"Name": "Eshowe",
"PostCode": "3814",
"Latitude": -28.8833,
"Longitude": 31.4667
},
{
"Name": "Eshowe",
"PostCode": "3815",
"Latitude": -28.8833,
"Longitude": 31.4667
},
{
"Name": "Eshowe",
"PostCode": "3816",
"Latitude": -28.8833,
"Longitude": 31.4667
},
{
"Name": "Eshowe",
"PostCode": "3817",
"Latitude": -28.8833,
"Longitude": 31.4667
},
{
"Name": "Eshowe",
"PostCode": "3820",
"Latitude": -28.8833,
"Longitude": 31.4667
},
{
"Name": "Eshowe",
"PostCode": "3830",
"Latitude": -28.8833,
"Longitude": 31.4667
},
{
"Name": "Eshowe",
"PostCode": "3850",
"Latitude": -28.5833,
"Longitude": 31.3833
},
{
"Name": "Esikhawini",
"PostCode": "3887",
"Latitude": -28.8833,
"Longitude": 31.9
},
{
"Name": "Estadeal",
"PostCode": "6012",
"Latitude": -33.9667,
"Longitude": 25.5833
},
{
"Name": "Estcourt",
"PostCode": "3280",
"Latitude": -29.0,
"Longitude": 29.8833
},
{
"Name": "Estcourt",
"PostCode": "3300",
"Latitude": -29.2,
"Longitude": 29.9833
},
{
"Name": "Estcourt",
"PostCode": "3301",
"Latitude": -29.0,
"Longitude": 29.8833
},
{
"Name": "Estcourt",
"PostCode": "3310",
"Latitude": -29.0,
"Longitude": 29.8833
},
{
"Name": "Estcourt",
"PostCode": "3312",
"Latitude": -29.0,
"Longitude": 29.8833
},
{
"Name": "Estcourt",
"PostCode": "3313",
"Latitude": -29.0,
"Longitude": 29.8833
},
{
"Name": "Estcourt",
"PostCode": "3325",
"Latitude": -29.0,
"Longitude": 29.8833
},
{
"Name": "Estcourt",
"PostCode": "3330",
"Latitude": -29.0,
"Longitude": 29.8833
},
{
"Name": "Ethwathwa West Uit 2",
"PostCode": "1519",
"Latitude": -26.15,
"Longitude": 28.4167
},
{
"Name": "Evander",
"PostCode": "2260",
"Latitude": -26.35,
"Longitude": 28.7667
},
{
"Name": "Evander",
"PostCode": "2266",
"Latitude": -26.45,
"Longitude": 29.1167
},
{
"Name": "Evander",
"PostCode": "2270",
"Latitude": -26.45,
"Longitude": 29.1167
},
{
"Name": "Evander",
"PostCode": "2284",
"Latitude": -26.45,
"Longitude": 29.1167
},
{
"Name": "Evander",
"PostCode": "2285",
"Latitude": -26.45,
"Longitude": 29.1167
},
{
"Name": "Excelsior",
"PostCode": "9760",
"Latitude": -25.8333,
"Longitude": 30.5167
},
{
"Name": "Ezakheni",
"PostCode": "3381",
"Latitude": -28.55,
"Longitude": 29.7833
},
{
"Name": "Faerie Glen",
"PostCode": "0043",
"Latitude": -30.85,
"Longitude": 30.3333
},
{
"Name": "Faerie Glen",
"PostCode": "0081",
"Latitude": -25.7069,
"Longitude": 28.2294
},
{
"Name": "Fauresmith",
"PostCode": "9978",
"Latitude": -29.75,
"Longitude": 25.3167
},
{
"Name": "Ficksburg",
"PostCode": "9730",
"Latitude": -28.8833,
"Longitude": 27.8833
},
{
"Name": "Ficksburg",
"PostCode": "9732",
"Latitude": -28.8833,
"Longitude": 27.8833
},
{
"Name": "Firgrove",
"PostCode": "7130",
"Latitude": -34.075,
"Longitude": 18.8083
},
{
"Name": "Fish Hoek",
"PostCode": "7975",
"Latitude": -34.0056,
"Longitude": 18.4222
},
{
"Name": "Fish Hoek",
"PostCode": "7976",
"Latitude": -33.9833,
"Longitude": 18.4208
},
{
"Name": "Fish Hoek",
"PostCode": "7977",
"Latitude": -33.9833,
"Longitude": 18.4208
},
{
"Name": "Fish Hoek",
"PostCode": "7978",
"Latitude": -33.9833,
"Longitude": 18.4208
},
{
"Name": "Fish Hoek",
"PostCode": "7979",
"Latitude": -33.9833,
"Longitude": 18.4208
},
{
"Name": "Fish Hoek",
"PostCode": "7985",
"Latitude": -33.823,
"Longitude": 19.2508
},
{
"Name": "Fish Hoek",
"PostCode": "7990",
"Latitude": -34.1333,
"Longitude": 18.4333
},
{
"Name": "Fish Hoek",
"PostCode": "7995",
"Latitude": -34.1833,
"Longitude": 18.4333
},
{
"Name": "Fishhoek",
"PostCode": "7975",
"Latitude": -34.0056,
"Longitude": 18.4222
},
{
"Name": "Flagstaff",
"PostCode": "4810",
"Latitude": -31.0833,
"Longitude": 29.4833
},
{
"Name": "Flagstaff",
"PostCode": "4811",
"Latitude": -31.0833,
"Longitude": 29.4833
},
{
"Name": "Flagstaff",
"PostCode": "4812",
"Latitude": -31.0833,
"Longitude": 29.4833
},
{
"Name": "Flagstaff",
"PostCode": "4813",
"Latitude": -31.0833,
"Longitude": 29.4833
},
{
"Name": "Flagstaff",
"PostCode": "4814",
"Latitude": -31.0833,
"Longitude": 29.4833
},
{
"Name": "Flagstaff",
"PostCode": "4821",
"Latitude": -31.0833,
"Longitude": 29.4833
},
{
"Name": "Florida",
"PostCode": "1700",
"Latitude": -26.1667,
"Longitude": 27.9167
},
{
"Name": "Florida",
"PostCode": "1701",
"Latitude": -29.9333,
"Longitude": 26.15
},
{
"Name": "Florida",
"PostCode": "1708",
"Latitude": -26.1667,
"Longitude": 27.9167
},
{
"Name": "Florida",
"PostCode": "1709",
"Latitude": -29.9333,
"Longitude": 26.15
},
{
"Name": "Florida",
"PostCode": "1711",
"Latitude": -26.1667,
"Longitude": 27.9167
},
{
"Name": "Florida",
"PostCode": "1712",
"Latitude": -26.1667,
"Longitude": 27.9167
},
{
"Name": "Florida",
"PostCode": "1715",
"Latitude": -26.1667,
"Longitude": 27.9167
},
{
"Name": "Florida",
"PostCode": "1716",
"Latitude": -26.1667,
"Longitude": 27.9167
},
{
"Name": "Florida",
"PostCode": "1724",
"Latitude": -26.1667,
"Longitude": 27.9167
},
{
"Name": "Florida",
"PostCode": "2114",
"Latitude": -26.2,
"Longitude": 28.0833
},
{
"Name": "Fochville",
"PostCode": "2515",
"Latitude": -26.4833,
"Longitude": 27.5
},
{
"Name": "Fort Beaufort",
"PostCode": "5720",
"Latitude": -32.7833,
"Longitude": 26.6333
},
{
"Name": "Fort Beaufort",
"PostCode": "5730",
"Latitude": -32.7833,
"Longitude": 26.6333
},
{
"Name": "Four Ways",
"PostCode": "2055",
"Latitude": -26.0333,
"Longitude": 27.9833
},
{
"Name": "Four Ways",
"PostCode": "2191",
"Latitude": -26.1,
"Longitude": 28.0556
},
{
"Name": "Fouriesburg",
"PostCode": "9725",
"Latitude": -28.5833,
"Longitude": 28.1333
},
{
"Name": "Frankfort",
"PostCode": "9830",
"Latitude": -27.2833,
"Longitude": 28.5
},
{
"Name": "Franschhoek",
"PostCode": "7690",
"Latitude": -33.9166,
"Longitude": 19.1166
},
{
"Name": "Franschhoek",
"PostCode": "7691",
"Latitude": -33.9167,
"Longitude": 19.1167
},
{
"Name": "Fraserburg",
"PostCode": "6960",
"Latitude": -31.9167,
"Longitude": 21.5167
},
{
"Name": "Free State",
"PostCode": "9430",
"Latitude": -28.1167,
"Longitude": 26.9
},
{
"Name": "Free State",
"PostCode": "9431",
"Latitude": -28.1167,
"Longitude": 26.9
},
{
"Name": "Free State",
"PostCode": "9535",
"Latitude": -29.2667,
"Longitude": 21.6333
},
{
"Name": "Free State",
"PostCode": "9958",
"Latitude": -30.4167,
"Longitude": 26.8333
},
{
"Name": "Gakgapane",
"PostCode": "0838",
"Latitude": -23.3167,
"Longitude": 30.7167
},
{
"Name": "Gakgapane",
"PostCode": "0847",
"Latitude": -23.3167,
"Longitude": 30.7167
},
{
"Name": "Gakgapane",
"PostCode": "0862",
"Latitude": -23.8333,
"Longitude": 30.1667
},
{
"Name": "Gakgapane",
"PostCode": "0897",
"Latitude": -24.0722,
"Longitude": 30.4
},
{
"Name": "Galeshewe",
"PostCode": "8330",
"Latitude": -27.9796,
"Longitude": 25.1093
},
{
"Name": "Ga-Maraba",
"PostCode": "0705",
"Latitude": -23.7167,
"Longitude": 29.3167
},
{
"Name": "Gambleville",
"PostCode": "6241",
"Latitude": -33.7839,
"Longitude": 25.3974
},
{
"Name": "Gans Bay",
"PostCode": "7220",
"Latitude": -34.5833,
"Longitude": 19.35
},
{
"Name": "Gans Bay",
"PostCode": "7221",
"Latitude": -34.5833,
"Longitude": 19.35
},
{
"Name": "Gans Bay",
"PostCode": "7271",
"Latitude": -34.5833,
"Longitude": 19.35
},
{
"Name": "Ganyesa",
"PostCode": "8582",
"Latitude": -26.6,
"Longitude": 24.1833
},
{
"Name": "Ganyesa",
"PostCode": "8587",
"Latitude": -26.6,
"Longitude": 24.1833
},
{
"Name": "Ganyesa",
"PostCode": "8604",
"Latitude": -26.6,
"Longitude": 24.1833
},
{
"Name": "Ganyesa",
"PostCode": "8623",
"Latitude": -26.6,
"Longitude": 24.1833
},
{
"Name": "Ga-Rankuwa",
"PostCode": "0208",
"Latitude": -25.5883,
"Longitude": 28.0078
},
{
"Name": "Garapulana",
"PostCode": "9775",
"Latitude": -29.3154,
"Longitude": 27.4386
},
{
"Name": "Ga-Rapulana",
"PostCode": "9775",
"Latitude": -29.3154,
"Longitude": 27.4386
},
{
"Name": "Ga-Rapulana",
"PostCode": "9780",
"Latitude": -29.6583,
"Longitude": 26.9854
},
{
"Name": "Ga-Rapulana",
"PostCode": "9783",
"Latitude": -29.2083,
"Longitude": 26.825
},
{
"Name": "Garies",
"PostCode": "8221",
"Latitude": -30.55,
"Longitude": 17.9833
},
{
"Name": "Garies",
"PostCode": "8223",
"Latitude": -30.55,
"Longitude": 17.9833
},
{
"Name": "Garsfontein",
"PostCode": "0042",
"Latitude": -25.8008,
"Longitude": 28.2956
},
{
"Name": "Garsfontein",
"PostCode": "0081",
"Latitude": -25.7069,
"Longitude": 28.2294
},
{
"Name": "Gasehunelo",
"PostCode": "9323",
"Latitude": -28.0833,
"Longitude": 24.8917
},
{
"Name": "Ga-Sehunelo",
"PostCode": "9323",
"Latitude": -27.0333,
"Longitude": 23.5833
},
{
"Name": "Gatesville",
"PostCode": "7762",
"Latitude": -33.9625,
"Longitude": 18.4917
},
{
"Name": "Gatesville",
"PostCode": "7763",
"Latitude": -33.9625,
"Longitude": 18.4917
},
{
"Name": "Gatesville",
"PostCode": "7764",
"Latitude": -33.9778,
"Longitude": 18.5167
},
{
"Name": "Gatesville",
"PostCode": "7767",
"Latitude": -33.9625,
"Longitude": 18.4917
},
{
"Name": "Gatesville",
"PostCode": "7769",
"Latitude": -33.9625,
"Longitude": 18.4917
},
{
"Name": "Gatesville",
"PostCode": "7780",
"Latitude": -33.9722,
"Longitude": 18.4667
},
{
"Name": "Gauteng",
"PostCode": "1438",
"Latitude": -26.3583,
"Longitude": 28.2667
},
{
"Name": "Gauteng",
"PostCode": "1441",
"Latitude": -26.5,
"Longitude": 28.35
},
{
"Name": "Gauteng",
"PostCode": "1609",
"Latitude": -26.1083,
"Longitude": 28.175
},
{
"Name": "Gauteng",
"PostCode": "1610",
"Latitude": -26.1222,
"Longitude": 28.2056
},
{
"Name": "Gauteng",
"PostCode": "1820",
"Latitude": -26.3567,
"Longitude": 27.8333
},
{
"Name": "Gauteng",
"PostCode": "1827",
"Latitude": -26.3567,
"Longitude": 27.8333
},
{
"Name": "Geduldpan",
"PostCode": "9468",
"Latitude": -27.9833,
"Longitude": 26.7333
},
{
"Name": "Gelvandale",
"PostCode": "6020",
"Latitude": -33.9167,
"Longitude": 25.55
},
{
"Name": "George",
"PostCode": "6529",
"Latitude": -33.9667,
"Longitude": 22.45
},
{
"Name": "George",
"PostCode": "6531",
"Latitude": -33.9666,
"Longitude": 22.4499
},
{
"Name": "George",
"PostCode": "6534",
"Latitude": -33.9667,
"Longitude": 22.45
},
{
"Name": "George",
"PostCode": "6535",
"Latitude": -33.9667,
"Longitude": 22.45
},
{
"Name": "George",
"PostCode": "6536",
"Latitude": -33.9666,
"Longitude": 22.4499
},
{
"Name": "George",
"PostCode": "6537",
"Latitude": -33.9667,
"Longitude": 22.45
},
{
"Name": "George",
"PostCode": "6538",
"Latitude": -33.9667,
"Longitude": 22.45
},
{
"Name": "George",
"PostCode": "6539",
"Latitude": -33.9667,
"Longitude": 22.45
},
{
"Name": "George",
"PostCode": "6541",
"Latitude": -33.9667,
"Longitude": 22.45
},
{
"Name": "George",
"PostCode": "6544",
"Latitude": -33.9667,
"Longitude": 22.45
},
{
"Name": "George",
"PostCode": "6560",
"Latitude": -33.9667,
"Longitude": 22.45
},
{
"Name": "George",
"PostCode": "6615",
"Latitude": -33.9667,
"Longitude": 22.45
},
{
"Name": "George East",
"PostCode": "6529",
"Latitude": -33.8167,
"Longitude": 25.65
},
{
"Name": "Germiston",
"PostCode": "1401",
"Latitude": -26.2167,
"Longitude": 28.1833
},
{
"Name": "Germiston",
"PostCode": "1402",
"Latitude": -26.2167,
"Longitude": 28.1833
},
{
"Name": "Germiston",
"PostCode": "1403",
"Latitude": -26.2167,
"Longitude": 28.1833
},
{
"Name": "Germiston",
"PostCode": "1404",
"Latitude": -26.2167,
"Longitude": 28.1833
},
{
"Name": "Germiston",
"PostCode": "1405",
"Latitude": -26.2167,
"Longitude": 28.1833
},
{
"Name": "Germiston",
"PostCode": "1407",
"Latitude": -26.2167,
"Longitude": 28.1833
},
{
"Name": "Germiston",
"PostCode": "1408",
"Latitude": -26.2167,
"Longitude": 28.1833
},
{
"Name": "Germiston",
"PostCode": "1410",
"Latitude": -26.2167,
"Longitude": 28.1833
},
{
"Name": "Germiston",
"PostCode": "1411",
"Latitude": -26.2167,
"Longitude": 28.1833
},
{
"Name": "Germiston",
"PostCode": "1412",
"Latitude": -26.2167,
"Longitude": 28.1833
},
{
"Name": "Germiston",
"PostCode": "1413",
"Latitude": -26.2167,
"Longitude": 28.1833
},
{
"Name": "Germiston",
"PostCode": "1414",
"Latitude": -26.2167,
"Longitude": 28.1833
},
{
"Name": "Germiston",
"PostCode": "1415",
"Latitude": -26.2167,
"Longitude": 28.1833
},
{
"Name": "Germiston",
"PostCode": "1416",
"Latitude": -26.2167,
"Longitude": 28.1833
},
{
"Name": "Germiston",
"PostCode": "1417",
"Latitude": -26.2167,
"Longitude": 28.1833
},
{
"Name": "Germiston",
"PostCode": "1418",
"Latitude": -26.2167,
"Longitude": 28.1833
},
{
"Name": "Germiston",
"PostCode": "1419",
"Latitude": -26.2167,
"Longitude": 28.1833
},
{
"Name": "Germiston",
"PostCode": "1420",
"Latitude": -26.2167,
"Longitude": 28.1833
},
{
"Name": "Germiston",
"PostCode": "1422",
"Latitude": -26.2167,
"Longitude": 28.1833
},
{
"Name": "Germiston",
"PostCode": "1423",
"Latitude": -26.2167,
"Longitude": 28.1833
},
{
"Name": "Germiston",
"PostCode": "1424",
"Latitude": -26.2167,
"Longitude": 28.1833
},
{
"Name": "Germiston",
"PostCode": "1428",
"Latitude": -26.3,
"Longitude": 28.1333
},
{
"Name": "Germiston",
"PostCode": "1429",
"Latitude": -26.2167,
"Longitude": 28.1833
},
{
"Name": "Germiston",
"PostCode": "1430",
"Latitude": -26.2167,
"Longitude": 28.1833
},
{
"Name": "Germiston",
"PostCode": "1434",
"Latitude": -26.2167,
"Longitude": 28.1833
},
{
"Name": "Germiston",
"PostCode": "1497",
"Latitude": -26.2167,
"Longitude": 28.1833
},
{
"Name": "Gillitts",
"PostCode": "3610",
"Latitude": -29.8,
"Longitude": 30.8
},
{
"Name": "Gingindlovu",
"PostCode": "3800",
"Latitude": -29.0167,
"Longitude": 31.5833
},
{
"Name": "Gingindlovu",
"PostCode": "3803",
"Latitude": -29.0167,
"Longitude": 31.5833
},
{
"Name": "Gingindlovu",
"PostCode": "3804",
"Latitude": -29.0167,
"Longitude": 31.5833
},
{
"Name": "Gingindlovu",
"PostCode": "3806",
"Latitude": -29.0167,
"Longitude": 31.5833
},
{
"Name": "Gingindlovu",
"PostCode": "3818",
"Latitude": -29.0167,
"Longitude": 31.5833
},
{
"Name": "Giyani",
"PostCode": "0826",
"Latitude": -23.3167,
"Longitude": 30.7167
},
{
"Name": "Giyani",
"PostCode": "0827",
"Latitude": -23.3167,
"Longitude": 30.7167
},
{
"Name": "Giyani",
"PostCode": "0829",
"Latitude": -23.3167,
"Longitude": 30.7167
},
{
"Name": "Giyani",
"PostCode": "0832",
"Latitude": -23.3167,
"Longitude": 30.7167
},
{
"Name": "Giyani",
"PostCode": "0834",
"Latitude": -23.3167,
"Longitude": 30.7167
},
{
"Name": "Giyani",
"PostCode": "0839",
"Latitude": -23.3167,
"Longitude": 30.7167
},
{
"Name": "Giyani",
"PostCode": "0840",
"Latitude": -23.3167,
"Longitude": 30.7167
},
{
"Name": "Giyani",
"PostCode": "0841",
"Latitude": -23.3167,
"Longitude": 30.7167
},
{
"Name": "Giyani",
"PostCode": "0842",
"Latitude": -23.3167,
"Longitude": 30.7167
},
{
"Name": "Giyani",
"PostCode": "0843",
"Latitude": -23.3167,
"Longitude": 30.7167
},
{
"Name": "Giyani",
"PostCode": "0844",
"Latitude": -23.3167,
"Longitude": 30.7167
},
{
"Name": "Giyani",
"PostCode": "0846",
"Latitude": -23.3167,
"Longitude": 30.7167
},
{
"Name": "Giyani",
"PostCode": "0858",
"Latitude": -23.3167,
"Longitude": 30.7167
},
{
"Name": "Giyani",
"PostCode": "0915",
"Latitude": -23.3167,
"Longitude": 30.7167
},
{
"Name": "Giyani",
"PostCode": "0930",
"Latitude": -23.3167,
"Longitude": 30.7167
},
{
"Name": "Giyani",
"PostCode": "0931",
"Latitude": -23.3167,
"Longitude": 30.7167
},
{
"Name": "Giyani",
"PostCode": "0932",
"Latitude": -23.3167,
"Longitude": 30.7167
},
{
"Name": "Giyani",
"PostCode": "0933",
"Latitude": -23.3167,
"Longitude": 30.7167
},
{
"Name": "Giyani",
"PostCode": "0941",
"Latitude": -23.3167,
"Longitude": 30.7167
},
{
"Name": "Giyani",
"PostCode": "0944",
"Latitude": -23.3167,
"Longitude": 30.7167
},
{
"Name": "Giyani",
"PostCode": "0983",
"Latitude": -23.3167,
"Longitude": 30.7167
},
{
"Name": "Giyani",
"PostCode": "0984",
"Latitude": -23.3167,
"Longitude": 30.7167
},
{
"Name": "Giyani",
"PostCode": "0985",
"Latitude": -23.3167,
"Longitude": 30.7167
},
{
"Name": "Giyani",
"PostCode": "0986",
"Latitude": -23.3167,
"Longitude": 30.7167
},
{
"Name": "Giyani",
"PostCode": "0987",
"Latitude": -23.3167,
"Longitude": 30.7167
},
{
"Name": "Glencoe",
"PostCode": "2930",
"Latitude": -28.1833,
"Longitude": 30.15
},
{
"Name": "Glenstantia",
"PostCode": "0010",
"Latitude": -25.7069,
"Longitude": 28.2294
},
{
"Name": "Glenstantia",
"PostCode": "0181",
"Latitude": -25.7425,
"Longitude": 28.2326
},
{
"Name": "Gonubie",
"PostCode": "5257",
"Latitude": -32.9333,
"Longitude": 28.0167
},
{
"Name": "Gonubie",
"PostCode": "5258",
"Latitude": -32.9333,
"Longitude": 28.0167
},
{
"Name": "Goodwood",
"PostCode": "7460",
"Latitude": -33.9,
"Longitude": 18.55
},
{
"Name": "Goodwood",
"PostCode": "7463",
"Latitude": -26.45,
"Longitude": 24.1833
},
{
"Name": "Goodwood",
"PostCode": "7475",
"Latitude": -26.45,
"Longitude": 24.1833
},
{
"Name": "Goodwood",
"PostCode": "7485",
"Latitude": -26.45,
"Longitude": 24.1833
},
{
"Name": "Gordon'S Bay",
"PostCode": "7140",
"Latitude": -34.1667,
"Longitude": 18.8667
},
{
"Name": "Graaff-Reinet",
"PostCode": "6280",
"Latitude": -32.25,
"Longitude": 24.55
},
{
"Name": "Graaff-Reinet",
"PostCode": "6281",
"Latitude": -32.25,
"Longitude": 24.55
},
{
"Name": "Graaff-Reinet",
"PostCode": "6286",
"Latitude": -32.25,
"Longitude": 24.55
},
{
"Name": "Graafwater",
"PostCode": "8121",
"Latitude": -32.15,
"Longitude": 18.6
},
{
"Name": "Graafwater",
"PostCode": "8122",
"Latitude": -32.15,
"Longitude": 18.6
},
{
"Name": "Grabouw",
"PostCode": "7160",
"Latitude": -34.15,
"Longitude": 19.0167
},
{
"Name": "Grabouw",
"PostCode": "7171",
"Latitude": -34.15,
"Longitude": 19.0167
},
{
"Name": "Grabouw",
"PostCode": "7180",
"Latitude": -34.15,
"Longitude": 19.0167
},
{
"Name": "Grahamstad",
"PostCode": "5805",
"Latitude": -33.3,
"Longitude": 26.5333
},
{
"Name": "Grahamstad",
"PostCode": "6139",
"Latitude": -33.3,
"Longitude": 26.5333
},
{
"Name": "Grahamstad",
"PostCode": "6141",
"Latitude": -33.3,
"Longitude": 26.5333
},
{
"Name": "Grahamstown",
"PostCode": "5805",
"Latitude": -33.3,
"Longitude": 26.5333
},
{
"Name": "Grahamstown",
"PostCode": "6139",
"Latitude": -33.3,
"Longitude": 26.5333
},
{
"Name": "Grahamstown",
"PostCode": "6140",
"Latitude": -33.3,
"Longitude": 26.5333
},
{
"Name": "Grahamstown",
"PostCode": "6141",
"Latitude": -33.3,
"Longitude": 26.5333
},
{
"Name": "Grahamstown",
"PostCode": "6142",
"Latitude": -33.3,
"Longitude": 26.5333
},
{
"Name": "Grahamstown",
"PostCode": "6143",
"Latitude": -33.3,
"Longitude": 26.5333
},
{
"Name": "Grahamstown",
"PostCode": "6145",
"Latitude": -33.3,
"Longitude": 26.5333
},
{
"Name": "Grahamstown",
"PostCode": "6146",
"Latitude": -33.3,
"Longitude": 26.5333
},
{
"Name": "Grahamstown",
"PostCode": "6150",
"Latitude": -33.3,
"Longitude": 26.5333
},
{
"Name": "Graskop",
"PostCode": "1270",
"Latitude": -24.9333,
"Longitude": 30.8333
},
{
"Name": "Graskop",
"PostCode": "1271",
"Latitude": -24.9333,
"Longitude": 30.8333
},
{
"Name": "Graskop",
"PostCode": "1273",
"Latitude": -24.9333,
"Longitude": 30.8333
},
{
"Name": "Graskop",
"PostCode": "1274",
"Latitude": -24.9333,
"Longitude": 30.8333
},
{
"Name": "Grassy Park",
"PostCode": "7805",
"Latitude": -34.05,
"Longitude": 18.4833
},
{
"Name": "Grassy Park",
"PostCode": "7941",
"Latitude": -34.05,
"Longitude": 18.4833
},
{
"Name": "Great Brak River",
"PostCode": "6525",
"Latitude": -34.0333,
"Longitude": 22.2167
},
{
"Name": "Great Brak River",
"PostCode": "6526",
"Latitude": -34.0333,
"Longitude": 22.2167
},
{
"Name": "Greytown",
"PostCode": "3233",
"Latitude": -29.4333,
"Longitude": 30.5833
},
{
"Name": "Greytown",
"PostCode": "3236",
"Latitude": -29.0667,
"Longitude": 30.5833
},
{
"Name": "Greytown",
"PostCode": "3249",
"Latitude": -29.0667,
"Longitude": 30.5833
},
{
"Name": "Greytown",
"PostCode": "3250",
"Latitude": -29.0667,
"Longitude": 30.5833
},
{
"Name": "Greytown",
"PostCode": "3251",
"Latitude": -29.0667,
"Longitude": 30.5833
},
{
"Name": "Greytown",
"PostCode": "3258",
"Latitude": -29.0667,
"Longitude": 30.5833
},
{
"Name": "Greytown",
"PostCode": "3262",
"Latitude": -29.0667,
"Longitude": 30.5833
},
{
"Name": "Greytown",
"PostCode": "3268",
"Latitude": -29.0667,
"Longitude": 30.5833
},
{
"Name": "Greytown",
"PostCode": "3500",
"Latitude": -29.0667,
"Longitude": 30.5833
},
{
"Name": "Griquatown",
"PostCode": "8365",
"Latitude": -28.85,
"Longitude": 23.25
},
{
"Name": "Groblersdal",
"PostCode": "0470",
"Latitude": -25.15,
"Longitude": 29.3833
},
{
"Name": "Groblersdal",
"PostCode": "0473",
"Latitude": -25.15,
"Longitude": 29.3833
},
{
"Name": "Groblersdal",
"PostCode": "0474",
"Latitude": -25.15,
"Longitude": 29.3833
},
{
"Name": "Groblersdal",
"PostCode": "0477",
"Latitude": -25.1167,
"Longitude": 29.05
},
{
"Name": "Groblersdal",
"PostCode": "0485",
"Latitude": -25.15,
"Longitude": 29.3833
},
{
"Name": "Groblersdal",
"PostCode": "0490",
"Latitude": -25.15,
"Longitude": 29.3833
},
{
"Name": "Groblersdal",
"PostCode": "0491",
"Latitude": -25.15,
"Longitude": 29.3833
},
{
"Name": "Groblersdal",
"PostCode": "1030",
"Latitude": -25.15,
"Longitude": 29.3833
},
{
"Name": "Groblersdal",
"PostCode": "1060",
"Latitude": -25.15,
"Longitude": 29.3833
},
{
"Name": "Groblersdal",
"PostCode": "1061",
"Latitude": -25.15,
"Longitude": 29.3833
},
{
"Name": "Groblersdal",
"PostCode": "1064",
"Latitude": -25.15,
"Longitude": 29.3833
},
{
"Name": "Groblershoop",
"PostCode": "8826",
"Latitude": -28.8833,
"Longitude": 21.9833
},
{
"Name": "Groblershoop",
"PostCode": "8851",
"Latitude": -28.8833,
"Longitude": 21.9833
},
{
"Name": "Groblershoop",
"PostCode": "8943",
"Latitude": -28.8833,
"Longitude": 21.9833
},
{
"Name": "Groot-Brakrivier",
"PostCode": "6525",
"Latitude": -34.0333,
"Longitude": 22.2167
},
{
"Name": "Grootdrink",
"PostCode": "8822",
"Latitude": -26.4833,
"Longitude": 22.2333
},
{
"Name": "Gugulethu",
"PostCode": "7750",
"Latitude": -33.9833,
"Longitude": 18.575
},
{
"Name": "Guguletu",
"PostCode": "7750",
"Latitude": -33.9833,
"Longitude": 18.5667
},
{
"Name": "Guguletu",
"PostCode": "7752",
"Latitude": -33.9833,
"Longitude": 18.5667
},
{
"Name": "Guguletu",
"PostCode": "7756",
"Latitude": -33.9833,
"Longitude": 18.5667
},
{
"Name": "Hackney",
"PostCode": "6351",
"Latitude": -32.3167,
"Longitude": 26.6333
},
{
"Name": "Halfway House",
"PostCode": "1684",
"Latitude": -25.9833,
"Longitude": 28.1167
},
{
"Name": "Halfway House",
"PostCode": "1685",
"Latitude": -25.9833,
"Longitude": 28.1167
},
{
"Name": "Halfway House",
"PostCode": "1686",
"Latitude": -25.9833,
"Longitude": 28.1167
},
{
"Name": "Halfway House",
"PostCode": "1687",
"Latitude": -25.9833,
"Longitude": 28.1167
},
{
"Name": "Halfway House",
"PostCode": "1689",
"Latitude": -25.9833,
"Longitude": 28.1167
},
{
"Name": "Halfway House",
"PostCode": "1692",
"Latitude": -25.9833,
"Longitude": 28.1167
},
{
"Name": "Halfway House",
"PostCode": "1693",
"Latitude": -25.9833,
"Longitude": 28.1167
},
{
"Name": "Hambanathi Heights",
"PostCode": "4399",
"Latitude": -29.114,
"Longitude": 30.6772
},
{
"Name": "Hambanathi Heights",
"PostCode": "4400",
"Latitude": -29.5833,
"Longitude": 31.1333
},
{
"Name": "Hammanskraal",
"PostCode": "0400",
"Latitude": -25.4075,
"Longitude": 28.2856
},
{
"Name": "Hammanskraal",
"PostCode": "0402",
"Latitude": -25.4075,
"Longitude": 28.2856
},
{
"Name": "Hammanskraal",
"PostCode": "0404",
"Latitude": -25.4075,
"Longitude": 28.2856
},
{
"Name": "Hammanskraal",
"PostCode": "0407",
"Latitude": -25.4075,
"Longitude": 28.2856
},
{
"Name": "Hammanskraal",
"PostCode": "0413",
"Latitude": -25.4075,
"Longitude": 28.2856
},
{
"Name": "Hammanskraal",
"PostCode": "0414",
"Latitude": -25.4075,
"Longitude": 28.2856
},
{
"Name": "Hammanskraal",
"PostCode": "0417",
"Latitude": -25.4075,
"Longitude": 28.2856
},
{
"Name": "Hammanskraal",
"PostCode": "0426",
"Latitude": -25.4075,
"Longitude": 28.2856
},
{
"Name": "Hammanskraal",
"PostCode": "0427",
"Latitude": -25.4075,
"Longitude": 28.2856
},
{
"Name": "Hammanskraal",
"PostCode": "0429",
"Latitude": -25.4075,
"Longitude": 28.2856
},
{
"Name": "Hammanskraal",
"PostCode": "0431",
"Latitude": -25.4075,
"Longitude": 28.2856
},
{
"Name": "Hammanskraal",
"PostCode": "0432",
"Latitude": -25.4075,
"Longitude": 28.2856
},
{
"Name": "Hammanskraal",
"PostCode": "0434",
"Latitude": -25.4075,
"Longitude": 28.2856
},
{
"Name": "Hammanskraal",
"PostCode": "0435",
"Latitude": -25.4075,
"Longitude": 28.2856
},
{
"Name": "Hammarsdale",
"PostCode": "3670",
"Latitude": -29.8,
"Longitude": 30.65
},
{
"Name": "Hammarsdale",
"PostCode": "3680",
"Latitude": -29.8,
"Longitude": 30.65
},
{
"Name": "Hammarsdale",
"PostCode": "3690",
"Latitude": -29.8,
"Longitude": 30.65
},
{
"Name": "Hammarsdale",
"PostCode": "3699",
"Latitude": -29.8,
"Longitude": 30.65
},
{
"Name": "Hammarsdale",
"PostCode": "3700",
"Latitude": -29.8,
"Longitude": 30.65
},
{
"Name": "Hammarsdale",
"PostCode": "3701",
"Latitude": -29.8,
"Longitude": 30.65
},
{
"Name": "Hammarsdale",
"PostCode": "3705",
"Latitude": -29.8,
"Longitude": 30.65
},
{
"Name": "Hammarsdale",
"PostCode": "3710",
"Latitude": -29.8,
"Longitude": 30.65
},
{
"Name": "Hammarsdale",
"PostCode": "3720",
"Latitude": -29.8,
"Longitude": 30.65
},
{
"Name": "Hammarsdale",
"PostCode": "3730",
"Latitude": -29.8,
"Longitude": 30.65
},
{
"Name": "Hankey",
"PostCode": "6350",
"Latitude": -33.8333,
"Longitude": 24.8833
},
{
"Name": "Hanover",
"PostCode": "7005",
"Latitude": -31.0667,
"Longitude": 24.45
},
{
"Name": "Harding",
"PostCode": "4643",
"Latitude": -30.5833,
"Longitude": 29.8833
},