[
{
"Provinces": [
{
"Communities": [
{
"Places": [
{
"Name": "Aberdeen",
"PostCode": "6270",
"LatLong": "-32.4833,24.0667"
},
{
"Name": "Acornhoek",
"PostCode": "1227",
"LatLong": "-24.5833,31.0833"
},
{
"Name": "Acornhoek",
"PostCode": "1360",
"LatLong": "-24.5833,31.0833"
},
{
"Name": "Acornhoek",
"PostCode": "1361",
"LatLong": "-24.5833,31.0833"
},
{
"Name": "Acornhoek",
"PostCode": "1365",
"LatLong": "-24.5833,31.0833"
},
{
"Name": "Acornhoek",
"PostCode": "1367",
"LatLong": "-24.5833,31.0833"
},
{
"Name": "Acornhoek",
"PostCode": "1370",
"LatLong": "-24.5833,31.0833"
},
{
"Name": "Acornhoek",
"PostCode": "1378",
"LatLong": "-24.5833,31.0833"
},
{
"Name": "Addo",
"PostCode": "6105",
"LatLong": "-33.5667,25.6833"
},
{
"Name": "Addo",
"PostCode": "6107",
"LatLong": "-33.5667,25.6833"
},
{
"Name": "Addo",
"PostCode": "6109",
"LatLong": "-33.5667,25.6833"
},
{
"Name": "Addo",
"PostCode": "6115",
"LatLong": "-33.5667,25.6833"
},
{
"Name": "Adelaide",
"PostCode": "5760",
"LatLong": "-32.7,26.3"
},
{
"Name": "Adendorp",
"PostCode": "6282",
"LatLong": "-32.3,24.55"
},
{
"Name": "Albertina",
"PostCode": "6695",
"LatLong": "-34.2,21.5833"
},
{
"Name": "Albertina",
"PostCode": "6696",
"LatLong": "-34.2,21.5833"
},
{
"Name": "Albertinia",
"PostCode": "6695",
"LatLong": "-34.2,21.5833"
},
{
"Name": "Alberton",
"PostCode": "1447",
"LatLong": "-26.2333,28.1333"
},
{
"Name": "Alberton",
"PostCode": "1448",
"LatLong": "-26.2333,28.1333"
},
{
"Name": "Alberton",
"PostCode": "1449",
"LatLong": "-26.2333,28.1333"
},
{
"Name": "Alberton",
"PostCode": "1451",
"LatLong": "-26.2333,28.1333"
},
{
"Name": "Alberton",
"PostCode": "1452",
"LatLong": "-26.2333,28.1333"
},
{
"Name": "Alberton",
"PostCode": "1453",
"LatLong": "-26.2333,28.1333"
},
{
"Name": "Alberton",
"PostCode": "1454",
"LatLong": "-26.2333,28.1333"
},
{
"Name": "Alberton",
"PostCode": "1455",
"LatLong": "-26.2333,28.1333"
},
{
"Name": "Alberton",
"PostCode": "1456",
"LatLong": "-26.2333,28.1333"
},
{
"Name": "Alberton",
"PostCode": "1457",
"LatLong": "-26.2333,28.1333"
},
{
"Name": "Alberton",
"PostCode": "1458",
"LatLong": "-26.2333,28.1333"
},
{
"Name": "Alberton",
"PostCode": "1481",
"LatLong": "-26.2333,28.1333"
},
{
"Name": "Alexander Bay",
"PostCode": "8290",
"LatLong": "-28.5833,16.4833"
},
{
"Name": "Alexander Bay",
"PostCode": "8292",
"LatLong": "-28.5833,16.4833"
},
{
"Name": "Alexander Bay",
"PostCode": "8294",
"LatLong": "-28.5833,16.4833"
},
{
"Name": "Alexandria",
"PostCode": "6185",
"LatLong": "-24.9167,31.15"
},
{
"Name": "Alexandria",
"PostCode": "6186",
"LatLong": "-24.9167,31.15"
},
{
"Name": "Alexandria",
"PostCode": "6187",
"LatLong": "-24.9167,31.15"
},
{
"Name": "Alexandria",
"PostCode": "6189",
"LatLong": "-24.9167,31.15"
},
{
"Name": "Alice",
"PostCode": "5700",
"LatLong": "-32.7833,26.8333"
},
{
"Name": "Alice",
"PostCode": "5701",
"LatLong": "-32.7833,26.8333"
},
{
"Name": "Alice",
"PostCode": "5702",
"LatLong": "-32.7833,26.8333"
},
{
"Name": "Alice",
"PostCode": "5703",
"LatLong": "-32.7833,26.8333"
},
{
"Name": "Alice",
"PostCode": "5705",
"LatLong": "-32.7833,26.8333"
},
{
"Name": "Alice",
"PostCode": "5706",
"LatLong": "-32.7833,26.8333"
},
{
"Name": "Alice",
"PostCode": "5708",
"LatLong": "-32.7833,26.8333"
},
{
"Name": "Alicedale",
"PostCode": "6135",
"LatLong": "-33.3167,26.0833"
},
{
"Name": "Aliwal North",
"PostCode": "9750",
"LatLong": "-30.7,26.7"
},
{
"Name": "Aliwal North",
"PostCode": "9752",
"LatLong": "-30.7,26.7"
},
{
"Name": "Aliwal North",
"PostCode": "9754",
"LatLong": "-30.7,26.7"
},
{
"Name": "Aliwal-Noord",
"PostCode": "9750",
"LatLong": "-30.7,26.7"
},
{
"Name": "Allanridge",
"PostCode": "9490",
"LatLong": "-27.75,26.6667"
},
{
"Name": "Allanridge",
"PostCode": "9492",
"LatLong": "-27.75,26.6667"
},
{
"Name": "Allen'S Nek",
"PostCode": "1709",
"LatLong": "-31.6667,28.0333"
},
{
"Name": "Allen'S Nek",
"PostCode": "1737",
"LatLong": "-31.6667,28.0333"
},
{
"Name": "Alrode",
"PostCode": "1428",
"LatLong": "-26.3,28.1333"
},
{
"Name": "Alrode",
"PostCode": "1451",
"LatLong": "-26.2333,28.1333"
},
{
"Name": "Alrode",
"PostCode": "1484",
"LatLong": "-26.3,28.1333"
},
{
"Name": "Amanzimtoti",
"PostCode": "3279",
"LatLong": "-30.05,30.8833"
},
{
"Name": "Amanzimtoti",
"PostCode": "4100",
"LatLong": "-30.05,30.8833"
},
{
"Name": "Amanzimtoti",
"PostCode": "4120",
"LatLong": "-30.05,30.8833"
},
{
"Name": "Amanzimtoti",
"PostCode": "4125",
"LatLong": "-30.05,30.8833"
},
{
"Name": "Amanzimtoti",
"PostCode": "4126",
"LatLong": "-30.05,30.8833"
},
{
"Name": "Amanzimtoti",
"PostCode": "4135",
"LatLong": "-30.05,30.8833"
},
{
"Name": "Amanzimtoti",
"PostCode": "4136",
"LatLong": "-30.05,30.8833"
},
{
"Name": "Amanzimtoti",
"PostCode": "4140",
"LatLong": "-30.05,30.8833"
},
{
"Name": "Amanzimtoti",
"PostCode": "4145",
"LatLong": "-30.05,30.8833"
},
{
"Name": "Amanzimtoti",
"PostCode": "4150",
"LatLong": "-30.05,30.8833"
},
{
"Name": "Amanzimtoti",
"PostCode": "4155",
"LatLong": "-30.05,30.8833"
},
{
"Name": "Amanzimtoti",
"PostCode": "4160",
"LatLong": "-30.05,30.8833"
},
{
"Name": "Amersfoort",
"PostCode": "2490",
"LatLong": "-26.9833,28.85"
},
{
"Name": "Amsterdam",
"PostCode": "2375",
"LatLong": "-26.6167,30.6667"
},
{
"Name": "Anerley",
"PostCode": "4230",
"LatLong": "-30.6667,30.5"
},
{
"Name": "Arlington",
"PostCode": "9602",
"LatLong": "-28.0333,27.85"
},
{
"Name": "Ashton",
"PostCode": "6715",
"LatLong": "-33.8167,20.05"
},
{
"Name": "Athlone",
"PostCode": "7764",
"LatLong": "-33.9667,18.5"
},
{
"Name": "Atlantis",
"PostCode": "7304",
"LatLong": "-33.5667,18.4833"
},
{
"Name": "Atlantis",
"PostCode": "7348",
"LatLong": "-33.5667,18.4833"
},
{
"Name": "Atlantis",
"PostCode": "7349",
"LatLong": "-33.5667,18.4833"
},
{
"Name": "Atlantis",
"PostCode": "7350",
"LatLong": "-33.5667,18.4833"
},
{
"Name": "Atlantis",
"PostCode": "7353",
"LatLong": "-33.5667,18.4833"
},
{
"Name": "Atlantis",
"PostCode": "7354",
"LatLong": "-33.5667,18.4833"
},
{
"Name": "Atlantis",
"PostCode": "7358",
"LatLong": "-33.5667,18.4833"
},
{
"Name": "Atok",
"PostCode": "0749",
"LatLong": "-23.95,29.1333"
},
{
"Name": "Atteridgeville",
"PostCode": "0008",
"LatLong": "-25.7728,28.0678"
},
{
"Name": "Bakone",
"PostCode": "0746",
"LatLong": "-23.95,29.1333"
},
{
"Name": "Bakone",
"PostCode": "0757",
"LatLong": "-23.6774,29.4869"
},
{
"Name": "Balfour",
"PostCode": "2410",
"LatLong": "-26.65,28.5833"
},
{
"Name": "Bamokgoko",
"PostCode": "0432",
"LatLong": "-25.1039,28.5219"
},
{
"Name": "Barberton",
"PostCode": "1300",
"LatLong": "-25.7833,31.05"
},
{
"Name": "Barberton",
"PostCode": "1303",
"LatLong": "-25.7833,31.05"
},
{
"Name": "Barberton",
"PostCode": "1307",
"LatLong": "-25.7833,31.05"
},
{
"Name": "Barberton",
"PostCode": "1309",
"LatLong": "-25.7833,31.05"
},
{
"Name": "Barkly East",
"PostCode": "9786",
"LatLong": "-30.9667,27.6"
},
{
"Name": "Barkly East",
"PostCode": "9787",
"LatLong": "-30.9667,27.6"
},
{
"Name": "Barkly West",
"PostCode": "8375",
"LatLong": "-28.5333,24.5167"
},
{
"Name": "Barkly West",
"PostCode": "8376",
"LatLong": "-28.5333,24.5167"
},
{
"Name": "Barkly West",
"PostCode": "8377",
"LatLong": "-28.5333,24.5167"
},
{
"Name": "Bathurst",
"PostCode": "6166",
"LatLong": "-33.4833,26.8333"
},
{
"Name": "Beaconsfield",
"PostCode": "8315",
"LatLong": "-22.9333,30.1167"
},
{
"Name": "Beaufort Wes",
"PostCode": "6970",
"LatLong": "-32.35,22.5833"
},
{
"Name": "Beaufort West",
"PostCode": "6940",
"LatLong": "-32.35,22.5833"
},
{
"Name": "Beaufort West",
"PostCode": "6950",
"LatLong": "-32.35,22.5833"
},
{
"Name": "Beaufort West",
"PostCode": "6970",
"LatLong": "-32.35,22.5833"
},
{
"Name": "Beaufort West",
"PostCode": "6973",
"LatLong": "-32.35,22.5833"
},
{
"Name": "Beaufort-Wes",
"PostCode": "6970",
"LatLong": "-32.35,22.5833"
},
{
"Name": "Bedford",
"PostCode": "5780",
"LatLong": "-32.6833,26.0833"
},
{
"Name": "Bedfordview",
"PostCode": "2007",
"LatLong": "-26.1667,28.15"
},
{
"Name": "Bedworth Park",
"PostCode": "1940",
"LatLong": "-26.7167,27.8833"
},
{
"Name": "Bekkersdal",
"PostCode": "1779",
"LatLong": "-26.2833,27.7167"
},
{
"Name": "Bekkersdal",
"PostCode": "1782",
"LatLong": "-26.3167,27.65"
},
{
"Name": "Belfast",
"PostCode": "1100",
"LatLong": "-25.6833,30.0333"
},
{
"Name": "Belfast",
"PostCode": "1101",
"LatLong": "-25.6833,30.0333"
},
{
"Name": "Belfast",
"PostCode": "1102",
"LatLong": "-25.6833,30.0333"
},
{
"Name": "Belfast",
"PostCode": "1121",
"LatLong": "-25.6833,30.0333"
},
{
"Name": "Belfast",
"PostCode": "1130",
"LatLong": "-25.6833,30.0333"
},
{
"Name": "Belfast",
"PostCode": "1151",
"LatLong": "-25.6833,30.0333"
},
{
"Name": "Belfast",
"PostCode": "1152",
"LatLong": "-25.6833,30.0333"
},
{
"Name": "Belfast",
"PostCode": "1153",
"LatLong": "-24.9333,31.3667"
},
{
"Name": "Belfast",
"PostCode": "1192",
"LatLong": "-25.6833,30.0333"
},
{
"Name": "Belfast",
"PostCode": "1193",
"LatLong": "-25.6833,30.0333"
},
{
"Name": "Belfast",
"PostCode": "1194",
"LatLong": "-25.6833,30.0333"
},
{
"Name": "Belfast",
"PostCode": "1301",
"LatLong": "-25.6833,30.0333"
},
{
"Name": "Belhar",
"PostCode": "7493",
"LatLong": "-33.9222,18.5333"
},
{
"Name": "Belhar",
"PostCode": "7504",
"LatLong": "-33.95,18.6333"
},
{
"Name": "Bellville",
"PostCode": "7530",
"LatLong": "-33.9,18.6333"
},
{
"Name": "Bellville",
"PostCode": "7532",
"LatLong": "-33.9,18.6333"
},
{
"Name": "Bellville",
"PostCode": "7533",
"LatLong": "-33.9,18.6333"
},
{
"Name": "Bellville",
"PostCode": "7536",
"LatLong": "-33.9,18.6333"
},
{
"Name": "Bellville",
"PostCode": "7537",
"LatLong": "-33.9,18.6333"
},
{
"Name": "Bellville",
"PostCode": "7538",
"LatLong": "-33.9,18.6333"
},
{
"Name": "Bellville",
"PostCode": "7539",
"LatLong": "-33.9,18.6333"
},
{
"Name": "Bellville",
"PostCode": "7540",
"LatLong": "-33.9,18.6333"
},
{
"Name": "Benoni",
"PostCode": "1501",
"LatLong": "-26.1833,28.3167"
},
{
"Name": "Benoni",
"PostCode": "1502",
"LatLong": "-26.1833,28.3167"
},
{
"Name": "Benoni",
"PostCode": "1503",
"LatLong": "-26.1833,28.3167"
},
{
"Name": "Benoni",
"PostCode": "1504",
"LatLong": "-26.1833,28.3167"
},
{
"Name": "Benoni",
"PostCode": "1505",
"LatLong": "-26.1833,28.3167"
},
{
"Name": "Benoni",
"PostCode": "1506",
"LatLong": "-26.1833,28.3167"
},
{
"Name": "Benoni",
"PostCode": "1507",
"LatLong": "-26.1833,28.3167"
},
{
"Name": "Benoni",
"PostCode": "1508",
"LatLong": "-26.1833,28.3167"
},
{
"Name": "Benoni",
"PostCode": "1509",
"LatLong": "-26.1833,28.3167"
},
{
"Name": "Benoni",
"PostCode": "1511",
"LatLong": "-26.1833,28.3167"
},
{
"Name": "Benoni",
"PostCode": "1514",
"LatLong": "-26.1833,28.3167"
},
{
"Name": "Benoni",
"PostCode": "1515",
"LatLong": "-26.1833,28.3167"
},
{
"Name": "Benoni",
"PostCode": "1516",
"LatLong": "-26.1833,28.3167"
},
{
"Name": "Benoni",
"PostCode": "1517",
"LatLong": "-26.1833,28.3167"
},
{
"Name": "Benoni",
"PostCode": "1518",
"LatLong": "-26.1833,28.3167"
},
{
"Name": "Benoni",
"PostCode": "1520",
"LatLong": "-26.1833,28.3167"
},
{
"Name": "Benoni",
"PostCode": "1522",
"LatLong": "-26.1833,28.3167"
},
{
"Name": "Benoni",
"PostCode": "1524",
"LatLong": "-26.1833,28.3167"
},
{
"Name": "Benoni",
"PostCode": "1525",
"LatLong": "-26.1833,28.3167"
},
{
"Name": "Benoni",
"PostCode": "1526",
"LatLong": "-26.1833,28.3167"
},
{
"Name": "Benoni",
"PostCode": "1527",
"LatLong": "-26.1833,28.3167"
},
{
"Name": "Bergville",
"PostCode": "3350",
"LatLong": "-28.7333,29.3667"
},
{
"Name": "Bergville",
"PostCode": "3351",
"LatLong": "-28.7333,29.3667"
},
{
"Name": "Bergville",
"PostCode": "3352",
"LatLong": "-28.7333,29.3667"
},
{
"Name": "Bergville",
"PostCode": "3354",
"LatLong": "-28.7333,29.3667"
},
{
"Name": "Bergvliet",
"PostCode": "7945",
"LatLong": "-34.0475,18.4525"
},
{
"Name": "Bethal",
"PostCode": "2309",
"LatLong": "-26.45,29.4667"
},
{
"Name": "Bethal",
"PostCode": "2311",
"LatLong": "-26.45,29.4667"
},
{
"Name": "Bethal",
"PostCode": "2312",
"LatLong": "-26.45,29.4667"
},
{
"Name": "Bethal",
"PostCode": "2320",
"LatLong": "-26.45,29.4667"
},
{
"Name": "Bethelsdorp",
"PostCode": "6028",
"LatLong": "-33.8833,25.5"
},
{
"Name": "Bethlehem",
"PostCode": "9700",
"LatLong": "-28.2333,28.3"
},
{
"Name": "Bethlehem",
"PostCode": "9701",
"LatLong": "-28.2333,28.3"
},
{
"Name": "Bethlehem",
"PostCode": "9702",
"LatLong": "-28.2333,28.3"
},
{
"Name": "Bethlehem",
"PostCode": "9703",
"LatLong": "-28.2333,28.3"
},
{
"Name": "Bethlehem",
"PostCode": "9704",
"LatLong": "-28.2333,28.3"
},
{
"Name": "Bethlehem",
"PostCode": "9705",
"LatLong": "-28.2333,28.3"
},
{
"Name": "Bethlehem",
"PostCode": "9706",
"LatLong": "-28.2333,28.3"
},
{
"Name": "Bethulie",
"PostCode": "9992",
"LatLong": "-30.5333,21.2833"
},
{
"Name": "Bisho",
"PostCode": "5605",
"LatLong": "-32.8667,27.4333"
},
{
"Name": "Bisho",
"PostCode": "5606",
"LatLong": "-32.8667,27.4333"
},
{
"Name": "Bisho",
"PostCode": "5608",
"LatLong": "-32.8667,27.4333"
},
{
"Name": "Bisho",
"PostCode": "5620",
"LatLong": "-32.8667,27.4333"
},
{
"Name": "Bisho",
"PostCode": "5671",
"LatLong": "-32.8667,27.4333"
},
{
"Name": "Bitterfontein",
"PostCode": "8201",
"LatLong": "-31.0333,18.2667"
},
{
"Name": "Bitterfontein",
"PostCode": "8202",
"LatLong": "-31.0333,18.2667"
},
{
"Name": "Bitterfontein",
"PostCode": "8204",
"LatLong": "-31.0333,18.2667"
},
{
"Name": "Bitterfontein",
"PostCode": "8205",
"LatLong": "-31.0333,18.2667"
},
{
"Name": "Bizana",
"PostCode": "4800",
"LatLong": "-30.85,29.85"
},
{
"Name": "Bizana",
"PostCode": "4802",
"LatLong": "-30.85,29.85"
},
{
"Name": "Bizana",
"PostCode": "4803",
"LatLong": "-30.85,29.85"
},
{
"Name": "Bizana",
"PostCode": "4804",
"LatLong": "-30.85,29.85"
},
{
"Name": "Blackheath",
"PostCode": "7580",
"LatLong": "-26.1333,27.9667"
},
{
"Name": "Blinkpan",
"PostCode": "2250",
"LatLong": "-26.1,29.4333"
},
{
"Name": "Bloemfontein",
"PostCode": "9300",
"LatLong": "-29.1333,26.2"
},
{
"Name": "Bloemfontein",
"PostCode": "9301",
"LatLong": "-29.123,26.1662"
},
{
"Name": "Bloemfontein",
"PostCode": "9302",
"LatLong": "-29.1333,26.2"
},
{
"Name": "Bloemfontein",
"PostCode": "9303",
"LatLong": "-29.1333,26.2"
},
{
"Name": "Bloemfontein",
"PostCode": "9305",
"LatLong": "-29.1333,26.2"
},
{
"Name": "Bloemfontein",
"PostCode": "9306",
"LatLong": "-29.1333,26.2"
},
{
"Name": "Bloemfontein",
"PostCode": "9307",
"LatLong": "-29.1333,26.2"
},
{
"Name": "Bloemfontein",
"PostCode": "9309",
"LatLong": "-29.1333,26.2"
},
{
"Name": "Bloemfontein",
"PostCode": "9310",
"LatLong": "-29.1333,26.2"
},
{
"Name": "Bloemfontein",
"PostCode": "9311",
"LatLong": "-29.1333,26.2"
},
{
"Name": "Bloemfontein",
"PostCode": "9312",
"LatLong": "-29.1333,26.2"
},
{
"Name": "Bloemfontein",
"PostCode": "9313",
"LatLong": "-29.1333,26.2"
},
{
"Name": "Bloemfontein",
"PostCode": "9315",
"LatLong": "-29.1333,26.2"
},
{
"Name": "Bloemfontein",
"PostCode": "9317",
"LatLong": "-29.1333,26.2"
},
{
"Name": "Bloemfontein",
"PostCode": "9320",
"LatLong": "-29.1333,26.2"
},
{
"Name": "Bloemfontein",
"PostCode": "9321",
"LatLong": "-29.1333,26.2"
},
{
"Name": "Bloemfontein",
"PostCode": "9322",
"LatLong": "-29.1333,26.2"
},
{
"Name": "Bloemfontein",
"PostCode": "9323",
"LatLong": "-29.1333,26.2"
},
{
"Name": "Bloemfontein",
"PostCode": "9324",
"LatLong": "-29.1333,26.2"
},
{
"Name": "Bloemfontein",
"PostCode": "9325",
"LatLong": "-29.1333,26.2"
},
{
"Name": "Bloemfontein",
"PostCode": "9326",
"LatLong": "-29.1333,26.2"
},
{
"Name": "Bloemfontein",
"PostCode": "9327",
"LatLong": "-29.1333,26.2"
},
{
"Name": "Bloemfontein",
"PostCode": "9330",
"LatLong": "-29.1333,26.2"
},
{
"Name": "Bloemfontein",
"PostCode": "9332",
"LatLong": "-29.1333,26.2"
},
{
"Name": "Bloemfontein",
"PostCode": "9334",
"LatLong": "-29.1333,26.2"
},
{
"Name": "Bloemfontein",
"PostCode": "9356",
"LatLong": "-29.1333,26.2"
},
{
"Name": "Bloemfontein",
"PostCode": "9358",
"LatLong": "-29.1333,26.2"
},
{
"Name": "Bloemfontein",
"PostCode": "9360",
"LatLong": "-29.1333,26.2"
},
{
"Name": "Bloemfontein",
"PostCode": "9364",
"LatLong": "-29.1333,26.2"
},
{
"Name": "Bloemfontein",
"PostCode": "9380",
"LatLong": "-29.1333,26.2"
},
{
"Name": "Bloemfontein",
"PostCode": "9781",
"LatLong": "-29.2333,26.7333"
},
{
"Name": "Bloemfontein",
"PostCode": "9928",
"LatLong": "-29.1333,26.2"
},
{
"Name": "Bloemhof",
"PostCode": "2660",
"LatLong": "-27.65,25.6"
},
{
"Name": "Bloemhof",
"PostCode": "2661",
"LatLong": "-27.65,25.6"
},
{
"Name": "Bloemhof",
"PostCode": "2662",
"LatLong": "-27.65,25.6"
},
{
"Name": "Bloemspruit",
"PostCode": "9364",
"LatLong": "-29.1333,26.25"
},
{
"Name": "Blood River",
"PostCode": "3024",
"LatLong": "-28.1909,30.2879"
},
{
"Name": "Bloubergrant",
"PostCode": "7441",
"LatLong": "-33.8213,18.4454"
},
{
"Name": "Bloubergrant",
"PostCode": "7444",
"LatLong": "-33.8326,18.4632"
},
{
"Name": "Bloubergrant",
"PostCode": "7449",
"LatLong": "-33.8667,18.4833"
},
{
"Name": "Bloubergstrand",
"PostCode": "7441",
"LatLong": "-33.8213,18.4454"
},
{
"Name": "Bluff",
"PostCode": "4052",
"LatLong": "-29.85,31.0167"
},
{
"Name": "Bluff",
"PostCode": "4139",
"LatLong": "-30.05,30.8833"
},
{
"Name": "Bochum",
"PostCode": "0626",
"LatLong": "-24.1667,29"
},
{
"Name": "Bochum",
"PostCode": "0718",
"LatLong": "-23.2833,29.1167"
},
{
"Name": "Bochum",
"PostCode": "0790",
"LatLong": "-23.2833,29.1167"
},
{
"Name": "Bochum",
"PostCode": "0807",
"LatLong": "-23.2833,29.1167"
},
{
"Name": "Bochum",
"PostCode": "0828",
"LatLong": "-23.2833,29.1167"
},
{
"Name": "Bochum",
"PostCode": "0849",
"LatLong": "-23.2833,29.1167"
},
{
"Name": "Bohlokong",
"PostCode": "9702",
"LatLong": "-28.2333,28.3"
},
{
"Name": "Boitekong",
"PostCode": "0308",
"LatLong": "-25.6667,27.25"
},
{
"Name": "Boksburg",
"PostCode": "1446",
"LatLong": "-26.2167,28.25"
},
{
"Name": "Boksburg",
"PostCode": "1459",
"LatLong": "-26.2167,28.25"
},
{
"Name": "Boksburg",
"PostCode": "1460",
"LatLong": "-26.2167,28.25"
},
{
"Name": "Boksburg",
"PostCode": "1461",
"LatLong": "-26.2167,28.25"
},
{
"Name": "Boksburg",
"PostCode": "1462",
"LatLong": "-26.1786,28.2459"
},
{
"Name": "Boksburg",
"PostCode": "1463",
"LatLong": "-26.2167,28.25"
},
{
"Name": "Boksburg",
"PostCode": "1464",
"LatLong": "-26.2167,28.25"
},
{
"Name": "Boksburg",
"PostCode": "1465",
"LatLong": "-26.2167,28.25"
},
{
"Name": "Boksburg",
"PostCode": "1466",
"LatLong": "-26.2167,28.25"
},
{
"Name": "Boksburg",
"PostCode": "1467",
"LatLong": "-26.2167,28.25"
},
{
"Name": "Boksburg",
"PostCode": "1469",
"LatLong": "-26.2167,28.25"
},
{
"Name": "Boksburg",
"PostCode": "1470",
"LatLong": "-26.1749,28.2494"
},
{
"Name": "Boksburg",
"PostCode": "1471",
"LatLong": "-26.2167,28.25"
},
{
"Name": "Boksburg",
"PostCode": "1472",
"LatLong": "-26.2167,28.25"
},
{
"Name": "Boksburg",
"PostCode": "1474",
"LatLong": "-26.2167,28.25"
},
{
"Name": "Boksburg",
"PostCode": "1477",
"LatLong": "-26.2167,28.25"
},
{
"Name": "Boksburg",
"PostCode": "1478",
"LatLong": "-26.2167,28.25"
},
{
"Name": "Boksburg",
"PostCode": "1479",
"LatLong": "-26.2167,28.25"
},
{
"Name": "Boksburg",
"PostCode": "1482",
"LatLong": "-26.2167,28.25"
},
{
"Name": "Boksburg",
"PostCode": "1485",
"LatLong": "-26.2167,28.25"
},
{
"Name": "Boleu",
"PostCode": "0474",
"LatLong": "-25.15,29.3833"
},
{
"Name": "Bonnievale",
"PostCode": "6730",
"LatLong": "-33.9333,22.0333"
},
{
"Name": "Bonnievale",
"PostCode": "6741",
"LatLong": "-33.9333,20.1"
},
{
"Name": "Boordfontein",
"PostCode": "0182",
"LatLong": "-25.6771,28.1867"
},
{
"Name": "Boordfontein",
"PostCode": "0201",
"LatLong": "-25.7069,28.2294"
},
{
"Name": "Boordfontein West",
"PostCode": "0182",
"LatLong": "-25.6771,28.1867"
},
{
"Name": "Boordfontein West",
"PostCode": "0201",
"LatLong": "-25.7069,28.2294"
},
{
"Name": "Boordfontein-Wes",
"PostCode": "0182",
"LatLong": "-25.6771,28.1867"
},
{
"Name": "Boordfontein-Wes",
"PostCode": "0201",
"LatLong": "-25.7069,28.2294"
},
{
"Name": "Bosbokrand",
"PostCode": "1286",
"LatLong": "-24.8333,31.0667"
},
{
"Name": "Boshof",
"PostCode": "8340",
"LatLong": "-28.55,25.2333"
},
{
"Name": "Boskop",
"PostCode": "2528",
"LatLong": "-29.5,26.2"
},
{
"Name": "Botha'S Hill",
"PostCode": "3660",
"LatLong": "-29.7167,30.7333"
},
{
"Name": "Bothaville",
"PostCode": "9660",
"LatLong": "-27.3667,26.6167"
},
{
"Name": "Bothaville",
"PostCode": "9661",
"LatLong": "-27.3667,26.6167"
},
{
"Name": "Bothaville",
"PostCode": "9663",
"LatLong": "-27.3667,26.6167"
},
{
"Name": "Botshabelo",
"PostCode": "9781",
"LatLong": "-29.2333,26.7333"
},
{
"Name": "Botshabelo",
"PostCode": "9782",
"LatLong": "-29.2333,26.7333"
},
{
"Name": "Botshabelo",
"PostCode": "9785",
"LatLong": "-29.2333,26.7333"
},
{
"Name": "Botshabelo",
"PostCode": "9788",
"LatLong": "-29.2333,26.7333"
},
{
"Name": "Botshabelo",
"PostCode": "9789",
"LatLong": "-29.2333,26.7333"
},
{
"Name": "Boyne",
"PostCode": "0727",
"LatLong": "-23.9333,29.8167"
},
{
"Name": "Boyne",
"PostCode": "0728",
"LatLong": "-23.9333,29.8167"
},
{
"Name": "Boyne",
"PostCode": "0764",
"LatLong": "-23.9333,29.8167"
},
{
"Name": "Boyne",
"PostCode": "0766",
"LatLong": "-23.9333,29.8167"
},
{
"Name": "Brackenfell",
"PostCode": "7560",
"LatLong": "-33.8667,18.6833"
},
{
"Name": "Brakpan",
"PostCode": "1540",
"LatLong": "-26.2333,28.3667"
},
{
"Name": "Brakpan",
"PostCode": "1541",
"LatLong": "-26.2333,28.3667"
},
{
"Name": "Brakpan",
"PostCode": "1542",
"LatLong": "-26.2333,28.3667"
},
{
"Name": "Brakpan",
"PostCode": "1543",
"LatLong": "-26.2333,28.3667"
},
{
"Name": "Brakpan",
"PostCode": "1544",
"LatLong": "-26.2333,28.3667"
},
{
"Name": "Brakpan",
"PostCode": "1545",
"LatLong": "-26.2333,28.3667"
},
{
"Name": "Brakpan",
"PostCode": "1546",
"LatLong": "-26.2333,28.3667"
},
{
"Name": "Brakpan",
"PostCode": "1547",
"LatLong": "-26.2333,28.3667"
},
{
"Name": "Brakpan",
"PostCode": "1548",
"LatLong": "-26.2333,28.3667"
},
{
"Name": "Brakpan",
"PostCode": "1549",
"LatLong": "-26.2333,28.3667"
},
{
"Name": "Brakpan",
"PostCode": "1550",
"LatLong": "-26.2333,28.3667"
},
{
"Name": "Brakpan",
"PostCode": "1552",
"LatLong": "-26.2333,28.3667"
},
{
"Name": "Brakpan",
"PostCode": "1553",
"LatLong": "-26.2333,28.3667"
},
{
"Name": "Brakpan",
"PostCode": "1554",
"LatLong": "-26.2333,28.3667"
},
{
"Name": "Brakpan North",
"PostCode": "1541",
"LatLong": "-26.2333,28.3667"
},
{
"Name": "Brakpan North",
"PostCode": "1545",
"LatLong": "-26.2333,28.3667"
},
{
"Name": "Bramley",
"PostCode": "2054",
"LatLong": "-26.2,28.0833"
},
{
"Name": "Bramley",
"PostCode": "2066",
"LatLong": "-26.2,28.0833"
},
{
"Name": "Bramley",
"PostCode": "2073",
"LatLong": "-26.2,28.0833"
},
{
"Name": "Bramley",
"PostCode": "2090",
"LatLong": "-26.2,28.0833"
},
{
"Name": "Bramley",
"PostCode": "2144",
"LatLong": "-26.2,28.0833"
},
{
"Name": "Bramley",
"PostCode": "2148",
"LatLong": "-26.2,28.0833"
},
{
"Name": "Brandfort",
"PostCode": "9400",
"LatLong": "-28.7,26.4667"
},
{
"Name": "Bredasdorp",
"PostCode": "7281",
"LatLong": "-34.5333,20.0333"
},
{
"Name": "Bredasdorp",
"PostCode": "7282",
"LatLong": "-34.5333,20.0333"
},
{
"Name": "Bredasdorp",
"PostCode": "7283",
"LatLong": "-34.5333,20.0333"
},
{
"Name": "Bredasdorp",
"PostCode": "7285",
"LatLong": "-34.5333,20.0333"
},
{
"Name": "Bredasdorp",
"PostCode": "7287",
"LatLong": "-34.5333,20.0333"
},
{
"Name": "Breyten",
"PostCode": "2330",
"LatLong": "-26.3,29.9833"
},
{
"Name": "Brits",
"PostCode": "0189",
"LatLong": "-25.6333,27.7833"
},
{
"Name": "Brits",
"PostCode": "0210",
"LatLong": "-25.6333,27.7833"
},
{
"Name": "Brits",
"PostCode": "0217",
"LatLong": "-25.6333,27.7833"
},
{
"Name": "Brits",
"PostCode": "0220",
"LatLong": "-25.6333,27.7833"
},
{
"Name": "Brits",
"PostCode": "0232",
"LatLong": "-25.6333,27.7833"
},
{
"Name": "Brits",
"PostCode": "0240",
"LatLong": "-25.6333,27.7833"
},
{
"Name": "Brits",
"PostCode": "0250",
"LatLong": "-25.6333,27.7833"
},
{
"Name": "Brits",
"PostCode": "0251",
"LatLong": "-25.6333,27.7833"
},
{
"Name": "Brits",
"PostCode": "0252",
"LatLong": "-25.6333,27.7833"
},
{
"Name": "Brits",
"PostCode": "0253",
"LatLong": "-25.6333,27.7833"
},
{
"Name": "Brits",
"PostCode": "0255",
"LatLong": "-25.6333,27.7833"
},
{
"Name": "Brits",
"PostCode": "0257",
"LatLong": "-25.6333,27.7833"
},
{
"Name": "Brits",
"PostCode": "0258",
"LatLong": "-25.6333,27.7833"
},
{
"Name": "Brits",
"PostCode": "0259",
"LatLong": "-25.6333,27.7833"
},
{
"Name": "Brits",
"PostCode": "0260",
"LatLong": "-25.6333,27.7833"
},
{
"Name": "Brits",
"PostCode": "0261",
"LatLong": "-25.6333,27.7833"
},
{
"Name": "Brits",
"PostCode": "0264",
"LatLong": "-25.6333,27.7833"
},
{
"Name": "Brits",
"PostCode": "0265",
"LatLong": "-25.6333,27.7833"
},
{
"Name": "Brits",
"PostCode": "0267",
"LatLong": "-25.6333,27.7833"
},
{
"Name": "Brits",
"PostCode": "0268",
"LatLong": "-25.6333,27.7833"
},
{
"Name": "Brits",
"PostCode": "0269",
"LatLong": "-25.6333,27.7833"
},
{
"Name": "Brits",
"PostCode": "0270",
"LatLong": "-25.6333,27.7833"
},
{
"Name": "Brits",
"PostCode": "0271",
"LatLong": "-25.6333,27.7833"
},
{
"Name": "Brits",
"PostCode": "0273",
"LatLong": "-25.6333,27.7833"
},
{
"Name": "Brits",
"PostCode": "0274",
"LatLong": "-25.6333,27.7833"
},
{
"Name": "Brits",
"PostCode": "0275",
"LatLong": "-25.6333,27.7833"
},
{
"Name": "Brits",
"PostCode": "0276",
"LatLong": "-25.6333,27.7833"
},
{
"Name": "Brits",
"PostCode": "0277",
"LatLong": "-25.6333,27.7833"
},
{
"Name": "Britstown",
"PostCode": "8782",
"LatLong": "-30.5833,23.5"
},
{
"Name": "Bromhof",
"PostCode": "2154",
"LatLong": "-26.2,28.0833"
},
{
"Name": "Bromhof",
"PostCode": "2188",
"LatLong": "-26.1894,28.0779"
},
{
"Name": "Bronkhorstspruit",
"PostCode": "1020",
"LatLong": "-25.8083,28.7406"
},
{
"Name": "Bronkhorstspruit",
"PostCode": "1021",
"LatLong": "-25.8083,28.7406"
},
{
"Name": "Bronkhorstspruit",
"PostCode": "1022",
"LatLong": "-25.8083,28.7406"
},
{
"Name": "Bronkhorstspruit",
"PostCode": "1024",
"LatLong": "-25.8083,28.7406"
},
{
"Name": "Bronkhorstspruit",
"PostCode": "1025",
"LatLong": "-25.8083,28.7406"
},
{
"Name": "Bronkhorstspruit",
"PostCode": "1026",
"LatLong": "-25.8083,28.7406"
},
{
"Name": "Bronkhorstspruit",
"PostCode": "1027",
"LatLong": "-25.8083,28.7406"
},
{
"Name": "Bronkhorstspruit",
"PostCode": "1028",
"LatLong": "-25.8083,28.7406"
},
{
"Name": "Bryanston",
"PostCode": "2021",
"LatLong": "-26.2,28.0833"
},
{
"Name": "Bryanston",
"PostCode": "2031",
"LatLong": "-26.2,28.0833"
},
{
"Name": "Bryanston",
"PostCode": "2052",
"LatLong": "-26.05,28.0333"
},
{
"Name": "Bryanston",
"PostCode": "2055",
"LatLong": "-26.1167,28.0333"
},
{
"Name": "Bryanston",
"PostCode": "2056",
"LatLong": "-26.05,28.0333"
},
{
"Name": "Bryanston",
"PostCode": "2057",
"LatLong": "-26.05,28.0333"
},
{
"Name": "Bryanston",
"PostCode": "2060",
"LatLong": "-26.2,28.0833"
},
{
"Name": "Bryanston",
"PostCode": "2069",
"LatLong": "-26.05,28.0333"
},
{
"Name": "Bryanston",
"PostCode": "2072",
"LatLong": "-26.05,28.0333"
},
{
"Name": "Bryanston",
"PostCode": "2077",
"LatLong": "-26.05,28.0333"
},
{
"Name": "Bryanston",
"PostCode": "2128",
"LatLong": "-26.05,28.0333"
},
{
"Name": "Bryanston",
"PostCode": "2152",
"LatLong": "-26.2,28.0833"
},
{
"Name": "Bryanston",
"PostCode": "2165",
"LatLong": "-26.05,28.0333"
},
{
"Name": "Bryanston",
"PostCode": "2189",
"LatLong": "-26.05,28.0333"
},
{
"Name": "Bryanston",
"PostCode": "2191",
"LatLong": "-26.05,28.0333"
},
{
"Name": "Bryanston",
"PostCode": "2196",
"LatLong": "-26.1345,28.0529"
},
{
"Name": "Bultfontein",
"PostCode": "9670",
"LatLong": "-25.1167,28.5667"
},
{
"Name": "Bulwer",
"PostCode": "3244",
"LatLong": "-29.8,29.75"
},
{
"Name": "Burgersdorp",
"PostCode": "9744",
"LatLong": "-30.9833,26.3167"
},
{
"Name": "Burgersfort",
"PostCode": "1085",
"LatLong": "-24.6667,30.3333"
},
{
"Name": "Burgersfort",
"PostCode": "1160",
"LatLong": "-24.6667,30.3333"
},
{
"Name": "Bushbuckridge",
"PostCode": "1255",
"LatLong": "-24.8333,31.0667"
},
{
"Name": "Bushbuckridge",
"PostCode": "1282",
"LatLong": "-24.8333,31.0667"
},
{
"Name": "Bushbuckridge",
"PostCode": "1283",
"LatLong": "-24.8333,31.0667"
},
{
"Name": "Bushbuckridge",
"PostCode": "1284",
"LatLong": "-24.8333,31.0667"
},
{
"Name": "Bushbuckridge",
"PostCode": "1285",
"LatLong": "-24.8333,31.0667"
},
{
"Name": "Butterworth",
"PostCode": "4960",
"LatLong": "-32.3333,28.15"
},
{
"Name": "Butterworth",
"PostCode": "4961",
"LatLong": "-32.3333,28.15"
},
{
"Name": "Butterworth",
"PostCode": "4963",
"LatLong": "-32.3333,28.15"
},
{
"Name": "Butterworth",
"PostCode": "4968",
"LatLong": "-32.3333,28.15"
},
{
"Name": "Butterworth",
"PostCode": "5013",
"LatLong": "-32.3333,28.15"
},
{
"Name": "Cala",
"PostCode": "5455",
"LatLong": "-31.5167,27.7"
},
{
"Name": "Caledon",
"PostCode": "7185",
"LatLong": "-34.2167,19.4167"
},
{
"Name": "Caledon",
"PostCode": "7230",
"LatLong": "-34.2167,19.4167"
},
{
"Name": "Caledon",
"PostCode": "7232",
"LatLong": "-34.2167,19.4167"
},
{
"Name": "Caledon",
"PostCode": "7250",
"LatLong": "-34.15,19.9"
},
{
"Name": "Calitzdorp",
"PostCode": "6660",
"LatLong": "-33.5333,21.6833"
},
{
"Name": "Calvinia",
"PostCode": "8190",
"LatLong": "-31.4667,19.7833"
},
{
"Name": "Calvinia",
"PostCode": "8191",
"LatLong": "-31.4667,19.7833"
},
{
"Name": "Calvinia",
"PostCode": "8193",
"LatLong": "-31.4667,19.7833"
},
{
"Name": "Cambridge",
"PostCode": "5247",
"LatLong": "-32.9667,27.8833"
},
{
"Name": "Cape Town",
"PostCode": "7100",
"LatLong": "-33.9167,18.4167"
},
{
"Name": "Cape Town",
"PostCode": "7103",
"LatLong": "-33.9167,18.4167"
},
{
"Name": "Cape Town",
"PostCode": "7400",
"LatLong": "-33.9167,18.4167"
},
{
"Name": "Cape Town",
"PostCode": "7404",
"LatLong": "-33.9167,18.4167"
},
{
"Name": "Cape Town",
"PostCode": "7405",
"LatLong": "-33.9167,18.4167"
},
{
"Name": "Cape Town",
"PostCode": "7406",
"LatLong": "-33.9167,18.4167"
},
{
"Name": "Cape Town",
"PostCode": "7407",
"LatLong": "-33.9167,18.4167"
},
{
"Name": "Cape Town",
"PostCode": "7420",
"LatLong": "-33.9167,18.4167"
},
{
"Name": "Cape Town",
"PostCode": "7425",
"LatLong": "-33.9167,18.4167"
},
{
"Name": "Cape Town",
"PostCode": "7430",
"LatLong": "-33.9167,18.4167"
},
{
"Name": "Cape Town",
"PostCode": "7435",
"LatLong": "-33.8667,18.4833"
},
{
"Name": "Cape Town",
"PostCode": "7437",
"LatLong": "-33.9167,18.4167"
},
{
"Name": "Cape Town",
"PostCode": "7439",
"LatLong": "-33.9167,18.4167"
},
{
"Name": "Cape Town",
"PostCode": "7441",
"LatLong": "-33.9167,18.4167"
},
{
"Name": "Cape Town",
"PostCode": "7455",
"LatLong": "-33.9333,18.5167"
},
{
"Name": "Cape Town",
"PostCode": "7456",
"LatLong": "-33.9167,18.4167"
},
{
"Name": "Cape Town",
"PostCode": "7460",
"LatLong": "-33.8917,18.5583"
},
{
"Name": "Cape Town",
"PostCode": "7463",
"LatLong": "-33.9167,18.4167"
},
{
"Name": "Cape Town",
"PostCode": "7489",
"LatLong": "-33.9167,18.4167"
},
{
"Name": "Cape Town",
"PostCode": "7490",
"LatLong": "-33.9167,18.4167"
},
{
"Name": "Cape Town",
"PostCode": "7493",
"LatLong": "-33.9167,18.4167"
},
{
"Name": "Cape Town",
"PostCode": "7499",
"LatLong": "-33.9167,18.4167"
},
{
"Name": "Cape Town",
"PostCode": "7500",
"LatLong": "-33.9167,18.4167"
},
{
"Name": "Cape Town",
"PostCode": "7507",
"LatLong": "-33.9167,18.4167"
},
{
"Name": "Cape Town",
"PostCode": "7525",
"LatLong": "-33.9167,18.4167"
},
{
"Name": "Cape Town",
"PostCode": "7530",
"LatLong": "-33.9,18.6333"
},
{
"Name": "Cape Town",
"PostCode": "7535",
"LatLong": "-33.9167,18.4167"
},
{
"Name": "Cape Town",
"PostCode": "7550",
"LatLong": "-33.8333,18.65"
},
{
"Name": "Cape Town",
"PostCode": "7551",
"LatLong": "-33.9167,18.4167"
},
{
"Name": "Cape Town",
"PostCode": "7560",
"LatLong": "-33.8667,18.6833"
},
{
"Name": "Cape Town",
"PostCode": "7561",
"LatLong": "-33.9167,18.4167"
},
{
"Name": "Cape Town",
"PostCode": "7700",
"LatLong": "-33.9167,18.4167"
},
{
"Name": "Cape Town",
"PostCode": "7705",
"LatLong": "-33.9167,18.4167"
},
{
"Name": "Cape Town",
"PostCode": "7708",
"LatLong": "-33.975,18.475"
},
{
"Name": "Cape Town",
"PostCode": "7725",
"LatLong": "-33.9167,18.4167"
},
{
"Name": "Cape Town",
"PostCode": "7735",
"LatLong": "-33.9167,18.4167"
},
{
"Name": "Cape Town",
"PostCode": "7745",
"LatLong": "-33.9167,18.4167"
},
{
"Name": "Cape Town",
"PostCode": "7750",
"LatLong": "-33.9833,18.575"
},
{
"Name": "Cape Town",
"PostCode": "7751",
"LatLong": "-33.9167,18.4167"
},
{
"Name": "Cape Town",
"PostCode": "7755",
"LatLong": "-33.9167,18.4167"
},
{
"Name": "Cape Town",
"PostCode": "7760",
"LatLong": "-33.9167,18.4167"
},
{
"Name": "Cape Town",
"PostCode": "7764",
"LatLong": "-33.9778,18.5167"
},
{
"Name": "Cape Town",
"PostCode": "7766",
"LatLong": "-33.9167,18.4167"
},
{
"Name": "Cape Town",
"PostCode": "7779",
"LatLong": "-33.9167,18.4167"
},
{
"Name": "Cape Town",
"PostCode": "7780",
"LatLong": "-33.9167,18.4167"
},
{
"Name": "Cape Town",
"PostCode": "7782",
"LatLong": "-33.9167,18.4167"
},
{
"Name": "Cape Town",
"PostCode": "7783",
"LatLong": "-33.9167,18.4167"
},
{
"Name": "Cape Town",
"PostCode": "7784",
"LatLong": "-33.9167,18.4167"
},
{
"Name": "Cape Town",
"PostCode": "7785",
"LatLong": "-33.9167,18.4167"
},
{
"Name": "Cape Town",
"PostCode": "7789",
"LatLong": "-33.9167,18.4167"
},
{
"Name": "Cape Town",
"PostCode": "7800",
"LatLong": "-34.0167,18.4722"
},
{
"Name": "Cape Town",
"PostCode": "7801",
"LatLong": "-33.9167,18.4167"
},
{
"Name": "Cape Town",
"PostCode": "7806",
"LatLong": "-33.9166,18.4166"
},
{
"Name": "Cape Town",
"PostCode": "7808",
"LatLong": "-33.9167,18.4167"
},
{
"Name": "Cape Town",
"PostCode": "7824",
"LatLong": "-33.9167,18.4167"
},
{
"Name": "Cape Town",
"PostCode": "7848",
"LatLong": "-33.9167,18.4167"
},
{
"Name": "Cape Town",
"PostCode": "7864",
"LatLong": "-33.9167,18.4167"
},
{
"Name": "Cape Town",
"PostCode": "7872",
"LatLong": "-33.9167,18.4167"
},
{
"Name": "Cape Town",
"PostCode": "7880",
"LatLong": "-33.9167,18.4167"
},
{
"Name": "Cape Town",
"PostCode": "7888",
"LatLong": "-33.9167,18.4167"
},
{
"Name": "Cape Town",
"PostCode": "7915",
"LatLong": "-33.9167,18.4167"
},
{
"Name": "Cape Town",
"PostCode": "7925",
"LatLong": "-33.9167,18.4167"
},
{
"Name": "Cape Town",
"PostCode": "7935",
"LatLong": "-33.9167,18.4167"
},
{
"Name": "Cape Town",
"PostCode": "7937",
"LatLong": "-33.9167,18.4167"
},
{
"Name": "Cape Town",
"PostCode": "7941",
"LatLong": "-33.9167,18.4167"
},
{
"Name": "Cape Town",
"PostCode": "7945",
"LatLong": "-33.9258,18.4232"
},
{
"Name": "Cape Town",
"PostCode": "7950",
"LatLong": "-33.9167,18.4167"
},
{
"Name": "Cape Town",
"PostCode": "7965",
"LatLong": "-33.9167,18.4167"
},
{
"Name": "Cape Town",
"PostCode": "7966",
"LatLong": "-33.9167,18.4167"
},
{
"Name": "Cape Town",
"PostCode": "7974",
"LatLong": "-33.9167,18.4167"
},
{
"Name": "Cape Town",
"PostCode": "7975",
"LatLong": "-33.9167,18.4167"
},
{
"Name": "Cape Town",
"PostCode": "8000",
"LatLong": "-33.9161,18.4139"
},
{
"Name": "Cape Town",
"PostCode": "8001",
"LatLong": "-33.9258,18.4232"
},
{
"Name": "Cape Town",
"PostCode": "8002",
"LatLong": "-33.9125,18.4193"
},
{
"Name": "Cape Town",
"PostCode": "8003",
"LatLong": "-33.9167,18.4167"
},
{
"Name": "Cape Town",
"PostCode": "8005",
"LatLong": "-33.9185,18.4131"
},
{
"Name": "Cape Town",
"PostCode": "8007",
"LatLong": "-33.9167,18.4167"
},
{
"Name": "Cape Town",
"PostCode": "8008",
"LatLong": "-33.9167,18.4167"
},
{
"Name": "Cape Town",
"PostCode": "8010",
"LatLong": "-33.9167,18.4167"
},
{
"Name": "Cape Town",
"PostCode": "8012",
"LatLong": "-33.9167,18.4167"
},
{
"Name": "Cape Town",
"PostCode": "8017",
"LatLong": "-33.9167,18.4167"
},
{
"Name": "Cape Town",
"PostCode": "8018",
"LatLong": "-33.9167,18.4167"
},
{
"Name": "Cape Town",
"PostCode": "8020",
"LatLong": "-33.9167,18.4167"
},
{
"Name": "Cape Town",
"PostCode": "8040",
"LatLong": "-33.9277,18.3999"
},
{
"Name": "Cape Town",
"PostCode": "8050",
"LatLong": "-33.9167,18.4167"
},
{
"Name": "Cape Town",
"PostCode": "8051",
"LatLong": "-33.9167,18.4167"
},
{
"Name": "Cape Town",
"PostCode": "8060",
"LatLong": "-33.9192,18.3964"
},
{
"Name": "Cape Town",
"PostCode": "8160",
"LatLong": "-33.9167,18.4167"
},
{
"Name": "Carletonville",
"PostCode": "2495",
"LatLong": "-26.3667,27.4"
},
{
"Name": "Carletonville",
"PostCode": "2496",
"LatLong": "-26.3667,27.4"
},
{
"Name": "Carletonville",
"PostCode": "2499",
"LatLong": "-26.3667,27.4"
},
{
"Name": "Carletonville",
"PostCode": "2500",
"LatLong": "-26.3667,27.4"
},
{
"Name": "Carletonville",
"PostCode": "2501",
"LatLong": "-26.3667,27.4"
},
{
"Name": "Carletonville",
"PostCode": "2502",
"LatLong": "-26.3667,27.4"
},
{
"Name": "Carletonville",
"PostCode": "2503",
"LatLong": "-26.3667,27.4"
},
{
"Name": "Carletonville",
"PostCode": "2504",
"LatLong": "-26.3667,27.4"
},
{
"Name": "Carletonville",
"PostCode": "2507",
"LatLong": "-26.3667,27.4"
},
{
"Name": "Carletonville",
"PostCode": "2508",
"LatLong": "-26.3667,27.4"
},
{
"Name": "Carletonville",
"PostCode": "2509",
"LatLong": "-26.3667,27.4"
},
{
"Name": "Carletonville",
"PostCode": "2511",
"LatLong": "-26.3667,27.4"
},
{
"Name": "Carletonville",
"PostCode": "2513",
"LatLong": "-26.3667,27.4"
},
{
"Name": "Carletonville",
"PostCode": "2516",
"LatLong": "-26.3667,27.4"
},
{
"Name": "Carletonville",
"PostCode": "2517",
"LatLong": "-26.3667,27.4"
},
{
"Name": "Carletonville",
"PostCode": "2519",
"LatLong": "-26.3667,27.4"
},
{
"Name": "Carltonville",
"PostCode": "2534",
"LatLong": "-26.7167,27.1"
},
{
"Name": "Carnarvon",
"PostCode": "8922",
"LatLong": "-30.95,22.1333"
},
{
"Name": "Carnarvon",
"PostCode": "8925",
"LatLong": "-30.95,22.1333"
},
{
"Name": "Carolina",
"PostCode": "1185",
"LatLong": "-26.0693,30.1149"
},
{
"Name": "Cathcart",
"PostCode": "5310",
"LatLong": "-32.3,27.1333"
},
{
"Name": "Cato Ridge",
"PostCode": "3680",
"LatLong": "-29.7333,30.5833"
},
{
"Name": "Centurion",
"PostCode": "0014",
"LatLong": "-25.7069,28.2294"
},
{
"Name": "Centurion",
"PostCode": "0046",
"LatLong": "-25.8744,28.1706"
},
{
"Name": "Centurion",
"PostCode": "0051",
"LatLong": "-25.8744,28.1706"
},
{
"Name": "Centurion",
"PostCode": "0149",
"LatLong": "-25.7069,28.2294"
},
{
"Name": "Centurion",
"PostCode": "0157",
"LatLong": "-25.8744,28.1706"
},
{
"Name": "Centurion",
"PostCode": "0163",
"LatLong": "-25.7069,28.2294"
},
{
"Name": "Centurion",
"PostCode": "0171",
"LatLong": "-25.8744,28.1706"
},
{
"Name": "Centurion",
"PostCode": "0172",
"LatLong": "-25.8744,28.1706"
},
{
"Name": "Ceres",
"PostCode": "6835",
"LatLong": "-33.3667,19.3167"
},
{
"Name": "Ceres",
"PostCode": "6836",
"LatLong": "-33.3667,19.3167"
},
{
"Name": "Ceres",
"PostCode": "6837",
"LatLong": "-33.3667,19.3167"
},
{
"Name": "Ceres",
"PostCode": "6838",
"LatLong": "-33.3667,19.3167"
},
{
"Name": "Ceres",
"PostCode": "6840",
"LatLong": "-33.3667,19.3167"
},
{
"Name": "Ceza",
"PostCode": "3871",
"LatLong": "-27.9833,31.3833"
},
{
"Name": "Chatsworth",
"PostCode": "3604",
"LatLong": "-29.8167,30.85"
},
{
"Name": "Chatsworth",
"PostCode": "3610",
"LatLong": "-29.9167,30.9"
},
{
"Name": "Chatsworth",
"PostCode": "4030",
"LatLong": "-33.55,18.5833"
},
{
"Name": "Chatsworth",
"PostCode": "4054",
"LatLong": "-33.55,18.5833"
},
{
"Name": "Chatsworth",
"PostCode": "4084",
"LatLong": "-33.55,18.5833"
},
{
"Name": "Chatsworth",
"PostCode": "4087",
"LatLong": "-33.55,18.5833"
},
{
"Name": "Chatsworth",
"PostCode": "4092",
"LatLong": "-29.9,30.9833"
},
{
"Name": "Chatsworth",
"PostCode": "4132",
"LatLong": "-33.55,18.5833"
},
{
"Name": "Chatsworth",
"PostCode": "4142",
"LatLong": "-33.55,18.5833"
},
{
"Name": "Chatsworth",
"PostCode": "4147",
"LatLong": "-26.1167,28.0917"
},
{
"Name": "Christiana",
"PostCode": "2680",
"LatLong": "-28.2333,21.25"
},
{
"Name": "Chromite",
"PostCode": "0362",
"LatLong": "-24.6,27.4"
},
{
"Name": "Chuenespoort",
"PostCode": "0745",
"LatLong": "-23.95,29.1333"
},
{
"Name": "Citrusdal",
"PostCode": "7340",
"LatLong": "-32.6,19.0167"
},
{
"Name": "Clanwilliam",
"PostCode": "8120",
"LatLong": "-32.1833,18.9"
},
{
"Name": "Clanwilliam",
"PostCode": "8138",
"LatLong": "-32.1833,18.9"
},
{
"Name": "Claremont",
"PostCode": "7708",
"LatLong": "-33.9833,18.4667"
},
{
"Name": "Claremont",
"PostCode": "7740",
"LatLong": "-33.9833,18.4667"
},
{
"Name": "Clarens",
"PostCode": "9707",
"LatLong": "-28.5167,28.4167"
},
{
"Name": "Clarkebury",
"PostCode": "5024",
"LatLong": "-31.7833,28.3"
},
{
"Name": "Clarkebury",
"PostCode": "5026",
"LatLong": "-31.7833,28.3"
},
{
"Name": "Clernaville",
"PostCode": "3610",
"LatLong": "-29.8139,30.8389"
},
{
"Name": "Clocolan",
"PostCode": "9735",
"LatLong": "-28.9,27.5667"
},
{
"Name": "Coalville",
"PostCode": "1033",
"LatLong": "-26.0333,29.1667"
},
{
"Name": "Cofimvaba",
"PostCode": "5329",
"LatLong": "-32.0167,27.5833"
},
{
"Name": "Cofimvaba",
"PostCode": "5331",
"LatLong": "-32.0167,27.5833"
},
{
"Name": "Cofimvaba",
"PostCode": "5375",
"LatLong": "-32.0167,27.5833"
},
{
"Name": "Cofimvaba",
"PostCode": "5376",
"LatLong": "-32.0167,27.5833"
},
{
"Name": "Cofimvaba",
"PostCode": "5377",
"LatLong": "-32.0167,27.5833"
},
{
"Name": "Cofimvaba",
"PostCode": "5380",
"LatLong": "-32.0167,27.5833"
},
{
"Name": "Cofimvaba",
"PostCode": "5381",
"LatLong": "-32.0167,27.5833"
},
{
"Name": "Cofimvaba",
"PostCode": "5382",
"LatLong": "-32.0167,27.5833"
},
{
"Name": "Colchester",
"PostCode": "6175",
"LatLong": "-33.6,26.9"
},
{
"Name": "Colenso",
"PostCode": "3360",
"LatLong": "-28.7333,29.8167"
},
{
"Name": "Colesberg",
"PostCode": "9795",
"LatLong": "-30.7333,25.1"
},
{
"Name": "Colesberg",
"PostCode": "9797",
"LatLong": "-30.7333,25.1"
},
{
"Name": "Colesberg",
"PostCode": "9922",
"LatLong": "-30.7333,25.1"
},
{
"Name": "Coligny",
"PostCode": "2725",
"LatLong": "-26.3333,26.3167"
},
{
"Name": "Coligny",
"PostCode": "2726",
"LatLong": "-26.3333,26.3167"
},
{
"Name": "Coligny",
"PostCode": "2727",
"LatLong": "-26.3333,26.3167"
},
{
"Name": "Constantia",
"PostCode": "7806",
"LatLong": "-34.0167,18.45"
},
{
"Name": "Cookhouse",
"PostCode": "5820",
"LatLong": "-32.75,25.8167"
},
{
"Name": "Cookhouse",
"PostCode": "5821",
"LatLong": "-32.75,25.8167"
},
{
"Name": "Cookhouse",
"PostCode": "5824",
"LatLong": "-32.75,25.8167"
},
{
"Name": "Cookhouse",
"PostCode": "5830",
"LatLong": "-32.75,25.8167"
},
{
"Name": "Cornelia",
"PostCode": "9850",
"LatLong": "-23.7167,29.1333"
},
{
"Name": "Cradock",
"PostCode": "5365",
"LatLong": "-32.1833,25.6167"
},
{
"Name": "Cradock",
"PostCode": "5870",
"LatLong": "-32.1833,25.6167"
},
{
"Name": "Cradock",
"PostCode": "5880",
"LatLong": "-32.1833,25.6167"
},
{
"Name": "Cradock",
"PostCode": "5881",
"LatLong": "-32.1833,25.6167"
},
{
"Name": "Cradock",
"PostCode": "5882",
"LatLong": "-32.1833,25.6167"
},
{
"Name": "Cradock",
"PostCode": "5883",
"LatLong": "-32.1833,25.6167"
},
{
"Name": "Cradock",
"PostCode": "5884",
"LatLong": "-32.1833,25.6167"
},
{
"Name": "Crawford",
"PostCode": "7764",
"LatLong": "-33.9833,18.5"
},
{
"Name": "Creighton",
"PostCode": "3263",
"LatLong": "-30.0333,29.8333"
},
{
"Name": "Cullinan",
"PostCode": "1002",
"LatLong": "-25.6756,28.5222"
},
{
"Name": "Cullinan",
"PostCode": "1003",
"LatLong": "-25.6756,28.5222"
},
{
"Name": "Cullinan",
"PostCode": "1004",
"LatLong": "-25.6756,28.5222"
},
{
"Name": "Cullinan",
"PostCode": "1005",
"LatLong": "-25.6756,28.5222"
},
{
"Name": "Dalpark",
"PostCode": "1541",
"LatLong": "-26.2333,28.3667"
},
{
"Name": "Dalpark",
"PostCode": "1552",
"LatLong": "-26.2333,28.3667"
},
{
"Name": "Dalton",
"PostCode": "3230",
"LatLong": "-29.3333,30.6333"
},
{
"Name": "Dalton",
"PostCode": "3236",
"LatLong": "-29.3333,30.6333"
},
{
"Name": "Dalton",
"PostCode": "3238",
"LatLong": "-29.3333,30.6333"
},
{
"Name": "Dalton",
"PostCode": "3242",
"LatLong": "-29.4,30.85"
},
{
"Name": "Dalton",
"PostCode": "3259",
"LatLong": "-29.3333,30.6333"
},
{
"Name": "Danielskuil",
"PostCode": "8405",
"LatLong": "-28.1833,23.5333"
},
{
"Name": "Dannhause",
"PostCode": "3080",
"LatLong": "-28,30.05"
},
{
"Name": "Dannhauser",
"PostCode": "3080",
"LatLong": "-28,30.05"
},
{
"Name": "Darling",
"PostCode": "7345",
"LatLong": "-26.9833,29.3167"
},
{
"Name": "Darling",
"PostCode": "7351",
"LatLong": "-33.3833,18.3833"
},
{
"Name": "Darnall",
"PostCode": "4480",
"LatLong": "-26.4,23.25"
},
{
"Name": "Dassenberg",
"PostCode": "7347",
"LatLong": "-33.0833,18.75"
},
{
"Name": "Dassenberg",
"PostCode": "7349",
"LatLong": "-33.5667,18.4833"
},
{
"Name": "Dassenberg",
"PostCode": "7352",
"LatLong": "-33.3367,18.3467"
},
{
"Name": "Daveyton",
"PostCode": "1519",
"LatLong": "-26.15,28.4167"
},
{
"Name": "Daveyton",
"PostCode": "1520",
"LatLong": "-26.15,28.4167"
},
{
"Name": "Daveyton",
"PostCode": "1521",
"LatLong": "-26.15,28.4167"
},
{
"Name": "De Aar",
"PostCode": "7000",
"LatLong": "-30.65,24.0167"
},
{
"Name": "De Aar",
"PostCode": "8780",
"LatLong": "-30.65,24.0167"
},
{
"Name": "De Deur",
"PostCode": "1884",
"LatLong": "-26.5333,27.9333"
},
{
"Name": "Dealesville",
"PostCode": "9348",
"LatLong": "-28.6667,25.7667"
},
{
"Name": "Delareyville",
"PostCode": "2718",
"LatLong": "-26.6833,25.4667"
},
{
"Name": "Delareyville",
"PostCode": "2747",
"LatLong": "-26.6833,25.4667"
},
{
"Name": "Delareyville",
"PostCode": "2748",
"LatLong": "-26.6833,25.4667"
},
{
"Name": "Delareyville",
"PostCode": "2771",
"LatLong": "-26.6833,25.4667"
},
{
"Name": "Delareyville",
"PostCode": "2772",
"LatLong": "-26.6833,25.4667"
},
{
"Name": "Delareyville",
"PostCode": "2776",
"LatLong": "-26.6833,25.4667"
},
{
"Name": "Delft",
"PostCode": "7100",
"LatLong": "-33.9778,18.6167"
},
{
"Name": "Delmas",
"PostCode": "2210",
"LatLong": "-26.15,28.6833"
},
{
"Name": "Delmas",
"PostCode": "2211",
"LatLong": "-26.15,28.6833"
},
{
"Name": "Delmas",
"PostCode": "2213",
"LatLong": "-26.15,28.6833"
},
{
"Name": "Delmore",
"PostCode": "1401",
"LatLong": "-26.2,28.175"
},
{
"Name": "Delmore",
"PostCode": "1404",
"LatLong": "-26.2167,28.1833"
},
{
"Name": "Delportshoop",
"PostCode": "8377",
"LatLong": "-28.4167,24.3"
},
{
"Name": "Dendron",
"PostCode": "0786",
"LatLong": "-23.3833,29.3333"
},
{
"Name": "Deneysville",
"PostCode": "1932",
"LatLong": "-26.8833,28.1"
},
{
"Name": "Denneboom",
"PostCode": "0160",
"LatLong": "-25.7181,28.3342"
},
{
"Name": "Derdepoortpark",
"PostCode": "0035",
"LatLong": "-25.7069,28.2294"
},
{
"Name": "Desainagar",
"PostCode": "4399",
"LatLong": "-29.114,30.6772"
},
{
"Name": "Desainagar",
"PostCode": "4405",
"LatLong": "-29.5833,31.1333"
},
{
"Name": "Despatch",
"PostCode": "6220",
"LatLong": "-33.8,25.4667"
},
{
"Name": "Devon",
"PostCode": "2260",
"LatLong": "-26.35,28.7667"
},
{
"Name": "Dewetsdorp",
"PostCode": "9940",
"LatLong": "-29.5833,26.6667"
},
{
"Name": "Dibasabophelo",
"PostCode": "0457",
"LatLong": "-24.9667,29.3"
},
{
"Name": "Diep River",
"PostCode": "7800",
"LatLong": "-34.0345,18.4651"
},
{
"Name": "Diep River",
"PostCode": "7945",
"LatLong": "-33.8021,19.5229"
},
{
"Name": "Diepkloof",
"PostCode": "1804",
"LatLong": "-26.2333,27.9333"
},
{
"Name": "Diepkloof",
"PostCode": "1862",
"LatLong": "-26.4667,28.2333"
},
{
"Name": "Dikgakeng",
"PostCode": "9873",
"LatLong": "-28.5333,28.8"
},
{
"Name": "Dikgale",
"PostCode": "0721",
"LatLong": "-23.7333,29.7833"
},
{
"Name": "Dinokana",
"PostCode": "2868",
"LatLong": "-25.45,25.8667"
},
{
"Name": "Dobsonville",
"PostCode": "1723",
"LatLong": "-26.2167,27.8667"
},
{
"Name": "Dobsonville",
"PostCode": "1863",
"LatLong": "-26.2167,27.8667"
},
{
"Name": "Dobsonville",
"PostCode": "1865",
"LatLong": "-26.2167,27.8667"
},
{
"Name": "Dobsonville",
"PostCode": "1874",
"LatLong": "-26.2167,27.8667"
},
{
"Name": "Dobsonville",
"PostCode": "1875",
"LatLong": "-26.2167,27.8667"
},
{
"Name": "Donnybrook",
"PostCode": "3237",
"LatLong": "-29.9333,29.8667"
},
{
"Name": "Donnybrook",
"PostCode": "3241",
"LatLong": "-29.9333,29.8667"
},
{
"Name": "Doonside",
"PostCode": "4126",
"LatLong": "-30.0667,30.8833"
},
{
"Name": "Doornpoort",
"PostCode": "0017",
"LatLong": "-25.6333,28.2667"
},
{
"Name": "Doornpoort",
"PostCode": "0186",
"LatLong": "-25.7069,28.2294"
},
{
"Name": "Dordrecht",
"PostCode": "5420",
"LatLong": "-31.3667,27.05"
},
{
"Name": "Dordrecht",
"PostCode": "5435",
"LatLong": "-31.3667,27.05"
},
{
"Name": "Dordrecht",
"PostCode": "5436",
"LatLong": "-31.3667,27.05"
},
{
"Name": "Dormerton",
"PostCode": "4091",
"LatLong": "-29.85,31"
},
{
"Name": "Dormerton",
"PostCode": "4138",
"LatLong": "-30.05,30.8833"
},
{
"Name": "Douglas",
"PostCode": "8730",
"LatLong": "-29.0667,23.7667"
},
{
"Name": "Douglas",
"PostCode": "8735",
"LatLong": "-26.0167,29.3667"
},
{
"Name": "Driekop",
"PostCode": "1128",
"LatLong": "-24.5833,30.1667"
},
{
"Name": "Driekop",
"PostCode": "1131",
"LatLong": "-24.5833,30.1667"
},
{
"Name": "Dube",
"PostCode": "1801",
"LatLong": "-26.25,27.9167"
},
{
"Name": "Duduza",
"PostCode": "1494",
"LatLong": "-26.3667,28.4167"
},
{
"Name": "Duduza",
"PostCode": "1496",
"LatLong": "-26.3667,28.4167"
},
{
"Name": "Duiwelskloof",
"PostCode": "0815",
"LatLong": "-23.7,30.1333"
},
{
"Name": "Dundee",
"PostCode": "3000",
"LatLong": "-28.1667,30.2333"
},
{
"Name": "Dundee",
"PostCode": "3003",
"LatLong": "-28.1667,30.2333"
},
{
"Name": "Dundee",
"PostCode": "3004",
"LatLong": "-28.1667,30.2333"
},
{
"Name": "Dundee",
"PostCode": "3006",
"LatLong": "-28.1667,30.2333"
},
{
"Name": "Dundee",
"PostCode": "3016",
"LatLong": "-28.1667,30.2333"
},
{
"Name": "Dundee",
"PostCode": "3017",
"LatLong": "-28.1667,30.2333"
},
{
"Name": "Dundee",
"PostCode": "3081",
"LatLong": "-28.1667,30.2333"
},
{
"Name": "Dundonald",
"PostCode": "2336",
"LatLong": "-26.5333,29.9833"
},
{
"Name": "Dunnottar",
"PostCode": "1496",
"LatLong": "-26.35,28.4167"
},
{
"Name": "Durban",
"PostCode": "3611",
"LatLong": "-29.85,31.0167"
},
{
"Name": "Durban",
"PostCode": "3629",
"LatLong": "-29.85,31.0167"
},
{
"Name": "Durban",
"PostCode": "3630",
"LatLong": "-29.85,31.0167"
},
{
"Name": "Durban",
"PostCode": "4000",
"LatLong": "-29.85,31.0167"
},
{
"Name": "Durban",
"PostCode": "4001",
"LatLong": "-29.8561,31.0352"
},
{
"Name": "Durban",
"PostCode": "4004",
"LatLong": "-29.85,31.0167"
},
{
"Name": "Durban",
"PostCode": "4005",
"LatLong": "-29.85,31.0167"
},
{
"Name": "Durban",
"PostCode": "4006",
"LatLong": "-29.85,31.0167"
},
{
"Name": "Durban",
"PostCode": "4007",
"LatLong": "-29.85,31.0167"
},
{
"Name": "Durban",
"PostCode": "4008",
"LatLong": "-29.85,31.0167"
},
{
"Name": "Durban",
"PostCode": "4011",
"LatLong": "-29.85,31.0167"
},
{
"Name": "Durban",
"PostCode": "4013",
"LatLong": "-29.85,31.0167"
},
{
"Name": "Durban",
"PostCode": "4014",
"LatLong": "-29.85,31.0167"
},
{
"Name": "Durban",
"PostCode": "4015",
"LatLong": "-29.85,31.0167"
},
{
"Name": "Durban",
"PostCode": "4016",
"LatLong": "-29.85,31.0167"
},
{
"Name": "Durban",
"PostCode": "4017",
"LatLong": "-29.85,31.0167"
},
{
"Name": "Durban",
"PostCode": "4018",
"LatLong": "-29.85,31.0167"
},
{
"Name": "Durban",
"PostCode": "4022",
"LatLong": "-29.85,31.0167"
},
{
"Name": "Durban",
"PostCode": "4023",
"LatLong": "-29.85,31.0167"
},
{
"Name": "Durban",
"PostCode": "4024",
"LatLong": "-29.85,31.0167"
},
{
"Name": "Durban",
"PostCode": "4025",
"LatLong": "-29.85,31.0167"
},
{
"Name": "Durban",
"PostCode": "4026",
"LatLong": "-29.85,31.0167"
},
{
"Name": "Durban",
"PostCode": "4027",
"LatLong": "-29.85,31.0167"
},
{
"Name": "Durban",
"PostCode": "4028",
"LatLong": "-29.85,31.0167"
},
{
"Name": "Durban",
"PostCode": "4029",
"LatLong": "-29.85,31.0167"
},
{
"Name": "Durban",
"PostCode": "4034",
"LatLong": "-29.85,31.0167"
},
{
"Name": "Durban",
"PostCode": "4035",
"LatLong": "-29.85,31.0167"
},
{
"Name": "Durban",
"PostCode": "4036",
"LatLong": "-29.85,31.0167"
},
{
"Name": "Durban",
"PostCode": "4037",
"LatLong": "-29.85,31.0167"
},
{
"Name": "Durban",
"PostCode": "4038",
"LatLong": "-29.85,31.0167"
},
{
"Name": "Durban",
"PostCode": "4051",
"LatLong": "-29.8,31.0333"
},
{
"Name": "Durban",
"PostCode": "4052",
"LatLong": "-29.85,31.0167"
},
{
"Name": "Durban",
"PostCode": "4053",
"LatLong": "-29.85,31.0167"
},
{
"Name": "Durban",
"PostCode": "4056",
"LatLong": "-29.85,31.0167"
},
{
"Name": "Durban",
"PostCode": "4057",
"LatLong": "-29.85,31.0167"
},
{
"Name": "Durban",
"PostCode": "4058",
"LatLong": "-29.85,31.0167"
},
{
"Name": "Durban",
"PostCode": "4059",
"LatLong": "-29.85,31.0167"
},
{
"Name": "Durban",
"PostCode": "4060",
"LatLong": "-29.85,31.0167"
},
{
"Name": "Durban",
"PostCode": "4061",
"LatLong": "-29.85,31.0167"
},
{
"Name": "Durban",
"PostCode": "4062",
"LatLong": "-29.85,31.0167"
},
{
"Name": "Durban",
"PostCode": "4063",
"LatLong": "-29.85,31.0167"
},
{
"Name": "Durban",
"PostCode": "4064",
"LatLong": "-29.85,31.0167"
},
{
"Name": "Durban",
"PostCode": "4065",
"LatLong": "-29.85,31.0167"
},
{
"Name": "Durban",
"PostCode": "4067",
"LatLong": "-29.85,31.0167"
},
{
"Name": "Durban",
"PostCode": "4068",
"LatLong": "-29.85,31.0167"
},
{
"Name": "Durban",
"PostCode": "4069",
"LatLong": "-29.85,31.0167"
},
{
"Name": "Durban",
"PostCode": "4070",
"LatLong": "-29.85,31.0167"
},
{
"Name": "Durban",
"PostCode": "4071",
"LatLong": "-29.85,31.0167"
},
{
"Name": "Durban",
"PostCode": "4074",
"LatLong": "-29.85,31.0167"
},
{
"Name": "Durban",
"PostCode": "4075",
"LatLong": "-29.85,31.0167"
},
{
"Name": "Durban",
"PostCode": "4078",
"LatLong": "-29.85,31.0167"
},
{
"Name": "Durban",
"PostCode": "4080",
"LatLong": "-29.85,31.0167"
},
{
"Name": "Durban",
"PostCode": "4083",
"LatLong": "-29.85,31.0167"
},
{
"Name": "Durban",
"PostCode": "4085",
"LatLong": "-29.85,31.0167"
},
{
"Name": "Durban",
"PostCode": "4090",
"LatLong": "-29.85,31.0167"
},
{
"Name": "Durban",
"PostCode": "4091",
"LatLong": "-29.85,31.0167"
},
{
"Name": "Durban",
"PostCode": "4092",
"LatLong": "-29.85,31.0167"
},
{
"Name": "Durban",
"PostCode": "4093",
"LatLong": "-29.85,31.0167"
},
{
"Name": "Durban",
"PostCode": "4094",
"LatLong": "-29.85,31.0167"
},
{
"Name": "Durban",
"PostCode": "4101",
"LatLong": "-29.85,31.0167"
},
{
"Name": "Durban",
"PostCode": "4104",
"LatLong": "-29.85,31.0167"
},
{
"Name": "Durban",
"PostCode": "4137",
"LatLong": "-29.85,31.0167"
},
{
"Name": "Durban",
"PostCode": "4162",
"LatLong": "-29.85,31.0167"
},
{
"Name": "Durban",
"PostCode": "4309",
"LatLong": "-26.1167,28.05"
},
{
"Name": "Durban",
"PostCode": "4310",
"LatLong": "-29.85,31.0167"
},
{
"Name": "Durban",
"PostCode": "4359",
"LatLong": "-29.75,30.9833"
},
{
"Name": "Durban",
"PostCode": "4360",
"LatLong": "-29.85,31.0167"
},
{
"Name": "Durban",
"PostCode": "4362",
"LatLong": "-29.85,31.0167"
},
{
"Name": "Durban North",
"PostCode": "4019",
"LatLong": "-29.8,31.0333"
},
{
"Name": "Durban North",
"PostCode": "4051",
"LatLong": "-29.8,31.0333"
},
{
"Name": "Durban North",
"PostCode": "4098",
"LatLong": "-29.8,31.0333"
},
{
"Name": "Durban-Noord",
"PostCode": "4051",
"LatLong": "-29.8,31.0333"
},
{
"Name": "Durbanville",
"PostCode": "7550",
"LatLong": "-33.8333,18.65"
},
{
"Name": "Dwars River",
"PostCode": "0812",
"LatLong": "-23.45,29.75"
},
{
"Name": "Dzanani",
"PostCode": "0955",
"LatLong": "-22.8833,30.1667"
},
{
"Name": "East London",
"PostCode": "5201",
"LatLong": "-33.0249,27.9082"
},
{
"Name": "East London",
"PostCode": "5204",
"LatLong": "-33.0333,27.9167"
},
{
"Name": "East London",
"PostCode": "5205",
"LatLong": "-33.0333,27.9167"
},
{
"Name": "East London",
"PostCode": "5206",
"LatLong": "-33.0333,27.9167"
},
{
"Name": "East London",
"PostCode": "5207",
"LatLong": "-33.0333,27.9167"
},
{
"Name": "East London",
"PostCode": "5208",
"LatLong": "-33.0333,27.9167"
},
{
"Name": "East London",
"PostCode": "5209",
"LatLong": "-33.0333,27.9167"
},
{
"Name": "East London",
"PostCode": "5210",
"LatLong": "-33.0333,27.9167"
},
{
"Name": "East London",
"PostCode": "5211",
"LatLong": "-33.0333,27.9167"
},
{
"Name": "East London",
"PostCode": "5212",
"LatLong": "-33.0333,27.9167"
},
{
"Name": "East London",
"PostCode": "5213",
"LatLong": "-33.0333,27.9167"
},
{
"Name": "East London",
"PostCode": "5214",
"LatLong": "-33.0333,27.9167"
},
{
"Name": "East London",
"PostCode": "5216",
"LatLong": "-33.0333,27.9167"
},
{
"Name": "East London",
"PostCode": "5217",
"LatLong": "-33.0333,27.9167"
},
{
"Name": "East London",
"PostCode": "5218",
"LatLong": "-33.0333,27.9167"
},
{
"Name": "East London",
"PostCode": "5219",
"LatLong": "-33.0333,27.9167"
},
{
"Name": "East London",
"PostCode": "5220",
"LatLong": "-33.0333,27.9167"
},
{
"Name": "East London",
"PostCode": "5241",
"LatLong": "-33.0333,27.9167"
},
{
"Name": "East London",
"PostCode": "5247",
"LatLong": "-33.0333,27.9167"
},
{
"Name": "East London",
"PostCode": "5252",
"LatLong": "-33.0333,27.9167"
},
{
"Name": "East London",
"PostCode": "5253",
"LatLong": "-33.0333,27.9167"
},
{
"Name": "East London",
"PostCode": "5259",
"LatLong": "-33.0333,27.9167"
},
{
"Name": "East London",
"PostCode": "5260",
"LatLong": "-33.0333,27.9167"
},
{
"Name": "East London",
"PostCode": "5264",
"LatLong": "-33.0333,27.9167"
},
{
"Name": "East London",
"PostCode": "5265",
"LatLong": "-33.0333,27.9167"
},
{
"Name": "East London",
"PostCode": "5272",
"LatLong": "-33.0333,27.9167"
},
{
"Name": "East London",
"PostCode": "5275",
"LatLong": "-33.0333,27.9167"
},
{
"Name": "East London",
"PostCode": "5284",
"LatLong": "-33.0333,27.9167"
},
{
"Name": "East London",
"PostCode": "5288",
"LatLong": "-33.0333,27.9167"
},
{
"Name": "East London",
"PostCode": "5292",
"LatLong": "-33.0333,27.9167"
},
{
"Name": "East London",
"PostCode": "5688",
"LatLong": "-33.0333,27.9167"
},
{
"Name": "Eastern Cape",
"PostCode": "5740",
"LatLong": "-32.765,26.685"
},
{
"Name": "Eastern Cape",
"PostCode": "5900",
"LatLong": "-29.8389,26.2444"
},
{
"Name": "Edenburg",
"PostCode": "9908",
"LatLong": "-29.7333,25.9333"
},
{
"Name": "Edendale",
"PostCode": "3201",
"LatLong": "-29.65,30.2833"
},
{
"Name": "Edendale",
"PostCode": "3204",
"LatLong": "-29.6167,30.3833"
},
{
"Name": "Edendale",
"PostCode": "3217",
"LatLong": "-29.6167,30.3833"
},
{
"Name": "Edendale",
"PostCode": "3218",
"LatLong": "-29.65,30.2833"
},
{
"Name": "Edenvale",
"PostCode": "1609",
"LatLong": "-26.1333,28.1833"
},
{
"Name": "Edenvale",
"PostCode": "1611",
"LatLong": "-26.1333,28.1833"
},
{
"Name": "Edenvale",
"PostCode": "1612",
"LatLong": "-26.1333,28.1833"
},
{
"Name": "Edenvale",
"PostCode": "1613",
"LatLong": "-26.1333,28.1833"
},
{
"Name": "Edenvale",
"PostCode": "1614",
"LatLong": "-26.1333,28.1833"
},
{
"Name": "Edenvale",
"PostCode": "1645",
"LatLong": "-26.1333,28.1833"
},
{
"Name": "Edenville",
"PostCode": "9535",
"LatLong": "-29.2667,21.6333"
},
{
"Name": "Eerste River",
"PostCode": "7100",
"LatLong": "-34,18.7333"
},
{
"Name": "Eerste River",
"PostCode": "7101",
"LatLong": "-34,18.7333"
},
{
"Name": "Eerste River",
"PostCode": "7102",
"LatLong": "-34,18.7333"
},
{
"Name": "Eerste River",
"PostCode": "7105",
"LatLong": "-34,18.7333"
},
{
"Name": "Eerste Rivier",
"PostCode": "7100",
"LatLong": "-33.9778,18.6167"
},
{
"Name": "Eersterivier",
"PostCode": "7100",
"LatLong": "-34.0167,18.7"
},
{
"Name": "Eersterus",
"PostCode": "0022",
"LatLong": "-25.7236,28.3194"
},
{
"Name": "Ekangala",
"PostCode": "1021",
"LatLong": "-25.6944,28.7483"
},
{
"Name": "Elandsfontein",
"PostCode": "1429",
"LatLong": "-26.3833,27.8667"
},
{
"Name": "Elandskop",
"PostCode": "3226",
"LatLong": "-29.3167,29.7"
},
{
"Name": "Eldoradopark",
"PostCode": "1811",
"LatLong": "-26.3,27.9"
},
{
"Name": "Eldoradopark",
"PostCode": "1812",
"LatLong": "-26.3,27.9"
},
{
"Name": "Eldoradopark",
"PostCode": "1813",
"LatLong": "-26.3,27.9"
},
{
"Name": "Eldoradopark",
"PostCode": "1821",
"LatLong": "-26.3,27.9"
},
{
"Name": "Eldoradopark",
"PostCode": "1832",
"LatLong": "-26.3,27.9"
},
{
"Name": "Elliot",
"PostCode": "5460",
"LatLong": "-30.9167,26.6833"
},
{
"Name": "Elliotdale",
"PostCode": "5070",
"LatLong": "-31.9667,28.6833"
},
{
"Name": "Elliotdale",
"PostCode": "5072",
"LatLong": "-31.9667,28.6833"
},
{
"Name": "Elliotdale",
"PostCode": "5073",
"LatLong": "-31.9667,28.6833"
},
{
"Name": "Elliotdale",
"PostCode": "5075",
"LatLong": "-31.9667,28.6833"
},
{
"Name": "Elliotdale",
"PostCode": "5118",
"LatLong": "-31.9667,28.6833"
},
{
"Name": "Ellisras",
"PostCode": "0531",
"LatLong": "-23.6667,27.7333"
},
{
"Name": "Ellisras",
"PostCode": "0532",
"LatLong": "-23.6667,27.7333"
},
{
"Name": "Ellisras",
"PostCode": "0533",
"LatLong": "-23.6667,27.7333"
},
{
"Name": "Ellisras",
"PostCode": "0534",
"LatLong": "-23.6667,27.7333"
},
{
"Name": "Ellisras",
"PostCode": "0536",
"LatLong": "-23.6667,27.7333"
},
{
"Name": "Ellisras",
"PostCode": "0555",
"LatLong": "-23.6667,27.7333"
},
{
"Name": "Ellisras",
"PostCode": "0556",
"LatLong": "-23.6667,27.7333"
},
{
"Name": "Ellisras",
"PostCode": "0557",
"LatLong": "-23.6667,27.7333"
},
{
"Name": "Elsburg",
"PostCode": "1409",
"LatLong": "-26.2333,28.2"
},
{
"Name": "Elsburg",
"PostCode": "1428",
"LatLong": "-26.3,28.1333"
},
{
"Name": "Elsies River",
"PostCode": "7490",
"LatLong": "-33.9222,18.5222"
},
{
"Name": "Elsiesrivier",
"PostCode": "7490",
"LatLong": "-33.9167,18.5667"
},
{
"Name": "Elspark",
"PostCode": "7764",
"LatLong": "-33.9778,18.5167"
},
{
"Name": "Embalenhle",
"PostCode": "2285",
"LatLong": "-26.5333,29.0667"
},
{
"Name": "Emerald Hill",
"PostCode": "6011",
"LatLong": "-34,25.55"
},
{
"Name": "Emerald Hill",
"PostCode": "6070",
"LatLong": "-34,25.55"
},
{
"Name": "Emondlo",
"PostCode": "3101",
"LatLong": "-28.2533,29.9933"
},
{
"Name": "Empangeni",
"PostCode": "3875",
"LatLong": "-28.75,31.9"
},
{
"Name": "Empangeni",
"PostCode": "3879",
"LatLong": "-28.75,31.9"
},
{
"Name": "Empangeni",
"PostCode": "3880",
"LatLong": "-28.75,31.8999"
},
{
"Name": "Empangeni",
"PostCode": "3881",
"LatLong": "-28.75,31.9"
},
{
"Name": "Empangeni",
"PostCode": "3882",
"LatLong": "-28.75,31.9"
},
{
"Name": "Empangeni",
"PostCode": "3884",
"LatLong": "-28.75,31.9"
},
{
"Name": "Empangeni",
"PostCode": "3900",
"LatLong": "-28.7901,32.0971"
},
{
"Name": "Empangeni",
"PostCode": "3910",
"LatLong": "-28.75,31.9"
},
{
"Name": "Empangeni",
"PostCode": "3920",
"LatLong": "-28.75,31.9"
},
{
"Name": "Empangeni",
"PostCode": "3965",
"LatLong": "-28.75,31.9"
},
{
"Name": "Empangeni",
"PostCode": "3970",
"LatLong": "-27.5667,32.0833"
},
{
"Name": "Empumalanga",
"PostCode": "0458",
"LatLong": "-25.3167,31.1"
},
{
"Name": "Engcobo",
"PostCode": "5050",
"LatLong": "-31.6833,28"
},
{
"Name": "Engcobo",
"PostCode": "5051",
"LatLong": "-31.6667,28"
},
{
"Name": "Engcobo",
"PostCode": "5052",
"LatLong": "-31.6833,28"
},
{
"Name": "Engcobo",
"PostCode": "5054",
"LatLong": "-31.6833,28"
},
{
"Name": "Engcobo",
"PostCode": "5055",
"LatLong": "-31.6833,28"
},
{
"Name": "Engcobo",
"PostCode": "5056",
"LatLong": "-31.6833,28"
},
{
"Name": "Engcobo",
"PostCode": "5057",
"LatLong": "-31.6833,28"
},
{
"Name": "Engcobo",
"PostCode": "5058",
"LatLong": "-31.6833,28"
},
{
"Name": "Ennerdale",
"PostCode": "1824",
"LatLong": "-26.4167,27.8333"
},
{
"Name": "Ennerdale",
"PostCode": "1825",
"LatLong": "-26.4167,27.8333"
},
{
"Name": "Ennerdale",
"PostCode": "1830",
"LatLong": "-26.3167,27.8333"
},
{
"Name": "Ermelo",
"PostCode": "2330",
"LatLong": "-26.5333,29.9833"
},
{
"Name": "Ermelo",
"PostCode": "2332",
"LatLong": "-26.5333,29.9833"
},
{
"Name": "Ermelo",
"PostCode": "2333",
"LatLong": "-26.5333,29.9833"
},
{
"Name": "Ermelo",
"PostCode": "2334",
"LatLong": "-26.5333,29.9833"
},
{
"Name": "Ermelo",
"PostCode": "2336",
"LatLong": "-26.5333,29.9833"
},
{
"Name": "Ermelo",
"PostCode": "2337",
"LatLong": "-26.5333,29.9833"
},
{
"Name": "Ermelo",
"PostCode": "2339",
"LatLong": "-26.5333,29.9833"
},
{
"Name": "Ermelo",
"PostCode": "2340",
"LatLong": "-26.5333,29.9833"
},
{
"Name": "Ermelo",
"PostCode": "2341",
"LatLong": "-26.5333,29.9833"
},
{
"Name": "Ermelo",
"PostCode": "2351",
"LatLong": "-26.5333,29.9833"
},
{
"Name": "Ermelo",
"PostCode": "2352",
"LatLong": "-26.5333,29.9833"
},
{
"Name": "Ermelo",
"PostCode": "2353",
"LatLong": "-26.5333,29.9833"
},
{
"Name": "Ermelo",
"PostCode": "2355",
"LatLong": "-26.5333,29.9833"
},
{
"Name": "Ermelo",
"PostCode": "2356",
"LatLong": "-26.5333,29.9833"
},
{
"Name": "Ermelo",
"PostCode": "2357",
"LatLong": "-26.5333,29.9833"
},
{
"Name": "Ermelo",
"PostCode": "2370",
"LatLong": "-26.5333,29.9833"
},
{
"Name": "Eshowe",
"PostCode": "3814",
"LatLong": "-28.8833,31.4667"
},
{
"Name": "Eshowe",
"PostCode": "3815",
"LatLong": "-28.8833,31.4667"
},
{
"Name": "Eshowe",
"PostCode": "3816",
"LatLong": "-28.8833,31.4667"
},
{
"Name": "Eshowe",
"PostCode": "3817",
"LatLong": "-28.8833,31.4667"
},
{
"Name": "Eshowe",
"PostCode": "3820",
"LatLong": "-28.8833,31.4667"
},
{
"Name": "Eshowe",
"PostCode": "3830",
"LatLong": "-28.8833,31.4667"
},
{
"Name": "Eshowe",
"PostCode": "3850",
"LatLong": "-28.5833,31.3833"
},
{
"Name": "Esikhawini",
"PostCode": "3887",
"LatLong": "-28.8833,31.9"
},
{
"Name": "Estadeal",
"PostCode": "6012",
"LatLong": "-33.9667,25.5833"
},
{
"Name": "Estcourt",
"PostCode": "3280",
"LatLong": "-29,29.8833"
},
{
"Name": "Estcourt",
"PostCode": "3300",
"LatLong": "-29.2,29.9833"
},
{
"Name": "Estcourt",
"PostCode": "3301",
"LatLong": "-29,29.8833"
},
{
"Name": "Estcourt",
"PostCode": "3310",
"LatLong": "-29,29.8833"
},
{
"Name": "Estcourt",
"PostCode": "3312",
"LatLong": "-29,29.8833"
},
{
"Name": "Estcourt",
"PostCode": "3313",
"LatLong": "-29,29.8833"
},
{
"Name": "Estcourt",
"PostCode": "3325",
"LatLong": "-29,29.8833"
},
{
"Name": "Estcourt",
"PostCode": "3330",
"LatLong": "-29,29.8833"
},
{
"Name": "Ethwathwa West Uit 2",
"PostCode": "1519",
"LatLong": "-26.15,28.4167"
},
{
"Name": "Evander",
"PostCode": "2260",
"LatLong": "-26.35,28.7667"
},
{
"Name": "Evander",
"PostCode": "2266",
"LatLong": "-26.45,29.1167"
},
{
"Name": "Evander",
"PostCode": "2270",
"LatLong": "-26.45,29.1167"
},
{
"Name": "Evander",
"PostCode": "2284",
"LatLong": "-26.45,29.1167"
},
{
"Name": "Evander",
"PostCode": "2285",
"LatLong": "-26.45,29.1167"
},
{
"Name": "Excelsior",
"PostCode": "9760",
"LatLong": "-25.8333,30.5167"
},
{
"Name": "Ezakheni",
"PostCode": "3381",
"LatLong": "-28.55,29.7833"
},
{
"Name": "Faerie Glen",
"PostCode": "0043",
"LatLong": "-30.85,30.3333"
},
{
"Name": "Faerie Glen",
"PostCode": "0081",
"LatLong": "-25.7069,28.2294"
},
{
"Name": "Fauresmith",
"PostCode": "9978",
"LatLong": "-29.75,25.3167"
},
{
"Name": "Ficksburg",
"PostCode": "9730",
"LatLong": "-28.8833,27.8833"
},
{
"Name": "Ficksburg",
"PostCode": "9732",
"LatLong": "-28.8833,27.8833"
},
{
"Name": "Firgrove",
"PostCode": "7130",
"LatLong": "-34.075,18.8083"
},
{
"Name": "Fish Hoek",
"PostCode": "7975",
"LatLong": "-34.0056,18.4222"
},
{
"Name": "Fish Hoek",
"PostCode": "7976",
"LatLong": "-33.9833,18.4208"
},
{
"Name": "Fish Hoek",
"PostCode": "7977",
"LatLong": "-33.9833,18.4208"
},
{
"Name": "Fish Hoek",
"PostCode": "7978",
"LatLong": "-33.9833,18.4208"
},
{
"Name": "Fish Hoek",
"PostCode": "7979",
"LatLong": "-33.9833,18.4208"
},
{
"Name": "Fish Hoek",
"PostCode": "7985",
"LatLong": "-33.823,19.2508"
},
{
"Name": "Fish Hoek",
"PostCode": "7990",
"LatLong": "-34.1333,18.4333"
},
{
"Name": "Fish Hoek",
"PostCode": "7995",
"LatLong": "-34.1833,18.4333"
},
{
"Name": "Fishhoek",
"PostCode": "7975",
"LatLong": "-34.0056,18.4222"
},
{
"Name": "Flagstaff",
"PostCode": "4810",
"LatLong": "-31.0833,29.4833"
},
{
"Name": "Flagstaff",
"PostCode": "4811",
"LatLong": "-31.0833,29.4833"
},
{
"Name": "Flagstaff",
"PostCode": "4812",
"LatLong": "-31.0833,29.4833"
},
{
"Name": "Flagstaff",
"PostCode": "4813",
"LatLong": "-31.0833,29.4833"
},
{
"Name": "Flagstaff",
"PostCode": "4814",
"LatLong": "-31.0833,29.4833"
},
{
"Name": "Flagstaff",
"PostCode": "4821",
"LatLong": "-31.0833,29.4833"
},
{
"Name": "Florida",
"PostCode": "1700",
"LatLong": "-26.1667,27.9167"
},
{
"Name": "Florida",
"PostCode": "1701",
"LatLong": "-29.9333,26.15"
},
{
"Name": "Florida",
"PostCode": "1708",
"LatLong": "-26.1667,27.9167"
},
{
"Name": "Florida",
"PostCode": "1709",
"LatLong": "-29.9333,26.15"
},
{
"Name": "Florida",
"PostCode": "1711",
"LatLong": "-26.1667,27.9167"
},
{
"Name": "Florida",
"PostCode": "1712",
"LatLong": "-26.1667,27.9167"
},
{
"Name": "Florida",
"PostCode": "1715",
"LatLong": "-26.1667,27.9167"
},
{
"Name": "Florida",
"PostCode": "1716",
"LatLong": "-26.1667,27.9167"
},
{
"Name": "Florida",
"PostCode": "1724",
"LatLong": "-26.1667,27.9167"
},
{
"Name": "Florida",
"PostCode": "2114",
"LatLong": "-26.2,28.0833"
},
{
"Name": "Fochville",
"PostCode": "2515",
"LatLong": "-26.4833,27.5"
},
{
"Name": "Fort Beaufort",
"PostCode": "5720",
"LatLong": "-32.7833,26.6333"
},
{
"Name": "Fort Beaufort",
"PostCode": "5730",
"LatLong": "-32.7833,26.6333"
},
{
"Name": "Four Ways",
"PostCode": "2055",
"LatLong": "-26.0333,27.9833"
},
{
"Name": "Four Ways",
"PostCode": "2191",
"LatLong": "-26.1,28.0556"
},
{
"Name": "Fouriesburg",
"PostCode": "9725",
"LatLong": "-28.5833,28.1333"
},
{
"Name": "Frankfort",
"PostCode": "9830",
"LatLong": "-27.2833,28.5"
},
{
"Name": "Franschhoek",
"PostCode": "7690",
"LatLong": "-33.9166,19.1166"
},
{
"Name": "Franschhoek",
"PostCode": "7691",
"LatLong": "-33.9167,19.1167"
},
{
"Name": "Fraserburg",
"PostCode": "6960",
"LatLong": "-31.9167,21.5167"
},
{
"Name": "Free State",
"PostCode": "9430",
"LatLong": "-28.1167,26.9"
},
{
"Name": "Free State",
"PostCode": "9431",
"LatLong": "-28.1167,26.9"
},
{
"Name": "Free State",
"PostCode": "9535",
"LatLong": "-29.2667,21.6333"
},
{
"Name": "Free State",
"PostCode": "9958",
"LatLong": "-30.4167,26.8333"
},
{
"Name": "Gakgapane",
"PostCode": "0838",
"LatLong": "-23.3167,30.7167"
},
{
"Name": "Gakgapane",
"PostCode": "0847",
"LatLong": "-23.3167,30.7167"
},
{
"Name": "Gakgapane",
"PostCode": "0862",
"LatLong": "-23.8333,30.1667"
},
{
"Name": "Gakgapane",
"PostCode": "0897",
"LatLong": "-24.0722,30.4"
},
{
"Name": "Galeshewe",
"PostCode": "8330",
"LatLong": "-27.9796,25.1093"
},
{
"Name": "Ga-Maraba",
"PostCode": "0705",
"LatLong": "-23.7167,29.3167"
},
{
"Name": "Gambleville",
"PostCode": "6241",
"LatLong": "-33.7839,25.3974"
},
{
"Name": "Gans Bay",
"PostCode": "7220",
"LatLong": "-34.5833,19.35"
},
{
"Name": "Gans Bay",
"PostCode": "7221",
"LatLong": "-34.5833,19.35"
},
{
"Name": "Gans Bay",
"PostCode": "7271",
"LatLong": "-34.5833,19.35"
},
{
"Name": "Ganyesa",
"PostCode": "8582",
"LatLong": "-26.6,24.1833"
},
{
"Name": "Ganyesa",
"PostCode": "8587",
"LatLong": "-26.6,24.1833"
},
{
"Name": "Ganyesa",
"PostCode": "8604",
"LatLong": "-26.6,24.1833"
},
{
"Name": "Ganyesa",
"PostCode": "8623",
"LatLong": "-26.6,24.1833"
},
{
"Name": "Ga-Rankuwa",
"PostCode": "0208",
"LatLong": "-25.5883,28.0078"
},
{
"Name": "Garapulana",
"PostCode": "9775",
"LatLong": "-29.3154,27.4386"
},
{
"Name": "Ga-Rapulana",
"PostCode": "9775",
"LatLong": "-29.3154,27.4386"
},
{
"Name": "Ga-Rapulana",
"PostCode": "9780",
"LatLong": "-29.6583,26.9854"
},
{
"Name": "Ga-Rapulana",
"PostCode": "9783",
"LatLong": "-29.2083,26.825"
},
{
"Name": "Garies",
"PostCode": "8221",
"LatLong": "-30.55,17.9833"
},
{
"Name": "Garies",
"PostCode": "8223",
"LatLong": "-30.55,17.9833"
},
{
"Name": "Garsfontein",
"PostCode": "0042",
"LatLong": "-25.8008,28.2956"
},
{
"Name": "Garsfontein",
"PostCode": "0081",
"LatLong": "-25.7069,28.2294"
},
{
"Name": "Gasehunelo",
"PostCode": "9323",
"LatLong": "-28.0833,24.8917"
},
{
"Name": "Ga-Sehunelo",
"PostCode": "9323",
"LatLong": "-27.0333,23.5833"
},
{
"Name": "Gatesville",
"PostCode": "7762",
"LatLong": "-33.9625,18.4917"
},
{
"Name": "Gatesville",
"PostCode": "7763",
"LatLong": "-33.9625,18.4917"
},
{
"Name": "Gatesville",
"PostCode": "7764",
"LatLong": "-33.9778,18.5167"
},
{
"Name": "Gatesville",
"PostCode": "7767",
"LatLong": "-33.9625,18.4917"
},
{
"Name": "Gatesville",
"PostCode": "7769",
"LatLong": "-33.9625,18.4917"
},
{
"Name": "Gatesville",
"PostCode": "7780",
"LatLong": "-33.9722,18.4667"
},
{
"Name": "Gauteng",
"PostCode": "1438",
"LatLong": "-26.3583,28.2667"
},
{
"Name": "Gauteng",
"PostCode": "1441",
"LatLong": "-26.5,28.35"
},
{
"Name": "Gauteng",
"PostCode": "1609",
"LatLong": "-26.1083,28.175"
},
{
"Name": "Gauteng",
"PostCode": "1610",
"LatLong": "-26.1222,28.2056"
},
{
"Name": "Gauteng",
"PostCode": "1820",
"LatLong": "-26.3567,27.8333"
},
{
"Name": "Gauteng",
"PostCode": "1827",
"LatLong": "-26.3567,27.8333"
},
{
"Name": "Geduldpan",
"PostCode": "9468",
"LatLong": "-27.9833,26.7333"
},
{
"Name": "Gelvandale",
"PostCode": "6020",
"LatLong": "-33.9167,25.55"
},
{
"Name": "George",
"PostCode": "6529",
"LatLong": "-33.9667,22.45"
},
{
"Name": "George",
"PostCode": "6531",
"LatLong": "-33.9666,22.4499"
},
{
"Name": "George",
"PostCode": "6534",
"LatLong": "-33.9667,22.45"
},
{
"Name": "George",
"PostCode": "6535",
"LatLong": "-33.9667,22.45"
},
{
"Name": "George",
"PostCode": "6536",
"LatLong": "-33.9666,22.4499"
},
{
"Name": "George",
"PostCode": "6537",
"LatLong": "-33.9667,22.45"
},
{
"Name": "George",
"PostCode": "6538",
"LatLong": "-33.9667,22.45"
},
{
"Name": "George",
"PostCode": "6539",
"LatLong": "-33.9667,22.45"
},
{
"Name": "George",
"PostCode": "6541",
"LatLong": "-33.9667,22.45"
},
{
"Name": "George",
"PostCode": "6544",
"LatLong": "-33.9667,22.45"
},
{
"Name": "George",
"PostCode": "6560",
"LatLong": "-33.9667,22.45"
},
{
"Name": "George",
"PostCode": "6615",
"LatLong": "-33.9667,22.45"
},
{
"Name": "George East",
"PostCode": "6529",
"LatLong": "-33.8167,25.65"
},
{
"Name": "Germiston",
"PostCode": "1401",
"LatLong": "-26.2167,28.1833"
},
{
"Name": "Germiston",
"PostCode": "1402",
"LatLong": "-26.2167,28.1833"
},
{
"Name": "Germiston",
"PostCode": "1403",
"LatLong": "-26.2167,28.1833"
},
{
"Name": "Germiston",
"PostCode": "1404",
"LatLong": "-26.2167,28.1833"
},
{
"Name": "Germiston",
"PostCode": "1405",
"LatLong": "-26.2167,28.1833"
},
{
"Name": "Germiston",
"PostCode": "1407",
"LatLong": "-26.2167,28.1833"
},
{
"Name": "Germiston",
"PostCode": "1408",
"LatLong": "-26.2167,28.1833"
},
{
"Name": "Germiston",
"PostCode": "1410",
"LatLong": "-26.2167,28.1833"
},
{
"Name": "Germiston",
"PostCode": "1411",
"LatLong": "-26.2167,28.1833"
},
{
"Name": "Germiston",
"PostCode": "1412",
"LatLong": "-26.2167,28.1833"
},
{
"Name": "Germiston",
"PostCode": "1413",
"LatLong": "-26.2167,28.1833"
},
{
"Name": "Germiston",
"PostCode": "1414",
"LatLong": "-26.2167,28.1833"
},
{
"Name": "Germiston",
"PostCode": "1415",
"LatLong": "-26.2167,28.1833"
},
{
"Name": "Germiston",
"PostCode": "1416",
"LatLong": "-26.2167,28.1833"
},
{
"Name": "Germiston",
"PostCode": "1417",
"LatLong": "-26.2167,28.1833"
},
{
"Name": "Germiston",
"PostCode": "1418",
"LatLong": "-26.2167,28.1833"
},
{
"Name": "Germiston",
"PostCode": "1419",
"LatLong": "-26.2167,28.1833"
},
{
"Name": "Germiston",
"PostCode": "1420",
"LatLong": "-26.2167,28.1833"
},
{
"Name": "Germiston",
"PostCode": "1422",
"LatLong": "-26.2167,28.1833"
},
{
"Name": "Germiston",
"PostCode": "1423",
"LatLong": "-26.2167,28.1833"
},
{
"Name": "Germiston",
"PostCode": "1424",
"LatLong": "-26.2167,28.1833"
},
{
"Name": "Germiston",
"PostCode": "1428",
"LatLong": "-26.3,28.1333"
},
{
"Name": "Germiston",
"PostCode": "1429",
"LatLong": "-26.2167,28.1833"
},
{
"Name": "Germiston",
"PostCode": "1430",
"LatLong": "-26.2167,28.1833"
},
{
"Name": "Germiston",
"PostCode": "1434",
"LatLong": "-26.2167,28.1833"
},
{
"Name": "Germiston",
"PostCode": "1497",
"LatLong": "-26.2167,28.1833"
},
{
"Name": "Gillitts",
"PostCode": "3610",
"LatLong": "-29.8,30.8"
},
{
"Name": "Gingindlovu",
"PostCode": "3800",
"LatLong": "-29.0167,31.5833"
},
{
"Name": "Gingindlovu",
"PostCode": "3803",
"LatLong": "-29.0167,31.5833"
},
{
"Name": "Gingindlovu",
"PostCode": "3804",
"LatLong": "-29.0167,31.5833"
},
{
"Name": "Gingindlovu",
"PostCode": "3806",
"LatLong": "-29.0167,31.5833"
},
{
"Name": "Gingindlovu",
"PostCode": "3818",
"LatLong": "-29.0167,31.5833"
},
{
"Name": "Giyani",
"PostCode": "0826",
"LatLong": "-23.3167,30.7167"
},
{
"Name": "Giyani",
"PostCode": "0827",
"LatLong": "-23.3167,30.7167"
},
{
"Name": "Giyani",
"PostCode": "0829",
"LatLong": "-23.3167,30.7167"
},
{
"Name": "Giyani",
"PostCode": "0832",
"LatLong": "-23.3167,30.7167"
},
{
"Name": "Giyani",
"PostCode": "0834",
"LatLong": "-23.3167,30.7167"
},
{
"Name": "Giyani",
"PostCode": "0839",
"LatLong": "-23.3167,30.7167"
},
{
"Name": "Giyani",
"PostCode": "0840",
"LatLong": "-23.3167,30.7167"
},
{
"Name": "Giyani",
"PostCode": "0841",
"LatLong": "-23.3167,30.7167"
},
{
"Name": "Giyani",
"PostCode": "0842",
"LatLong": "-23.3167,30.7167"
},
{
"Name": "Giyani",
"PostCode": "0843",
"LatLong": "-23.3167,30.7167"
},
{
"Name": "Giyani",
"PostCode": "0844",
"LatLong": "-23.3167,30.7167"
},
{
"Name": "Giyani",
"PostCode": "0846",
"LatLong": "-23.3167,30.7167"
},
{
"Name": "Giyani",
"PostCode": "0858",
"LatLong": "-23.3167,30.7167"
},
{
"Name": "Giyani",
"PostCode": "0915",
"LatLong": "-23.3167,30.7167"
},
{
"Name": "Giyani",
"PostCode": "0930",
"LatLong": "-23.3167,30.7167"
},
{
"Name": "Giyani",
"PostCode": "0931",
"LatLong": "-23.3167,30.7167"
},
{
"Name": "Giyani",
"PostCode": "0932",
"LatLong": "-23.3167,30.7167"
},
{
"Name": "Giyani",
"PostCode": "0933",
"LatLong": "-23.3167,30.7167"
},
{
"Name": "Giyani",
"PostCode": "0941",
"LatLong": "-23.3167,30.7167"
},
{
"Name": "Giyani",
"PostCode": "0944",
"LatLong": "-23.3167,30.7167"
},
{
"Name": "Giyani",
"PostCode": "0983",
"LatLong": "-23.3167,30.7167"
},
{
"Name": "Giyani",
"PostCode": "0984",
"LatLong": "-23.3167,30.7167"
},
{
"Name": "Giyani",
"PostCode": "0985",
"LatLong": "-23.3167,30.7167"
},
{
"Name": "Giyani",
"PostCode": "0986",
"LatLong": "-23.3167,30.7167"
},
{
"Name": "Giyani",
"PostCode": "0987",
"LatLong": "-23.3167,30.7167"
},
{
"Name": "Glencoe",
"PostCode": "2930",
"LatLong": "-28.1833,30.15"
},
{
"Name": "Glenstantia",
"PostCode": "0010",
"LatLong": "-25.7069,28.2294"
},
{
"Name": "Glenstantia",
"PostCode": "0181",
"LatLong": "-25.7425,28.2326"
},
{
"Name": "Gonubie",
"PostCode": "5257",
"LatLong": "-32.9333,28.0167"
},
{
"Name": "Gonubie",
"PostCode": "5258",
"LatLong": "-32.9333,28.0167"
},
{
"Name": "Goodwood",
"PostCode": "7460",
"LatLong": "-33.9,18.55"
},
{
"Name": "Goodwood",
"PostCode": "7463",
"LatLong": "-26.45,24.1833"
},
{
"Name": "Goodwood",
"PostCode": "7475",
"LatLong": "-26.45,24.1833"
},
{
"Name": "Goodwood",
"PostCode": "7485",
"LatLong": "-26.45,24.1833"
},
{
"Name": "Gordon'S Bay",
"PostCode": "7140",
"LatLong": "-34.1667,18.8667"
},
{
"Name": "Graaff-Reinet",
"PostCode": "6280",
"LatLong": "-32.25,24.55"
},
{
"Name": "Graaff-Reinet",
"PostCode": "6281",
"LatLong": "-32.25,24.55"
},
{
"Name": "Graaff-Reinet",
"PostCode": "6286",
"LatLong": "-32.25,24.55"
},
{
"Name": "Graafwater",
"PostCode": "8121",
"LatLong": "-32.15,18.6"
},
{
"Name": "Graafwater",
"PostCode": "8122",
"LatLong": "-32.15,18.6"
},
{
"Name": "Grabouw",
"PostCode": "7160",
"LatLong": "-34.15,19.0167"
},
{
"Name": "Grabouw",
"PostCode": "7171",
"LatLong": "-34.15,19.0167"
},
{
"Name": "Grabouw",
"PostCode": "7180",
"LatLong": "-34.15,19.0167"
},
{
"Name": "Grahamstad",
"PostCode": "5805",
"LatLong": "-33.3,26.5333"
},
{
"Name": "Grahamstad",
"PostCode": "6139",
"LatLong": "-33.3,26.5333"
},
{
"Name": "Grahamstad",
"PostCode": "6141",
"LatLong": "-33.3,26.5333"
},
{
"Name": "Grahamstown",
"PostCode": "5805",
"LatLong": "-33.3,26.5333"
},
{
"Name": "Grahamstown",
"PostCode": "6139",
"LatLong": "-33.3,26.5333"
},
{
"Name": "Grahamstown",
"PostCode": "6140",
"LatLong": "-33.3,26.5333"
},
{
"Name": "Grahamstown",
"PostCode": "6141",
"LatLong": "-33.3,26.5333"
},
{
"Name": "Grahamstown",
"PostCode": "6142",
"LatLong": "-33.3,26.5333"
},
{
"Name": "Grahamstown",
"PostCode": "6143",
"LatLong": "-33.3,26.5333"
},
{
"Name": "Grahamstown",
"PostCode": "6145",
"LatLong": "-33.3,26.5333"
},
{
"Name": "Grahamstown",
"PostCode": "6146",
"LatLong": "-33.3,26.5333"
},
{
"Name": "Grahamstown",
"PostCode": "6150",
"LatLong": "-33.3,26.5333"
},
{
"Name": "Graskop",
"PostCode": "1270",
"LatLong": "-24.9333,30.8333"
},
{
"Name": "Graskop",
"PostCode": "1271",
"LatLong": "-24.9333,30.8333"
},
{
"Name": "Graskop",
"PostCode": "1273",
"LatLong": "-24.9333,30.8333"
},
{
"Name": "Graskop",
"PostCode": "1274",
"LatLong": "-24.9333,30.8333"
},
{
"Name": "Grassy Park",
"PostCode": "7805",
"LatLong": "-34.05,18.4833"
},
{
"Name": "Grassy Park",
"PostCode": "7941",
"LatLong": "-34.05,18.4833"
},
{
"Name": "Great Brak River",
"PostCode": "6525",
"LatLong": "-34.0333,22.2167"
},
{
"Name": "Great Brak River",
"PostCode": "6526",
"LatLong": "-34.0333,22.2167"
},
{
"Name": "Greytown",
"PostCode": "3233",
"LatLong": "-29.4333,30.5833"
},
{
"Name": "Greytown",
"PostCode": "3236",
"LatLong": "-29.0667,30.5833"
},
{
"Name": "Greytown",
"PostCode": "3249",
"LatLong": "-29.0667,30.5833"
},
{
"Name": "Greytown",
"PostCode": "3250",
"LatLong": "-29.0667,30.5833"
},
{
"Name": "Greytown",
"PostCode": "3251",
"LatLong": "-29.0667,30.5833"
},
{
"Name": "Greytown",
"PostCode": "3258",
"LatLong": "-29.0667,30.5833"
},
{
"Name": "Greytown",
"PostCode": "3262",
"LatLong": "-29.0667,30.5833"
},
{
"Name": "Greytown",
"PostCode": "3268",
"LatLong": "-29.0667,30.5833"
},
{
"Name": "Greytown",
"PostCode": "3500",
"LatLong": "-29.0667,30.5833"
},
{
"Name": "Griquatown",
"PostCode": "8365",
"LatLong": "-28.85,23.25"
},
{
"Name": "Groblersdal",
"PostCode": "0470",
"LatLong": "-25.15,29.3833"
},
{
"Name": "Groblersdal",
"PostCode": "0473",
"LatLong": "-25.15,29.3833"
},
{
"Name": "Groblersdal",
"PostCode": "0474",
"LatLong": "-25.15,29.3833"
},
{
"Name": "Groblersdal",
"PostCode": "0477",
"LatLong": "-25.1167,29.05"
},
{
"Name": "Groblersdal",
"PostCode": "0485",
"LatLong": "-25.15,29.3833"
},
{
"Name": "Groblersdal",
"PostCode": "0490",
"LatLong": "-25.15,29.3833"
},
{
"Name": "Groblersdal",
"PostCode": "0491",
"LatLong": "-25.15,29.3833"
},
{
"Name": "Groblersdal",
"PostCode": "1030",
"LatLong": "-25.15,29.3833"
},
{
"Name": "Groblersdal",
"PostCode": "1060",
"LatLong": "-25.15,29.3833"
},
{
"Name": "Groblersdal",
"PostCode": "1061",
"LatLong": "-25.15,29.3833"
},
{
"Name": "Groblersdal",
"PostCode": "1064",
"LatLong": "-25.15,29.3833"
},
{
"Name": "Groblershoop",
"PostCode": "8826",
"LatLong": "-28.8833,21.9833"
},
{
"Name": "Groblershoop",
"PostCode": "8851",
"LatLong": "-28.8833,21.9833"
},
{
"Name": "Groblershoop",
"PostCode": "8943",
"LatLong": "-28.8833,21.9833"
},
{
"Name": "Groot-Brakrivier",
"PostCode": "6525",
"LatLong": "-34.0333,22.2167"
},
{
"Name": "Grootdrink",
"PostCode": "8822",
"LatLong": "-26.4833,22.2333"
},
{
"Name": "Gugulethu",
"PostCode": "7750",
"LatLong": "-33.9833,18.575"
},
{
"Name": "Guguletu",
"PostCode": "7750",
"LatLong": "-33.9833,18.5667"
},
{
"Name": "Guguletu",
"PostCode": "7752",
"LatLong": "-33.9833,18.5667"
},
{
"Name": "Guguletu",
"PostCode": "7756",
"LatLong": "-33.9833,18.5667"
},
{
"Name": "Hackney",
"PostCode": "6351",
"LatLong": "-32.3167,26.6333"
},
{
"Name": "Halfway House",
"PostCode": "1684",
"LatLong": "-25.9833,28.1167"
},
{
"Name": "Halfway House",
"PostCode": "1685",
"LatLong": "-25.9833,28.1167"
},
{
"Name": "Halfway House",
"PostCode": "1686",
"LatLong": "-25.9833,28.1167"
},
{
"Name": "Halfway House",
"PostCode": "1687",
"LatLong": "-25.9833,28.1167"
},
{
"Name": "Halfway House",
"PostCode": "1689",
"LatLong": "-25.9833,28.1167"
},
{
"Name": "Halfway House",
"PostCode": "1692",
"LatLong": "-25.9833,28.1167"
},
{
"Name": "Halfway House",
"PostCode": "1693",
"LatLong": "-25.9833,28.1167"
},
{
"Name": "Hambanathi Heights",
"PostCode": "4399",
"LatLong": "-29.114,30.6772"
},
{
"Name": "Hambanathi Heights",
"PostCode": "4400",
"LatLong": "-29.5833,31.1333"
},
{
"Name": "Hammanskraal",
"PostCode": "0400",
"LatLong": "-25.4075,28.2856"
},
{
"Name": "Hammanskraal",
"PostCode": "0402",
"LatLong": "-25.4075,28.2856"
},
{
"Name": "Hammanskraal",
"PostCode": "0404",
"LatLong": "-25.4075,28.2856"
},
{
"Name": "Hammanskraal",
"PostCode": "0407",
"LatLong": "-25.4075,28.2856"
},
{
"Name": "Hammanskraal",
"PostCode": "0413",
"LatLong": "-25.4075,28.2856"
},
{
"Name": "Hammanskraal",
"PostCode": "0414",
"LatLong": "-25.4075,28.2856"
},
{
"Name": "Hammanskraal",
"PostCode": "0417",
"LatLong": "-25.4075,28.2856"
},
{
"Name": "Hammanskraal",
"PostCode": "0426",
"LatLong": "-25.4075,28.2856"
},
{
"Name": "Hammanskraal",
"PostCode": "0427",
"LatLong": "-25.4075,28.2856"
},
{
"Name": "Hammanskraal",
"PostCode": "0429",
"LatLong": "-25.4075,28.2856"
},
{
"Name": "Hammanskraal",
"PostCode": "0431",
"LatLong": "-25.4075,28.2856"
},
{
"Name": "Hammanskraal",
"PostCode": "0432",
"LatLong": "-25.4075,28.2856"
},
{
"Name": "Hammanskraal",
"PostCode": "0434",
"LatLong": "-25.4075,28.2856"
},
{
"Name": "Hammanskraal",
"PostCode": "0435",
"LatLong": "-25.4075,28.2856"
},
{
"Name": "Hammarsdale",
"PostCode": "3670",
"LatLong": "-29.8,30.65"
},
{
"Name": "Hammarsdale",
"PostCode": "3680",
"LatLong": "-29.8,30.65"
},
{
"Name": "Hammarsdale",
"PostCode": "3690",
"LatLong": "-29.8,30.65"
},
{
"Name": "Hammarsdale",
"PostCode": "3699",
"LatLong": "-29.8,30.65"
},
{
"Name": "Hammarsdale",
"PostCode": "3700",
"LatLong": "-29.8,30.65"
},
{
"Name": "Hammarsdale",
"PostCode": "3701",
"LatLong": "-29.8,30.65"
},
{
"Name": "Hammarsdale",
"PostCode": "3705",
"LatLong": "-29.8,30.65"
},
{
"Name": "Hammarsdale",
"PostCode": "3710",
"LatLong": "-29.8,30.65"
},
{
"Name": "Hammarsdale",
"PostCode": "3720",
"LatLong": "-29.8,30.65"
},
{
"Name": "Hammarsdale",
"PostCode": "3730",
"LatLong": "-29.8,30.65"
},
{
"Name": "Hankey",
"PostCode": "6350",
"LatLong": "-33.8333,24.8833"
},
{
"Name": "Hanover",
"PostCode": "7005",
"LatLong": "-31.0667,24.45"
},
{
"Name": "Harding",
"PostCode": "4643",
"LatLong": "-30.5833,29.8833"
},
{
"Name": "Harding",
"PostCode": "4680",
"LatLong": "-30.5833,29.8833"
},
{
"Name": "Harding",
"PostCode": "4681",
"LatLong": "-30.5833,29.8833"
},
{
"Name": "Harding",
"PostCode": "4683",
"LatLong": "-30.5833,29.8833"
},
{
"Name": "Harding",
"PostCode": "4684",
"LatLong": "-30.5833,29.8833"
},
{
"Name": "Harding",
"PostCode": "4687",
"LatLong": "-30.5833,29.8833"
},
{
"Name": "Harding",
"PostCode": "4688",
"LatLong": "-30.5833,29.8833"
},
{
"Name": "Harding",
"PostCode": "4689",
"LatLong": "-30.5833,29.8833"
},
{
"Name": "Harrismith",
"PostCode": "3372",
"LatLong": "-28.2833,29.1333"
},
{
"Name": "Harrismith",
"PostCode": "9880",
"LatLong": "-28.2833,29.1333"
},
{
"Name": "Harrismith",
"PostCode": "9882",
"LatLong": "-28.2833,29.1333"
},
{
"Name": "Harrismith",
"PostCode": "9883",
"LatLong": "-28.2833,29.1333"
},
{
"Name": "Harrismith",
"PostCode": "9885",
"LatLong": "-28.2833,29.1333"
},
{
"Name": "Hartbeesfontein",
"PostCode": "2600",
"LatLong": "-26.7667,26.4167"
},
{
"Name": "Hartbeespoort",
"PostCode": "0216",
"LatLong": "-25.7333,27.85"
},
{
"Name": "Hartenbos",
"PostCode": "6520",
"LatLong": "-34.1167,22.1167"
},
{
"Name": "Hartswater",
"PostCode": "8570",
"LatLong": "-27.7667,24.8167"
},
{
"Name": "Hatfield",
"PostCode": "0083",
"LatLong": "-25.7467,28.2231"
},
{
"Name": "Hazyview",
"PostCode": "1240",
"LatLong": "-25.3167,31.0167"
},
{
"Name": "Hazyview",
"PostCode": "1246",
"LatLong": "-25.0333,31.1167"
},
{
"Name": "Hazyview",
"PostCode": "1253",
"LatLong": "-25.0333,31.1167"
},
{
"Name": "Heathfield",
"PostCode": "7945",
"LatLong": "-34.05,18.4667"
},
{
"Name": "Heidelberg",
"PostCode": "1439",
"LatLong": "-26.5,28.35"
},
{
"Name": "Heidelberg",
"PostCode": "1440",
"LatLong": "-26.5,28.35"
},
{
"Name": "Heidelberg",
"PostCode": "1441",
"LatLong": "-26.5,28.35"
},
{
"Name": "Heidelberg",
"PostCode": "1442",
"LatLong": "-26.5,28.35"
},
{
"Name": "Heidelberg",
"PostCode": "1443",
"LatLong": "-26.5,28.35"
},
{
"Name": "Heidelberg",
"PostCode": "1444",
"LatLong": "-26.5,28.35"
},
{
"Name": "Heidelberg Wc",
"PostCode": "6665",
"LatLong": "-33.5333,21.6833"
},
{
"Name": "Heidelberg Wc",
"PostCode": "6666",
"LatLong": "-33.5333,21.6833"
},
{
"Name": "Heidelberg Wc",
"PostCode": "6667",
"LatLong": "-33.5333,21.6833"
},
{
"Name": "Heilbron",
"PostCode": "9650",
"LatLong": "-27.2833,27.9667"
},
{
"Name": "Hendrina",
"PostCode": "1098",
"LatLong": "-26.15,29.7167"
},
{
"Name": "Hercules",
"PostCode": "0068",
"LatLong": "-25.7167,28.1833"
},
{
"Name": "Hercules",
"PostCode": "0082",
"LatLong": "-25.7167,28.1833"
},
{
"Name": "Hermanus",
"PostCode": "7200",
"LatLong": "-34.4166,19.2333"
},
{
"Name": "Hermanus",
"PostCode": "7201",
"LatLong": "-34.4167,19.2333"
},
{
"Name": "Hermanus",
"PostCode": "7202",
"LatLong": "-34.4167,19.2333"
},
{
"Name": "Hermanus",
"PostCode": "7210",
"LatLong": "-34.4167,19.2333"
},
{
"Name": "Herschel",
"PostCode": "9756",
"LatLong": "-30.6167,27.1667"
},
{
"Name": "Hertzogville",
"PostCode": "9482",
"LatLong": "-28.1333,25.5"
},
{
"Name": "Hibberdene",
"PostCode": "4200",
"LatLong": "-30.3167,30.6667"
},
{
"Name": "Hibberdene",
"PostCode": "4220",
"LatLong": "-30.5833,30.5833"
},
{
"Name": "Hibberdene",
"PostCode": "4221",
"LatLong": "-30.5833,30.5833"
},
{
"Name": "Highflats",
"PostCode": "3305",
"LatLong": "-30.2667,30.2"
},
{
"Name": "Highflats",
"PostCode": "3306",
"LatLong": "-30.2667,30.2"
},
{
"Name": "Highveld",
"PostCode": "0157",
"LatLong": "-25.8049,28.2056"
},
{
"Name": "Highveld",
"PostCode": "0169",
"LatLong": "-25.7069,28.2294"
},
{
"Name": "Hillcrest",
"PostCode": "3610",
"LatLong": "-29.7667,30.7667"
},
{
"Name": "Hillcrest",
"PostCode": "3624",
"LatLong": "-31.8833,26.8"
},
{
"Name": "Hillcrest",
"PostCode": "3626",
"LatLong": "-29.7667,30.7667"
},
{
"Name": "Hillcrest",
"PostCode": "3650",
"LatLong": "-31.8833,26.8"
},
{
"Name": "Hillcrest",
"PostCode": "3660",
"LatLong": "-29.7167,30.7333"
},
{
"Name": "Hlabisa",
"PostCode": "3937",
"LatLong": "-28.1333,31.8667"
},
{
"Name": "Hlobane",
"PostCode": "3145",
"LatLong": "-27.7167,31"
},
{
"Name": "Hluhluwe",
"PostCode": "3950",
"LatLong": "-28.0333,32.2833"
},
{
"Name": "Hluhluwe",
"PostCode": "3960",
"LatLong": "-28.0333,32.2833"
},
{
"Name": "Hluvukani",
"PostCode": "1362",
"LatLong": "-24.65,31.3333"
},
{
"Name": "Hluvukani",
"PostCode": "1363",
"LatLong": "-24.65,31.3333"
},
{
"Name": "Hluvukani",
"PostCode": "1364",
"LatLong": "-24.65,31.3333"
},
{
"Name": "Hobhouse",
"PostCode": "9740",
"LatLong": "-29.5333,27.15"
},
{
"Name": "Hoedspruit",
"PostCode": "1371",
"LatLong": "-24.35,30.9667"
},
{
"Name": "Hoedspruit",
"PostCode": "1382",
"LatLong": "-24.35,30.9667"
},
{
"Name": "Hoedspruit",
"PostCode": "1384",
"LatLong": "-24.35,30.9667"
},
{
"Name": "Hofmeyr",
"PostCode": "5930",
"LatLong": "-31.65,25.8"
},
{
"Name": "Hopefield",
"PostCode": "7355",
"LatLong": "-33.0667,18.35"
},
{
"Name": "Hopetown",
"PostCode": "8750",
"LatLong": "-29.6167,24.0833"
},
{
"Name": "Hopetown",
"PostCode": "8751",
"LatLong": "-29.6167,24.0833"
},
{
"Name": "Hopetown",
"PostCode": "8760",
"LatLong": "-29.6167,24.0833"
},
{
"Name": "Hotazel",
"PostCode": "8467",
"LatLong": "-27.2,22.9667"
},
{
"Name": "Hout Bay",
"PostCode": "7806",
"LatLong": "-33.9166,18.4166"
},
{
"Name": "Houtbaai",
"PostCode": "7806",
"LatLong": "-33.9166,18.4166"
},
{
"Name": "Howick",
"PostCode": "3224",
"LatLong": "-29.4667,30.2333"
},
{
"Name": "Howick",
"PostCode": "3228",
"LatLong": "-29.6,29.8667"
},
{
"Name": "Howick",
"PostCode": "3244",
"LatLong": "-29.4667,30.2333"
},
{
"Name": "Howick",
"PostCode": "3246",
"LatLong": "-29.4667,30.2333"
},
{
"Name": "Howick",
"PostCode": "3247",
"LatLong": "-29.4667,30.2333"
},
{
"Name": "Howick",
"PostCode": "3248",
"LatLong": "-29.4667,30.2333"
},
{
"Name": "Howick",
"PostCode": "3255",
"LatLong": "-29.4667,30.2333"
},
{
"Name": "Howick",
"PostCode": "3260",
"LatLong": "-29.4667,30.2333"
},
{
"Name": "Howick",
"PostCode": "3265",
"LatLong": "-29.4667,30.2333"
},
{
"Name": "Howick",
"PostCode": "3267",
"LatLong": "-29.4667,30.2333"
},
{
"Name": "Howick",
"PostCode": "3270",
"LatLong": "-29.4667,30.2333"
},
{
"Name": "Howick",
"PostCode": "3275",
"LatLong": "-29.4667,30.2333"
},
{
"Name": "Howick",
"PostCode": "3290",
"LatLong": "-29.5167,30.2333"
},
{
"Name": "Howick",
"PostCode": "3291",
"LatLong": "-29.4667,30.2333"
},
{
"Name": "Howick",
"PostCode": "3299",
"LatLong": "-29.4667,30.2333"
},
{
"Name": "Howick",
"PostCode": "3302",
"LatLong": "-29.4667,30.2333"
},
{
"Name": "Howick",
"PostCode": "3303",
"LatLong": "-29.4667,30.2333"
},
{
"Name": "Huguenot",
"PostCode": "7627",
"LatLong": "-31.0833,26.6"
},
{
"Name": "Huguenot",
"PostCode": "7646",
"LatLong": "-31.0833,26.6"
},
{
"Name": "Humansdorp",
"PostCode": "6300",
"LatLong": "-34.0333,24.7667"
},
{
"Name": "Humansdorp",
"PostCode": "6302",
"LatLong": "-34.0333,24.7667"
},
{
"Name": "Humansdorp",
"PostCode": "6303",
"LatLong": "-34.0333,24.7667"
},
{
"Name": "Humansdorp",
"PostCode": "6304",
"LatLong": "-34.0333,24.7667"
},
{
"Name": "Humansdorp",
"PostCode": "6306",
"LatLong": "-34.0333,24.7667"
},
{
"Name": "Humansdorp",
"PostCode": "6307",
"LatLong": "-34.0333,24.7667"
},
{
"Name": "Humansdorp",
"PostCode": "6310",
"LatLong": "-34.0333,24.7667"
},
{
"Name": "Humansdorp",
"PostCode": "6311",
"LatLong": "-34.0333,24.7667"
},
{
"Name": "Humansdorp",
"PostCode": "6313",
"LatLong": "-34.0333,24.7667"
},
{
"Name": "Humansdorp",
"PostCode": "6375",
"LatLong": "-34.0333,24.7667"
},
{
"Name": "Hunter'S Retreat",
"PostCode": "6017",
"LatLong": "-33.9667,25.5833"
},
{
"Name": "Hurlingham View",
"PostCode": "2070",
"LatLong": "-26.2,28.0833"
},
{
"Name": "Hurlingham View",
"PostCode": "2196",
"LatLong": "-26.1125,28.0625"
},
{
"Name": "Idutywa",
"PostCode": "5000",
"LatLong": "-32.1,28.3"
},
{
"Name": "Idutywa",
"PostCode": "5002",
"LatLong": "-32.1,28.3"
},
{
"Name": "Idutywa",
"PostCode": "5003",
"LatLong": "-32.1,28.3"
},
{
"Name": "Idutywa",
"PostCode": "5004",
"LatLong": "-32.1,28.3"
},
{
"Name": "Idutywa",
"PostCode": "5005",
"LatLong": "-32.1,28.3"
},
{
"Name": "Idutywa",
"PostCode": "5006",
"LatLong": "-32.1,28.3"
},
{
"Name": "Idutywa",
"PostCode": "5007",
"LatLong": "-32.1,28.3"
},
{
"Name": "Idutywa",
"PostCode": "5010",
"LatLong": "-32.1,28.3"
},
{
"Name": "Idutywa",
"PostCode": "5011",
"LatLong": "-32.1,28.3"
},
{
"Name": "Idutywa",
"PostCode": "5012",
"LatLong": "-32.1,28.3"
},
{
"Name": "Idutywa",
"PostCode": "5014",
"LatLong": "-32.1,28.3"
},
{
"Name": "Idutywa",
"PostCode": "5015",
"LatLong": "-32.1,28.3"
},
{
"Name": "Idutywa",
"PostCode": "5016",
"LatLong": "-32.1,28.3"
},
{
"Name": "Idutywa",
"PostCode": "5017",
"LatLong": "-32.1,28.3"
},
{
"Name": "Idutywa",
"PostCode": "5018",
"LatLong": "-32.1,28.3"
},
{
"Name": "Idutywa",
"PostCode": "5019",
"LatLong": "-32.1,28.3"
},
{
"Name": "Idutywa",
"PostCode": "5021",
"LatLong": "-32.1,28.3"
},
{
"Name": "Ifafa Beach",
"PostCode": "4185",
"LatLong": "-30.45,30.65"
},
{
"Name": "Illovo Beach",
"PostCode": "4126",
"LatLong": "-30.1167,30.85"
},
{
"Name": "Impendle",
"PostCode": "3227",
"LatLong": "-29.6,29.8667"
},
{
"Name": "Impendle",
"PostCode": "3228",
"LatLong": "-29.6,29.8667"
},
{
"Name": "Inanda",
"PostCode": "4032",
"LatLong": "-26.1167,28.05"
},
{
"Name": "Inanda",
"PostCode": "4309",
"LatLong": "-26.1167,28.05"
},
{
"Name": "Inanda",
"PostCode": "4310",
"LatLong": "-29.6833,30.9333"
},
{
"Name": "Indwe",
"PostCode": "5445",
"LatLong": "-31.4667,27.3333"
},
{
"Name": "Ingwavuma",
"PostCode": "3964",
"LatLong": "-27.1333,31.9833"
},
{
"Name": "Ingwavuma",
"PostCode": "3968",
"LatLong": "-27.1333,31.9833"
},
{
"Name": "Ingwavuma",
"PostCode": "3977",
"LatLong": "-27.1333,31.9833"
},
{
"Name": "Isipingo",
"PostCode": "4066",
"LatLong": "-29.9667,30.8833"
},
{
"Name": "Isipingo",
"PostCode": "4110",
"LatLong": "-29.9833,30.9333"
},
{
"Name": "Isipingo",
"PostCode": "4111",
"LatLong": "-29.9833,30.9333"
},
{
"Name": "Isipingo",
"PostCode": "4113",
"LatLong": "-29.9833,30.9333"
},
{
"Name": "Isipingo",
"PostCode": "4133",
"LatLong": "-29.9833,30.9333"
},
{
"Name": "Isipingo",
"PostCode": "4153",
"LatLong": "-29.9833,30.9333"
},
{
"Name": "Isipingo Beach",
"PostCode": "4115",
"LatLong": "-29.9833,30.95"
},
{
"Name": "Isipingo Beach",
"PostCode": "4133",
"LatLong": "-29.9833,30.95"
},
{
"Name": "Itsoseng",
"PostCode": "2717",
"LatLong": "-26.0667,25.8833"
},
{
"Name": "Itsoseng",
"PostCode": "2744",
"LatLong": "-26.0667,25.8833"
},
{
"Name": "Ivory Park",
"PostCode": "1689",
"LatLong": "-25.9911,28.1718"
},
{
"Name": "Ivory Park",
"PostCode": "1693",
"LatLong": "-25.9911,28.1718"
},
{
"Name": "Izingolweni",
"PostCode": "4260",
"LatLong": "-30.7833,30.1333"
},
{
"Name": "Izingolweni",
"PostCode": "4261",
"LatLong": "-30.7833,30.1333"
},
{
"Name": "Jacobs",
"PostCode": "4109",
"LatLong": "-29.9333,30.9833"
},
{
"Name": "Jacobsdal",
"PostCode": "8710",
"LatLong": "-25.6333,26.0667"
},
{
"Name": "Jagersfontein",
"PostCode": "9974",
"LatLong": "-29.7667,25.4167"
},
{
"Name": "Jamestown",
"PostCode": "9742",
"LatLong": "-31.1167,26.8"
},
{
"Name": "Jan Kempdorp",
"PostCode": "8534",
"LatLong": "-27.9167,24.85"
},
{
"Name": "Jan Kempdorp",
"PostCode": "8535",
"LatLong": "-27.9167,24.85"
},
{
"Name": "Jan Kempdorp",
"PostCode": "8550",
"LatLong": "-27.9167,24.85"
},
{
"Name": "Jan Kempdorp",
"PostCode": "8553",
"LatLong": "-27.9167,24.85"
},
{
"Name": "Jan Kempdorp",
"PostCode": "8560",
"LatLong": "-27.9167,24.85"
},
{
"Name": "Jansenville",
"PostCode": "6265",
"LatLong": "-32.9333,24.6667"
},
{
"Name": "Jeffreys Bay",
"PostCode": "6330",
"LatLong": "-33.9028,24.8675"
},
{
"Name": "Jeffreys Bay",
"PostCode": "6331",
"LatLong": "-33.9028,24.8675"
},
{
"Name": "Jeffreys Bay",
"PostCode": "6332",
"LatLong": "-34.05,24.9167"
},
{
"Name": "Jeffreysbaai",
"PostCode": "6332",
"LatLong": "-34.05,24.9167"
},
{
"Name": "Jeppestown",
"PostCode": "2094",
"LatLong": "-26.2,28.0833"
},
{
"Name": "Johannesburg",
"PostCode": "2000",
"LatLong": "-26.2,28.0833"
},
{
"Name": "Johannesburg",
"PostCode": "2001",
"LatLong": "-26.2,28.0833"
},
{
"Name": "Johannesburg",
"PostCode": "2003",
"LatLong": "-26.2,28.0833"
},
{
"Name": "Johannesburg",
"PostCode": "2004",
"LatLong": "-26.2,28.0833"
},
{
"Name": "Johannesburg",
"PostCode": "2005",
"LatLong": "-26.2,28.0833"
},
{
"Name": "Johannesburg",
"PostCode": "2006",
"LatLong": "-26.2,28.0833"
},
{
"Name": "Johannesburg",
"PostCode": "2007",
"LatLong": "-26.2,28.0833"
},
{
"Name": "Johannesburg",
"PostCode": "2008",
"LatLong": "-26.2,28.0833"
},
{
"Name": "Johannesburg",
"PostCode": "2009",
"LatLong": "-26.2,28.0833"
},
{
"Name": "Johannesburg",
"PostCode": "2010",
"LatLong": "-26.2,28.0833"
},
{
"Name": "Johannesburg",
"PostCode": "2011",
"LatLong": "-26.2,28.0833"
},
{
"Name": "Johannesburg",
"PostCode": "2012",
"LatLong": "-26.2,28.0833"
},
{
"Name": "Johannesburg",
"PostCode": "2013",
"LatLong": "-26.2,28.0833"
},
{
"Name": "Johannesburg",
"PostCode": "2014",
"LatLong": "-26.2,28.0833"
},
{
"Name": "Johannesburg",
"PostCode": "2015",
"LatLong": "-26.2,28.0833"
},
{
"Name": "Johannesburg",
"PostCode": "2016",
"LatLong": "-26.2,28.0833"
},
{
"Name": "Johannesburg",
"PostCode": "2017",
"LatLong": "-26.2,28.0833"
},
{
"Name": "Johannesburg",
"PostCode": "2018",
"LatLong": "-26.2,28.0833"
},
{
"Name": "Johannesburg",
"PostCode": "2019",
"LatLong": "-26.2,28.0833"
},
{
"Name": "Johannesburg",
"PostCode": "2020",
"LatLong": "-26.2,28.0833"
},
{
"Name": "Johannesburg",
"PostCode": "2021",
"LatLong": "-26.2,28.0833"
},
{
"Name": "Johannesburg",
"PostCode": "2022",
"LatLong": "-26.2,28.0833"
},
{
"Name": "Johannesburg",
"PostCode": "2023",
"LatLong": "-26.2,28.0833"
},
{
"Name": "Johannesburg",
"PostCode": "2024",
"LatLong": "-26.2,28.0833"
},
{
"Name": "Johannesburg",
"PostCode": "2026",
"LatLong": "-26.1805,28.1034"
},
{
"Name": "Johannesburg",
"PostCode": "2028",
"LatLong": "-26.2,28.0833"
},
{
"Name": "Johannesburg",
"PostCode": "2030",
"LatLong": "-26.2,28.0833"
},
{
"Name": "Johannesburg",
"PostCode": "2031",
"LatLong": "-26.2,28.0833"
},
{
"Name": "Johannesburg",
"PostCode": "2033",
"LatLong": "-26.2,28.0833"
},
{
"Name": "Johannesburg",
"PostCode": "2034",
"LatLong": "-26.2,28.0833"
},
{
"Name": "Johannesburg",
"PostCode": "2035",
"LatLong": "-26.2,28.0833"
},
{
"Name": "Johannesburg",
"PostCode": "2036",
"LatLong": "-26.2,28.0833"
},
{
"Name": "Johannesburg",
"PostCode": "2037",
"LatLong": "-26.2,28.0833"
},
{
"Name": "Johannesburg",
"PostCode": "2038",
"LatLong": "-26.2,28.0833"
},
{
"Name": "Johannesburg",
"PostCode": "2040",
"LatLong": "-26.2,28.0833"
},
{
"Name": "Johannesburg",
"PostCode": "2041",
"LatLong": "-26.1928,28.0711"
},
{
"Name": "Johannesburg",
"PostCode": "2042",
"LatLong": "-26.2,28.0833"
},
{
"Name": "Johannesburg",
"PostCode": "2043",
"LatLong": "-26.2,28.0833"
},
{
"Name": "Johannesburg",
"PostCode": "2044",
"LatLong": "-26.2,28.0833"
},