{
 "Structure": "State/Place",
 "States": [
  {
   "Name": "Attard",
   "Code": "01",
   "Places": [
    {
     "PostCode": "ATD",
     "LatLong": "35.8917,14.4319"
    }
   ]
  },
  {
   "Name": "Balzan",
   "Code": "02",
   "Places": [
    {
     "PostCode": "BZN",
     "LatLong": "35.8972,14.4528"
    }
   ]
  },
  {
   "Name": "Il-Birgu",
   "Code": "03",
   "Places": [
    {
     "Name": "Birgu",
     "PostCode": "BRG",
     "LatLong": "35.8861,14.5242"
    }
   ]
  },
  {
   "Name": "Birkirkara",
   "Code": "04",
   "Places": [
    {
     "PostCode": "BKR",
     "LatLong": "35.8972,14.4653"
    }
   ]
  },
  {
   "Name": "Birżebbuġa",
   "Code": "05",
   "Places": [
    {
     "PostCode": "BBG",
     "LatLong": "35.8222,14.5228"
    }
   ]
  },
  {
   "Name": "Bormla",
   "Code": "06",
   "Places": [
    {
     "PostCode": "BML",
     "LatLong": "35.8806,14.5217"
    }
   ]
  },
  {
   "Name": "Dingli",
   "Code": "07",
   "Places": [
    {
     "PostCode": "DGL",
     "LatLong": "35.8597,14.3833"
    }
   ]
  },
  {
   "Name": "Il-Fgura",
   "Code": "08",
   "Places": [
    {
     "Name": "Fgura",
     "PostCode": "FGR",
     "LatLong": "35.8728,14.5203"
    }
   ]
  },
  {
   "Name": "Il-Furjana",
   "Code": "09",
   "Places": [
    {
     "Name": "Floriana",
     "PostCode": "FRN",
     "LatLong": "35.8917,14.5042"
    }
   ]
  },
  {
   "Name": "Il-Fontana",
   "Code": "10",
   "Places": [
    {
     "Name": "Fontana",
     "PostCode": "FNT",
     "LatLong": "36.0375,14.2361"
    }
   ]
  },
  {
   "Name": "Għajnsielem",
   "Code": "11",
   "Places": [
    {
     "PostCode": "GSM",
     "LatLong": "36.0267,14.2861"
    },
    {
     "Name": "Kemmuna",
     "PostCode": "KMN",
     "LatLong": "36.0267,14.2861"
    }
   ]
  },
  {
   "Name": "L-Għarb",
   "Code": "12",
   "Places": [
    {
     "Name": "Għarb",
     "PostCode": "GRB",
     "LatLong": "36.0681,14.2014"
    }
   ]
  },
  {
   "Name": "Ħal Għargħur",
   "Code": "13",
   "Places": [
    {
     "Name": "Għargħur",
     "PostCode": "GHR",
     "LatLong": "35.9236,14.455"
    }
   ]
  },
  {
   "Name": "L-Għasri",
   "Code": "14",
   "Places": [
    {
     "Name": "Għasri",
     "PostCode": "GSR",
     "LatLong": "36.0653,14.2217"
    }
   ]
  },
  {
   "Name": "Ħal Għaxaq",
   "Code": "15",
   "Places": [
    {
     "Name": "Għaxaq",
     "PostCode": "GXQ",
     "LatLong": "35.8458,14.5167"
    }
   ]
  },
  {
   "Name": "Il-Gudja",
   "Code": "16",
   "Places": [
    {
     "Name": "Gudja",
     "PostCode": "GDJ",
     "LatLong": "35.8514,14.5033"
    }
   ]
  },
  {
   "Name": "Il-Gżira",
   "Code": "17",
   "Places": [
    {
     "Name": "Gżira",
     "PostCode": "GZR",
     "LatLong": "35.9056,14.4928"
    }
   ]
  },
  {
   "Name": "Il-Ħamrun",
   "Code": "18",
   "Places": [
    {
     "Name": "Ħamrun",
     "PostCode": "HMR",
     "LatLong": "35.8869,14.4883"
    }
   ]
  },
  {
   "Name": "L-Iklin",
   "Code": "19",
   "Places": [
    {
     "Name": "Iklin",
     "PostCode": "IKL",
     "LatLong": "35.9097,14.4556"
    }
   ]
  },
  {
   "Name": "L-Imdina",
   "Code": "20",
   "Places": [
    {
     "Name": "Mdina",
     "PostCode": "MDN",
     "LatLong": "35.8872,14.4053"
    }
   ]
  },
  {
   "Name": "L-Imġarr",
   "Code": "21",
   "Places": [
    {
     "Name": "Mġarr",
     "PostCode": "MGR",
     "LatLong": "35.9194,14.3639"
    }
   ]
  },
  {
   "Name": "L-Imqabba",
   "Code": "22",
   "Places": [
    {
     "Name": "Mqabba",
     "PostCode": "MQB",
     "LatLong": "35.845,14.4675"
    }
   ]
  },
  {
   "Name": "L-Imsida",
   "Code": "23",
   "Places": [
    {
     "Name": "Msida",
     "PostCode": "MSD",
     "LatLong": "35.8986,14.4839"
    }
   ]
  },
  {
   "Name": "L-Imtarfa",
   "Code": "24",
   "Places": [
    {
     "Name": "Mtarfa",
     "PostCode": "MTF",
     "LatLong": "35.8906,14.3972"
    }
   ]
  },
  {
   "Name": "L-Isla",
   "Code": "25",
   "Places": [
    {
     "Name": "Isla",
     "PostCode": "ISL",
     "LatLong": "35.8878,14.5169"
    }
   ]
  },
  {
   "Name": "Il-Kalkara",
   "Code": "26",
   "Places": [
    {
     "Name": "Kalkara",
     "PostCode": "KKR",
     "LatLong": "35.8911,14.5328"
    },
    {
     "Name": "Smart City",
     "PostCode": "SCM",
     "LatLong": "35.8911,14.5328"
    }
   ]
  },
  {
   "Name": "Ta’ Kerċem",
   "Code": "27",
   "Places": [
    {
     "Name": "Kerċem",
     "PostCode": "KCM",
     "LatLong": "36.0439,14.2161"
    }
   ]
  },
  {
   "Name": "Kirkop",
   "Code": "28",
   "Places": [
    {
     "PostCode": "KKP",
     "LatLong": "35.8442,14.4842"
    }
   ]
  },
  {
   "Name": "Lija",
   "Code": "29",
   "Places": [
    {
     "PostCode": "LJA",
     "LatLong": "35.9014,14.4422"
    }
   ]
  },
  {
   "Name": "Luqa",
   "Code": "30",
   "Places": [
    {
     "PostCode": "LQA",
     "LatLong": "35.8597,14.4833"
    }
   ]
  },
  {
   "Name": "Il-Marsa",
   "Code": "31",
   "Places": [
    {
     "Name": "Marsa",
     "PostCode": "MRS",
     "LatLong": "35.8764,14.4922"
    },
    {
     "Name": "MaltaPost",
     "PostCode": "MTP",
     "LatLong": "35.8764,14.4922"
    }
   ]
  },
  {
   "Name": "Marsaskala",
   "Code": "32",
   "Places": [
    {
     "PostCode": "MSK",
     "LatLong": "35.8606,14.5592"
    }
   ]
  },
  {
   "Name": "Marsaxlokk",
   "Code": "33",
   "Places": [
    {
     "PostCode": "MXK",
     "LatLong": "35.8417,14.5514"
    }
   ]
  },
  {
   "Name": "Il-Mellieħa",
   "Code": "34",
   "Places": [
    {
     "Name": "Mellieħa",
     "PostCode": "MLH",
     "LatLong": "35.9583,14.3514"
    }
   ]
  },
  {
   "Name": "Il-Mosta",
   "Code": "35",
   "Places": [
    {
     "Name": "Mosta",
     "PostCode": "MST",
     "LatLong": "35.9125,14.4208"
    }
   ]
  },
  {
   "Name": "Il-Munxar",
   "Code": "36",
   "Places": [
    {
     "Name": "Munxar",
     "PostCode": "MXR",
     "LatLong": "36.0292,14.2256"
    },
    {
     "Name": "Xlendi",
     "PostCode": "XLN",
     "LatLong": "36.0292,14.2256"
    }
   ]
  },
  {
   "Name": "In-Nadur",
   "Code": "37",
   "Places": [
    {
     "Name": "Nadur",
     "PostCode": "NDR",
     "LatLong": "36.0486,14.2944"
    }
   ]
  },
  {
   "Name": "In-Naxxar",
   "Code": "38",
   "Places": [
    {
     "Name": "Naxxar",
     "PostCode": "NXR",
     "LatLong": "35.9333,14.4375"
    }
   ]
  },
  {
   "Name": "Paola",
   "Code": "39",
   "Places": [
    {
     "PostCode": "PLA",
     "LatLong": "35.8736,14.5061"
    }
   ]
  },
  {
   "Name": "Pembroke",
   "Code": "40",
   "Places": [
    {
     "PostCode": "PBK",
     "LatLong": "35.9306,14.4764"
    }
   ]
  },
  {
   "Name": "Tal-Pietà",
   "Code": "41",
   "Places": [
    {
     "Name": "Pietà",
     "PostCode": "PTA",
     "LatLong": "35.8925,14.4939"
    }
   ]
  },
  {
   "Name": "Il-Qala",
   "Code": "42",
   "Places": [
    {
     "Name": "Qala",
     "PostCode": "QLA",
     "LatLong": "36.0375,14.3167"
    }
   ]
  },
  {
   "Name": "Qormi",
   "Code": "43",
   "Places": [
    {
     "PostCode": "QRM",
     "LatLong": "35.8792,14.4667"
    }
   ]
  },
  {
   "Name": "Il-Qrendi",
   "Code": "44",
   "Places": [
    {
     "Name": "Qrendi",
     "PostCode": "QRD",
     "LatLong": "35.8319,14.4514"
    }
   ]
  },
  {
   "Name": "Ir-Rabat",
   "Code": "45",
   "Places": [
    {
     "Name": "Rabat",
     "PostCode": "RBT",
     "LatLong": "35.8826,14.3978"
    }
   ]
  },
  {
   "Name": "Victoria",
   "Code": "46",
   "Places": [
    {
     "PostCode": "VCT",
     "LatLong": "36.0453,14.2417"
    }
   ]
  },
  {
   "Name": "Safi",
   "Code": "47",
   "Places": [
    {
     "PostCode": "SFI",
     "LatLong": "35.8347,14.4917"
    }
   ]
  },
  {
   "Name": "Saint John",
   "Code": "48",
   "Places": [
    {
     "Name": "San Ġwann",
     "PostCode": "SGN",
     "LatLong": "35.9089,14.475"
    }
   ]
  },
  {
   "Name": "Saint Julian's",
   "Code": "49",
   "Places": [
    {
     "Name": "Saint Julians",
     "PostCode": "STJ",
     "LatLong": "35.9172,14.4894"
    }
   ]
  },
  {
   "Name": "Saint Lawrence",
   "Code": "50",
   "Places": [
    {
     "Name": "San Lawrenz",
     "PostCode": "SLZ",
     "LatLong": "36.0486,14.1978"
    }
   ]
  },
  {
   "Name": "Saint Lucia",
   "Code": "51",
   "Places": [
    {
     "Name": "Santa Luċija",
     "PostCode": "SLC",
     "LatLong": "35.8617,14.5064"
    }
   ]
  },
  {
   "Name": "Saint Paul’s Bay",
   "Code": "52",
   "Places": [
    {
     "Name": "Saint Paul's Bay",
     "PostCode": "SPB",
     "LatLong": "35.9375,14.3986"
    }
   ]
  },
  {
   "Name": "Saint Venera",
   "Code": "53",
   "Places": [
    {
     "Name": "Santa Venera",
     "PostCode": "SVR",
     "LatLong": "35.8903,14.4778"
    }
   ]
  },
  {
   "Name": "Sannat",
   "Code": "54",
   "Places": [
    {
     "PostCode": "SNT",
     "LatLong": "36.0231,14.2514"
    }
   ]
  },
  {
   "Name": "Is-Siġġiewi",
   "Code": "55",
   "Places": [
    {
     "Name": "Siġġiewi",
     "PostCode": "SGW",
     "LatLong": "35.8486,14.4264"
    }
   ]
  },
  {
   "Name": "Tas-Sliema",
   "Code": "56",
   "Places": [
    {
     "Name": "Sliema",
     "PostCode": "SLM",
     "LatLong": "35.9125,14.5022"
    }
   ]
  },
  {
   "Name": "Is-Swieqi",
   "Code": "57",
   "Places": [
    {
     "Name": "Swieqi",
     "PostCode": "SWQ",
     "LatLong": "35.9217,14.4694"
    }
   ]
  },
  {
   "Name": "Tarxien",
   "Code": "58",
   "Places": [
    {
     "PostCode": "TXN",
     "LatLong": "35.8667,14.5131"
    }
   ]
  },
  {
   "Name": "Ta’ Xbiex",
   "Code": "59",
   "Places": [
    {
     "Name": "Ta' Xbiex",
     "PostCode": "XBX",
     "LatLong": "35.8994,14.4961"
    }
   ]
  },
  {
   "Name": "Il-Belt Valletta",
   "Code": "60",
   "Places": [
    {
     "Name": "Valletta",
     "PostCode": "VLT",
     "LatLong": "35.8983,14.5125"
    }
   ]
  },
  {
   "Name": "Ix-Xagħra",
   "Code": "61",
   "Places": [
    {
     "Name": "Xagħra",
     "PostCode": "XRA",
     "LatLong": "36.0542,14.2667"
    }
   ]
  },
  {
   "Name": "Ix-Xewkija",
   "Code": "62",
   "Places": [
    {
     "Name": "Xewkija",
     "PostCode": "XWK",
     "LatLong": "36.0333,14.2611"
    }
   ]
  },
  {
   "Name": "Ix-Xgħajra",
   "Code": "63",
   "Places": [
    {
     "Name": "Xgħajra",
     "PostCode": "XJR",
     "LatLong": "35.8847,14.5486"
    }
   ]
  },
  {
   "Name": "Ħaż-Żabbar",
   "Code": "64",
   "Places": [
    {
     "Name": "Żabbar",
     "PostCode": "ZBR",
     "LatLong": "35.875,14.5417"
    }
   ]
  },
  {
   "Name": "Ħaż-Żebbuġ",
   "Code": "65",
   "Places": [
    {
     "Name": "Żebbuġ",
     "PostCode": "ZBG",
     "LatLong": "35.8736,14.4361"
    }
   ]
  },
  {
   "Name": "Iż-Żebbuġ",
   "Code": "66",
   "Places": [
    {
     "Name": "Marsalforn",
     "PostCode": "MFN",
     "LatLong": "36.0667,14.2444"
    },
    {
     "Name": "Żebbuġ",
     "PostCode": "ZBB",
     "LatLong": "36.0667,14.2444"
    }
   ]
  },
  {
   "Name": "Iż-Żejtun",
   "Code": "67",
   "Places": [
    {
     "Name": "Żejtun",
     "PostCode": "ZTN",
     "LatLong": "35.8578,14.5333"
    }
   ]
  },
  {
   "Name": "Iż-Żurrieq",
   "Code": "68",
   "Places": [
    {
     "Name": "Żurrieq",
     "PostCode": "ZRQ",
     "LatLong": "35.8222,14.4833"
    }
   ]
  }
 ]
}