{
 "Places": [
  {
   "Name": "Tórshavn",
   "Accuracy": 4,
   "LatLong": "62.0167,-6.7667"
  },
  {
   "Name": "Tórshavn",
   "Accuracy": 4,
   "LatLong": "62.0167,-6.7667"
  },
  {
   "Name": "Argir",
   "Accuracy": 4,
   "LatLong": "61.9833,-6.75"
  },
  {
   "Name": "Argir",
   "Accuracy": 4,
   "LatLong": "61.9833,-6.75"
  },
  {
   "Name": "Kirkjubøur",
   "Accuracy": 4,
   "LatLong": "61.95,-6.7833"
  },
  {
   "Name": "Velbastadur",
   "Accuracy": 4,
   "LatLong": "61.9833,-6.8333"
  },
  {
   "Name": "Sydradalur, Streymoy",
   "Accuracy": 4,
   "LatLong": "62.0167,-6.9"
  },
  {
   "Name": "Nordradalur",
   "Accuracy": 4,
   "LatLong": "62.0333,-6.9167"
  },
  {
   "Name": "Kaldbak",
   "Accuracy": 4,
   "LatLong": "62.05,-6.8167"
  },
  {
   "Name": "Kaldbaksbotnur",
   "Accuracy": 1,
   "LatLong": "62.046,-6.7995"
  },
  {
   "Name": "Sund",
   "Accuracy": 4,
   "LatLong": "62.05,-6.8333"
  },
  {
   "Name": "Hvitanes",
   "Accuracy": 4,
   "LatLong": "62.05,-6.7667"
  },
  {
   "Name": "Hoyvik",
   "Accuracy": 4,
   "LatLong": "62.0341,-6.7813"
  },
  {
   "Name": "Sandur",
   "Accuracy": 4,
   "LatLong": "61.8425,-6.8078"
  },
  {
   "Name": "Sandur",
   "Accuracy": 4,
   "LatLong": "61.8425,-6.8078"
  },
  {
   "Name": "Skálavik",
   "Accuracy": 4,
   "LatLong": "61.8333,-6.65"
  },
  {
   "Name": "Húsavik",
   "Accuracy": 4,
   "LatLong": "61.8,-6.6667"
  },
  {
   "Name": "Dalur",
   "Accuracy": 4,
   "LatLong": "61.7833,-6.6667"
  },
  {
   "Name": "Skarvanes",
   "Accuracy": 4,
   "LatLong": "61.8,-6.7333"
  },
  {
   "Name": "Skopun",
   "Accuracy": 4,
   "LatLong": "61.9,-6.8667"
  },
  {
   "Name": "Skúvoy",
   "Accuracy": 4,
   "LatLong": "61.7667,-6.8"
  },
  {
   "Name": "Nólsoy",
   "Accuracy": 4,
   "LatLong": "62.0167,-6.6667"
  },
  {
   "Name": "Hestur",
   "Accuracy": 4,
   "LatLong": "61.95,-6.8667"
  },
  {
   "Name": "Koltur",
   "Accuracy": 4,
   "LatLong": "61.9833,-6.95"
  },
  {
   "Name": "Stóra Dimun",
   "Accuracy": 1,
   "LatLong": "61.9667,-6.9083"
  },
  {
   "Name": "Stykkid",
   "Accuracy": 4,
   "LatLong": "62.1167,-7.0333"
  },
  {
   "Name": "Leynar",
   "Accuracy": 4,
   "LatLong": "62.1167,-7.0333"
  },
  {
   "Name": "Skællingur",
   "Accuracy": 1,
   "LatLong": "62.1167,-7.0333"
  },
  {
   "Name": "Kvivik",
   "Accuracy": 4,
   "LatLong": "62.1167,-7.0667"
  },
  {
   "Name": "Vestmanna",
   "Accuracy": 4,
   "LatLong": "62.1564,-7.1664"
  },
  {
   "Name": "Vestmanna",
   "Accuracy": 4,
   "LatLong": "62.1564,-7.1664"
  },
  {
   "Name": "Válur",
   "Accuracy": 4,
   "LatLong": "62.1333,-7.1333"
  },
  {
   "Name": "Sandavágur",
   "Accuracy": 4,
   "LatLong": "62.05,-7.1333"
  },
  {
   "Name": "Midvágur",
   "Accuracy": 4,
   "LatLong": "62.0511,-7.1939"
  },
  {
   "Name": "Midvágur",
   "Accuracy": 4,
   "LatLong": "62.0511,-7.1939"
  },
  {
   "Name": "Sørvágur",
   "Accuracy": 4,
   "LatLong": "62.0973,-7.3577"
  },
  {
   "Name": "Vatnsoyrar",
   "Accuracy": 4,
   "LatLong": "62.0667,-7.2333"
  },
  {
   "Name": "Bøur",
   "Accuracy": 4,
   "LatLong": "62.0833,-7.35"
  },
  {
   "Name": "Gásadalur",
   "Accuracy": 4,
   "LatLong": "62.1167,-7.4333"
  },
  {
   "Name": "Mykines",
   "Accuracy": 4,
   "LatLong": "62.1,-7.6333"
  },
  {
   "Name": "Oyrarbakki",
   "Accuracy": 4,
   "LatLong": "62.2,-6.9833"
  },
  {
   "Name": "Oyrarbakki",
   "Accuracy": 4,
   "LatLong": "62.2,-6.9833"
  },
  {
   "Name": "Kollafjørdur",
   "Accuracy": 4,
   "LatLong": "62.1167,-6.9"
  },
  {
   "Name": "Oyrareingir",
   "Accuracy": 4,
   "LatLong": "62.1,-6.95"
  },
  {
   "Name": "Signabøur",
   "Accuracy": 4,
   "LatLong": "62.1,-6.9"
  },
  {
   "Name": "Hósvik",
   "Accuracy": 4,
   "LatLong": "62.15,-6.9333"
  },
  {
   "Name": "Hvalvik",
   "Accuracy": 4,
   "LatLong": "62.1833,-7.0167"
  },
  {
   "Name": "Streymnes",
   "Accuracy": 4,
   "LatLong": "62.2,-7.0167"
  },
  {
   "Name": "Saksun",
   "Accuracy": 4,
   "LatLong": "62.25,-7.1667"
  },
  {
   "Name": "Nesvik",
   "Accuracy": 4,
   "LatLong": "62.2167,-7.0167"
  },
  {
   "Name": "Langasandur",
   "Accuracy": 4,
   "LatLong": "62.2333,-7.0333"
  },
  {
   "Name": "Haldarsvik",
   "Accuracy": 4,
   "LatLong": "62.2833,-7.0833"
  },
  {
   "Name": "Tjørnuvik",
   "Accuracy": 4,
   "LatLong": "62.2833,-7.1333"
  },
  {
   "Name": "Oyri",
   "Accuracy": 4,
   "LatLong": "62.1833,-6.9667"
  },
  {
   "Name": "Nordskáli",
   "Accuracy": 4,
   "LatLong": "62.2167,-7"
  },
  {
   "Name": "Svináir",
   "Accuracy": 4,
   "LatLong": "62.2333,-7.0167"
  },
  {
   "Name": "Ljósá",
   "Accuracy": 4,
   "LatLong": "62.2667,-7.05"
  },
  {
   "Name": "Eidi",
   "Accuracy": 4,
   "LatLong": "62.3,-7.0833"
  },
  {
   "Name": "Funningur",
   "Accuracy": 4,
   "LatLong": "62.2833,-6.95"
  },
  {
   "Name": "Gjógv",
   "Accuracy": 4,
   "LatLong": "62.3167,-6.9333"
  },
  {
   "Name": "Funningsfjørdur",
   "Accuracy": 4,
   "LatLong": "62.2333,-6.9167"
  },
  {
   "Name": "Elduvik",
   "Accuracy": 4,
   "LatLong": "62.2833,-6.9"
  },
  {
   "Name": "Skáli",
   "Accuracy": 4,
   "LatLong": "62.15,-6.7667"
  },
  {
   "Name": "Skálafjørdur",
   "Accuracy": 4,
   "LatLong": "62.2,-6.85"
  },
  {
   "Name": "Strendur",
   "Accuracy": 4,
   "LatLong": "62.1167,-6.75"
  },
  {
   "Name": "Innan Glyvur",
   "Accuracy": 4,
   "LatLong": "62.1333,-6.75"
  },
  {
   "Name": "Kolbanargjógv",
   "Accuracy": 4,
   "LatLong": "62.1,-6.7833"
  },
  {
   "Name": "Morskranes",
   "Accuracy": 4,
   "LatLong": "62.1333,-6.8333"
  },
  {
   "Name": "Selatrad",
   "Accuracy": 4,
   "LatLong": "62.15,-6.85"
  },
  {
   "Name": "Gøta",
   "Accuracy": 4,
   "LatLong": "62.2,-6.7333"
  },
  {
   "Name": "Gøtugjógv",
   "Accuracy": 4,
   "LatLong": "62.1833,-6.7333"
  },
  {
   "Name": "Nordragøta",
   "Accuracy": 4,
   "LatLong": "62.2007,-6.7419"
  },
  {
   "Name": "Sydrugøta",
   "Accuracy": 4,
   "LatLong": "62.1833,-6.7333"
  },
  {
   "Name": "Gøta",
   "Accuracy": 4,
   "LatLong": "62.2,-6.7333"
  },
  {
   "Name": "Leirvik",
   "Accuracy": 4,
   "LatLong": "62.2167,-6.6833"
  },
  {
   "Name": "Fuglafjørdur",
   "Accuracy": 4,
   "LatLong": "62.244,-6.8139"
  },
  {
   "Name": "Fuglafjørdur",
   "Accuracy": 4,
   "LatLong": "62.244,-6.8139"
  },
  {
   "Name": "Saltangará",
   "Accuracy": 4,
   "LatLong": "62.1167,-6.7167"
  },
  {
   "Name": "Saltangará",
   "Accuracy": 4,
   "LatLong": "62.1167,-6.7167"
  },
  {
   "Name": "Runavik",
   "Accuracy": 4,
   "LatLong": "62.1167,-6.7167"
  },
  {
   "Name": "Glyvrar",
   "Accuracy": 4,
   "LatLong": "62.1333,-6.7167"
  },
  {
   "Name": "Lambareidi",
   "Accuracy": 4,
   "LatLong": "62.1333,-6.7167"
  },
  {
   "Name": "Lambi",
   "Accuracy": 4,
   "LatLong": "62.1333,-6.6833"
  },
  {
   "Name": "Rituvik",
   "Accuracy": 4,
   "LatLong": "62.1,-6.6667"
  },
  {
   "Name": "Æduvik",
   "Accuracy": 4,
   "LatLong": "62.0667,-6.6833"
  },
  {
   "Name": "Toftir",
   "Accuracy": 4,
   "LatLong": "62.1,-6.7333"
  },
  {
   "Name": "Nes, Eysturoy",
   "Accuracy": 4,
   "LatLong": "62.0833,-6.7167"
  },
  {
   "Name": "Saltnes",
   "Accuracy": 4,
   "LatLong": "62.1,-6.7333"
  },
  {
   "Name": "Søldarfjørdur",
   "Accuracy": 4,
   "LatLong": "62.15,-6.7333"
  },
  {
   "Name": "Skipanes",
   "Accuracy": 4,
   "LatLong": "62.1667,-6.75"
  },
  {
   "Name": "Gøtueidi",
   "Accuracy": 4,
   "LatLong": "62.1833,-6.7667"
  },
  {
   "Name": "Oyndarfjørdur",
   "Accuracy": 4,
   "LatLong": "62.2833,-6.8333"
  },
  {
   "Name": "Hellur",
   "Accuracy": 4,
   "LatLong": "62.2667,-6.8333"
  },
  {
   "Name": "Klaksvik",
   "Accuracy": 4,
   "LatLong": "62.2265,-6.589"
  },
  {
   "Name": "Klaksvík",
   "Accuracy": 4,
   "LatLong": "62.2265,-6.589"
  },
  {
   "Name": "Nordoyri",
   "Accuracy": 4,
   "LatLong": "62.2167,-6.5333"
  },
  {
   "Name": "Ánir",
   "Accuracy": 4,
   "LatLong": "62.25,-6.5667"
  },
  {
   "Name": "Árnafjørdur",
   "Accuracy": 4,
   "LatLong": "62.25,-6.5167"
  },
  {
   "Name": "Norddepil",
   "Accuracy": 4,
   "LatLong": "62.3,-6.5167"
  },
  {
   "Name": "Depil",
   "Accuracy": 4,
   "LatLong": "62.2833,-6.5167"
  },
  {
   "Name": "Nordtoftir",
   "Accuracy": 4,
   "LatLong": "62.2667,-6.5"
  },
  {
   "Name": "Múli",
   "Accuracy": 4,
   "LatLong": "62.35,-6.5667"
  },
  {
   "Name": "Hvannasund",
   "Accuracy": 4,
   "LatLong": "62.3,-6.5"
  },
  {
   "Name": "Vidareidi",
   "Accuracy": 4,
   "LatLong": "62.3667,-6.5333"
  },
  {
   "Name": "Svinoy",
   "Accuracy": 4,
   "LatLong": "62.2833,-6.3333"
  },
  {
   "Name": "Kirkja",
   "Accuracy": 4,
   "LatLong": "62.3167,-6.3"
  },
  {
   "Name": "Hattarvik",
   "Accuracy": 4,
   "LatLong": "62.3333,-6.25"
  },
  {
   "Name": "Kunoy",
   "Accuracy": 4,
   "LatLong": "62.2833,-6.6667"
  },
  {
   "Name": "Haraldssund",
   "Accuracy": 4,
   "LatLong": "62.2667,-6.6"
  },
  {
   "Name": "Sydradalur, Kalsoy",
   "Accuracy": 1,
   "LatLong": "62.3222,-6.7389"
  },
  {
   "Name": "Húsar",
   "Accuracy": 4,
   "LatLong": "62.2667,-6.6833"
  },
  {
   "Name": "Mikladalur",
   "Accuracy": 4,
   "LatLong": "62.3333,-6.75"
  },
  {
   "Name": "Trøllanes",
   "Accuracy": 4,
   "LatLong": "62.3667,-6.7833"
  },
  {
   "Name": "Tvøroyri",
   "Accuracy": 4,
   "LatLong": "61.5556,-6.8111"
  },
  {
   "Name": "Tvøroyri",
   "Accuracy": 4,
   "LatLong": "61.5556,-6.8111"
  },
  {
   "Name": "Frodba",
   "Accuracy": 4,
   "LatLong": "61.55,-6.7667"
  },
  {
   "Name": "Trongisvágur",
   "Accuracy": 4,
   "LatLong": "61.5667,-6.8333"
  },
  {
   "Name": "Øravik",
   "Accuracy": 4,
   "LatLong": "61.5333,-6.8"
  },
  {
   "Name": "Hvalba",
   "Accuracy": 4,
   "LatLong": "61.6,-6.95"
  },
  {
   "Name": "Sandvik",
   "Accuracy": 4,
   "LatLong": "61.6333,-6.9167"
  },
  {
   "Name": "Fámjin",
   "Accuracy": 4,
   "LatLong": "61.5167,-6.8667"
  },
  {
   "Name": "Vágur",
   "Accuracy": 4,
   "LatLong": "61.4732,-6.8118"
  },
  {
   "Name": "Vágur",
   "Accuracy": 4,
   "LatLong": "61.4732,-6.8118"
  },
  {
   "Name": "Nes, Vágur",
   "Accuracy": 1,
   "LatLong": "61.4389,-6.7444"
  },
  {
   "Name": "Lopra",
   "Accuracy": 4,
   "LatLong": "61.4333,-6.7667"
  },
  {
   "Name": "Akrar",
   "Accuracy": 4,
   "LatLong": "61.45,-6.75"
  },
  {
   "Name": "Vikarbyrgi",
   "Accuracy": 4,
   "LatLong": "61.4333,-6.7167"
  },
  {
   "Name": "Porkeri",
   "Accuracy": 4,
   "LatLong": "61.4833,-6.7333"
  },
  {
   "Name": "Hov",
   "Accuracy": 4,
   "LatLong": "61.5167,-6.7333"
  },
  {
   "Name": "Sumba",
   "Accuracy": 4,
   "LatLong": "61.4,-6.7"
  }
 ]
}