{
 "Structure": "State/Province/Community/Place",
 "States": [
  {
   "Name": "England",
   "Code": "ENG",
   "Provinces": [
    {
     "Name": "East Riding of Yorkshire",
     "Code": "11609011",
     "Communities": [
      {
       "Places": [
        {
         "Name": "Laxton",
         "PostCode": "DN14",
         "Accuracy": 4,
         "LatLong": "53.7167,-0.8"
        },
        {
         "Name": "Hook",
         "PostCode": "DN14",
         "Accuracy": 4,
         "LatLong": "53.7205,-0.8479"
        },
        {
         "Name": "Asselby",
         "PostCode": "DN14",
         "Accuracy": 4,
         "LatLong": "53.7427,-0.8849"
        },
        {
         "Name": "Swinefleet",
         "PostCode": "DN14",
         "Accuracy": 4,
         "LatLong": "53.6921,-0.8333"
        },
        {
         "Name": "Airmyn",
         "PostCode": "DN14",
         "Accuracy": 4,
         "LatLong": "53.7207,-0.8996"
        },
        {
         "Name": "Rawcliffe Bridge",
         "PostCode": "DN14",
         "Accuracy": 3,
         "LatLong": "53.7125,-0.8909"
        },
        {
         "Name": "Blacktoft",
         "PostCode": "DN14",
         "Accuracy": 4,
         "LatLong": "53.708,-0.7273"
        },
        {
         "Name": "Ousefleet",
         "PostCode": "DN14",
         "Accuracy": 4,
         "LatLong": "53.6982,-0.7409"
        },
        {
         "Name": "Snaith",
         "PostCode": "DN14",
         "Accuracy": 4,
         "LatLong": "53.6911,-1.0286"
        },
        {
         "Name": "Yokefleet",
         "PostCode": "DN14",
         "Accuracy": 4,
         "LatLong": "53.708,-0.7574"
        },
        {
         "Name": "Knedlington",
         "PostCode": "DN14",
         "Accuracy": 4,
         "LatLong": "53.7427,-0.8849"
        },
        {
         "Name": "Bellasize",
         "PostCode": "DN14",
         "Accuracy": 3,
         "LatLong": "53.7125,-0.8909"
        },
        {
         "Name": "Whitgift",
         "PostCode": "DN14",
         "Accuracy": 4,
         "LatLong": "53.6953,-0.7671"
        },
        {
         "Name": "East Cowick",
         "PostCode": "DN14",
         "Accuracy": 3,
         "LatLong": "53.7125,-0.8909"
        },
        {
         "Name": "Barmby on the Marsh",
         "PostCode": "DN14",
         "Accuracy": 4,
         "LatLong": "53.749,-0.9561"
        },
        {
         "Name": "Gowdall",
         "PostCode": "DN14",
         "Accuracy": 3,
         "LatLong": "53.693,-1.0597"
        },
        {
         "Name": "Howden",
         "PostCode": "DN14",
         "Accuracy": 4,
         "LatLong": "53.7421,-0.8657"
        },
        {
         "Name": "Newsholme",
         "PostCode": "DN14",
         "Accuracy": 3,
         "LatLong": "53.7125,-0.8909"
        },
        {
         "Name": "Adlingfleet",
         "PostCode": "DN14",
         "Accuracy": 4,
         "LatLong": "53.6788,-0.7231"
        },
        {
         "Name": "Gribthorpe",
         "PostCode": "DN14",
         "Accuracy": 3,
         "LatLong": "53.7125,-0.8909"
        },
        {
         "Name": "Eastrington",
         "PostCode": "DN14",
         "Accuracy": 4,
         "LatLong": "53.7604,-0.7932"
        },
        {
         "Name": "Low Eggborough",
         "PostCode": "DN14",
         "Accuracy": 3,
         "LatLong": "53.7125,-0.8909"
        },
        {
         "Name": "Goole",
         "PostCode": "DN14",
         "Accuracy": 4,
         "LatLong": "53.7167,-0.8667"
        },
        {
         "Name": "Old Goole",
         "PostCode": "DN14",
         "Accuracy": 3,
         "LatLong": "53.7125,-0.8909"
        },
        {
         "Name": "Pollington",
         "PostCode": "DN14",
         "Accuracy": 4,
         "LatLong": "53.6709,-1.0724"
        },
        {
         "Name": "Balkholme",
         "PostCode": "DN14",
         "Accuracy": 4,
         "LatLong": "53.7432,-0.8087"
        },
        {
         "Name": "Skelton",
         "PostCode": "DN14",
         "Accuracy": 4,
         "LatLong": "53.7167,-0.8333"
        },
        {
         "Name": "Faxfleet",
         "PostCode": "DN14",
         "Accuracy": 4,
         "LatLong": "53.7067,-0.6939"
        },
        {
         "Name": "Spaldington",
         "PostCode": "DN14",
         "Accuracy": 4,
         "LatLong": "53.7927,-0.849"
        },
        {
         "Name": "Saltmarshe",
         "PostCode": "DN14",
         "Accuracy": 4,
         "LatLong": "53.7216,-0.8049"
        },
        {
         "Name": "Reedness",
         "PostCode": "DN14",
         "Accuracy": 4,
         "LatLong": "53.6993,-0.7986"
        },
        {
         "Name": "Kilpin",
         "PostCode": "DN14",
         "Accuracy": 4,
         "LatLong": "53.7316,-0.8312"
        },
        {
         "Name": "Rawcliffe",
         "PostCode": "DN14",
         "Accuracy": 4,
         "LatLong": "53.6833,-0.95"
        },
        {
         "Name": "Kingston upon Hull",
         "PostCode": "HU1",
         "Accuracy": 4,
         "LatLong": "53.7446,-0.3353"
        },
        {
         "Name": "Anlaby",
         "PostCode": "HU10",
         "Accuracy": 4,
         "LatLong": "53.7512,-0.4417"
        },
        {
         "Name": "Willerby",
         "PostCode": "HU10",
         "Accuracy": 4,
         "LatLong": "53.761,-0.4419"
        },
        {
         "Name": "Kirk Ella",
         "PostCode": "HU10",
         "Accuracy": 4,
         "LatLong": "53.754,-0.4549"
        },
        {
         "Name": "Withernwick",
         "PostCode": "HU11",
         "Accuracy": 4,
         "LatLong": "53.8489,-0.1874"
        },
        {
         "Name": "Flinton",
         "PostCode": "HU11",
         "Accuracy": 4,
         "LatLong": "53.8078,-0.148"
        },
        {
         "Name": "Garton",
         "PostCode": "HU11",
         "Accuracy": 4,
         "LatLong": "53.8003,-0.0829"
        },
        {
         "Name": "Aldbrough",
         "PostCode": "HU11",
         "Accuracy": 4,
         "LatLong": "53.8289,-0.1147"
        },
        {
         "Name": "Sproatley",
         "PostCode": "HU11",
         "Accuracy": 4,
         "LatLong": "53.7938,-0.1913"
        },
        {
         "Name": "Long Riston",
         "PostCode": "HU11",
         "Accuracy": 4,
         "LatLong": "53.865,-0.2889"
        },
        {
         "Name": "Sigglesthorne",
         "PostCode": "HU11",
         "Accuracy": 4,
         "LatLong": "53.8983,-0.2438"
        },
        {
         "Name": "Rise",
         "PostCode": "HU11",
         "Accuracy": 4,
         "LatLong": "53.863,-0.2463"
        },
        {
         "Name": "Swine",
         "PostCode": "HU11",
         "Accuracy": 4,
         "LatLong": "53.8063,-0.2759"
        },
        {
         "Name": "Ganstead",
         "PostCode": "HU11",
         "Accuracy": 3,
         "LatLong": "53.8273,-0.2206"
        },
        {
         "Name": "Great Cowden",
         "PostCode": "HU11",
         "Accuracy": 4,
         "LatLong": "53.8655,-0.1348"
        },
        {
         "Name": "South Skirlaugh",
         "PostCode": "HU11",
         "Accuracy": 3,
         "LatLong": "53.8273,-0.2206"
        },
        {
         "Name": "Humbleton",
         "PostCode": "HU11",
         "Accuracy": 4,
         "LatLong": "53.7833,-0.15"
        },
        {
         "Name": "Bilton",
         "PostCode": "HU11",
         "Accuracy": 4,
         "LatLong": "53.7814,-0.2406"
        },
        {
         "Name": "Old Ellerby",
         "PostCode": "HU11",
         "Accuracy": 3,
         "LatLong": "53.8273,-0.2206"
        },
        {
         "Name": "New Ellerby",
         "PostCode": "HU11",
         "Accuracy": 3,
         "LatLong": "53.8273,-0.2206"
        },
        {
         "Name": "Marton",
         "PostCode": "HU11",
         "Accuracy": 4,
         "LatLong": "53.8273,-0.2206"
        },
        {
         "Name": "Goxhill",
         "PostCode": "HU11",
         "Accuracy": 4,
         "LatLong": "53.8273,-0.2206"
        },
        {
         "Name": "Coniston",
         "PostCode": "HU11",
         "Accuracy": 4,
         "LatLong": "53.7991,-0.2462"
        },
        {
         "Name": "Seaton",
         "PostCode": "HU11",
         "Accuracy": 4,
         "LatLong": "53.9072,-0.2349"
        },
        {
         "Name": "West Newton",
         "PostCode": "HU11",
         "Accuracy": 3,
         "LatLong": "53.8273,-0.2206"
        },
        {
         "Name": "Great Hatfield",
         "PostCode": "HU11",
         "Accuracy": 3,
         "LatLong": "53.8273,-0.2206"
        },
        {
         "Name": "Welwick",
         "PostCode": "HU12",
         "Accuracy": 4,
         "LatLong": "53.6682,0.0316"
        },
        {
         "Name": "Burstwick",
         "PostCode": "HU12",
         "Accuracy": 4,
         "LatLong": "53.7321,-0.1396"
        },
        {
         "Name": "Keyingham",
         "PostCode": "HU12",
         "Accuracy": 4,
         "LatLong": "53.7096,-0.1133"
        },
        {
         "Name": "Patrington",
         "PostCode": "HU12",
         "Accuracy": 4,
         "LatLong": "53.6839,-0.0133"
        },
        {
         "Name": "Roos",
         "PostCode": "HU12",
         "Accuracy": 4,
         "LatLong": "53.7529,-0.0446"
        },
        {
         "Name": "Sunk Island",
         "PostCode": "HU12",
         "Accuracy": 4,
         "LatLong": "53.6517,-0.0841"
        },
        {
         "Name": "Easington",
         "PostCode": "HU12",
         "Accuracy": 4,
         "LatLong": "53.6536,0.115"
        },
        {
         "Name": "Hedon",
         "PostCode": "HU12",
         "Accuracy": 4,
         "LatLong": "53.7396,-0.1966"
        },
        {
         "Name": "Ottringham",
         "PostCode": "HU12",
         "Accuracy": 4,
         "LatLong": "53.7009,-0.0791"
        },
        {
         "Name": "Halsham",
         "PostCode": "HU12",
         "Accuracy": 4,
         "LatLong": "53.7299,-0.0745"
        },
        {
         "Name": "Tunstall",
         "PostCode": "HU12",
         "Accuracy": 4,
         "LatLong": "53.7688,-0.0201"
        },
        {
         "Name": "Burton Pidsea",
         "PostCode": "HU12",
         "Accuracy": 4,
         "LatLong": "53.7633,-0.107"
        },
        {
         "Name": "Paull",
         "PostCode": "HU12",
         "Accuracy": 4,
         "LatLong": "53.7201,-0.233"
        },
        {
         "Name": "Skeffling",
         "PostCode": "HU12",
         "Accuracy": 4,
         "LatLong": "53.6536,0.0738"
        },
        {
         "Name": "Wadworth Hill",
         "PostCode": "HU12",
         "Accuracy": 3,
         "LatLong": "53.716,-0.1398"
        },
        {
         "Name": "Winestead",
         "PostCode": "HU12",
         "Accuracy": 4,
         "LatLong": "53.702,-0.0327"
        },
        {
         "Name": "Thorngumbald",
         "PostCode": "HU12",
         "Accuracy": 4,
         "LatLong": "53.721,-0.1717"
        },
        {
         "Name": "Weeton",
         "PostCode": "HU12",
         "Accuracy": 4,
         "LatLong": "53.7244,-0.1277"
        },
        {
         "Name": "Preston",
         "PostCode": "HU12",
         "Accuracy": 3,
         "LatLong": "53.7509,-0.2072"
        },
        {
         "Name": "Kilnsea",
         "PostCode": "HU12",
         "Accuracy": 4,
         "LatLong": "53.7244,-0.1277"
        },
        {
         "Name": "Lelley",
         "PostCode": "HU12",
         "Accuracy": 3,
         "LatLong": "53.716,-0.1398"
        },
        {
         "Name": "Owstwick",
         "PostCode": "HU12",
         "Accuracy": 3,
         "LatLong": "53.716,-0.1398"
        },
        {
         "Name": "Haven Side",
         "PostCode": "HU12",
         "Accuracy": 3,
         "LatLong": "53.716,-0.1398"
        },
        {
         "Name": "Elstronwick",
         "PostCode": "HU12",
         "Accuracy": 3,
         "LatLong": "53.7695,-0.139"
        },
        {
         "Name": "Old Hall",
         "PostCode": "HU12",
         "Accuracy": 3,
         "LatLong": "53.716,-0.1398"
        },
        {
         "Name": "Hessle",
         "PostCode": "HU13",
         "Accuracy": 4,
         "LatLong": "53.7245,-0.4384"
        },
        {
         "Name": "North Ferriby",
         "PostCode": "HU14",
         "Accuracy": 4,
         "LatLong": "53.7212,-0.5052"
        },
        {
         "Name": "Swanland",
         "PostCode": "HU14",
         "Accuracy": 4,
         "LatLong": "53.7373,-0.4917"
        },
        {
         "Name": "West Ella",
         "PostCode": "HU14",
         "Accuracy": 3,
         "LatLong": "53.7293,-0.4984"
        },
        {
         "Name": "Scalby",
         "PostCode": "HU15",
         "Accuracy": 4,
         "LatLong": "53.7667,-0.7167"
        },
        {
         "Name": "Sandholme",
         "PostCode": "HU15",
         "Accuracy": 4,
         "LatLong": "53.7662,-0.7455"
        },
        {
         "Name": "Brantingham",
         "PostCode": "HU15",
         "Accuracy": 4,
         "LatLong": "53.7518,-0.577"
        },
        {
         "Name": "Broomfleet",
         "PostCode": "HU15",
         "Accuracy": 4,
         "LatLong": "53.7333,-0.6667"
        },
        {
         "Name": "Everthorpe",
         "PostCode": "HU15",
         "Accuracy": 4,
         "LatLong": "53.7686,-0.6369"
        },
        {
         "Name": "Ellerker",
         "PostCode": "HU15",
         "Accuracy": 4,
         "LatLong": "53.7532,-0.6042"
        },
        {
         "Name": "South Cave",
         "PostCode": "HU15",
         "Accuracy": 4,
         "LatLong": "53.7699,-0.6011"
        },
        {
         "Name": "Gilberdyke",
         "PostCode": "HU15",
         "Accuracy": 4,
         "LatLong": "53.7439,-0.7324"
        },
        {
         "Name": "Elloughton",
         "PostCode": "HU15",
         "Accuracy": 4,
         "LatLong": "53.7378,-0.5699"
        },
        {
         "Name": "Staddlethorpe",
         "PostCode": "HU15",
         "Accuracy": 4,
         "LatLong": "53.7439,-0.7324"
        },
        {
         "Name": "Welton",
         "PostCode": "HU15",
         "Accuracy": 4,
         "LatLong": "53.7321,-0.5523"
        },
        {
         "Name": "Newport",
         "PostCode": "HU15",
         "Accuracy": 4,
         "LatLong": "53.7633,-0.6999"
        },
        {
         "Name": "Brough",
         "PostCode": "HU15",
         "Accuracy": 4,
         "LatLong": "53.7481,-0.6189"
        },
        {
         "Name": "North Cave",
         "PostCode": "HU15",
         "Accuracy": 4,
         "LatLong": "53.7801,-0.6497"
        },
        {
         "Name": "Riplingham",
         "PostCode": "HU15",
         "Accuracy": 3,
         "LatLong": "53.7508,-0.6477"
        },
        {
         "Name": "Skidby",
         "PostCode": "HU16",
         "Accuracy": 4,
         "LatLong": "53.7892,-0.4613"
        },
        {
         "Name": "Cottingham",
         "PostCode": "HU16",
         "Accuracy": 4,
         "LatLong": "53.7806,-0.4154"
        },
        {
         "Name": "Eppleworth",
         "PostCode": "HU16",
         "Accuracy": 3,
         "LatLong": "53.7849,-0.4384"
        },
        {
         "Name": "Catwick",
         "PostCode": "HU17",
         "Accuracy": 4,
         "LatLong": "53.8921,-0.2782"
        },
        {
         "Name": "Tickton",
         "PostCode": "HU17",
         "Accuracy": 4,
         "LatLong": "53.8623,-0.3833"
        },
        {
         "Name": "Cherry Burton",
         "PostCode": "HU17",
         "Accuracy": 4,
         "LatLong": "53.8667,-0.5"
        },
        {
         "Name": "Routh",
         "PostCode": "HU17",
         "Accuracy": 4,
         "LatLong": "53.8696,-0.3438"
        },
        {
         "Name": "Leconfield",
         "PostCode": "HU17",
         "Accuracy": 4,
         "LatLong": "53.8773,-0.4573"
        },
        {
         "Name": "Etton",
         "PostCode": "HU17",
         "Accuracy": 4,
         "LatLong": "53.8667,-0.5167"
        },
        {
         "Name": "Beverley",
         "PostCode": "HU17",
         "Accuracy": 4,
         "LatLong": "53.8459,-0.4233"
        },
        {
         "Name": "Walkington",
         "PostCode": "HU17",
         "Accuracy": 4,
         "LatLong": "53.8195,-0.4896"
        },
        {
         "Name": "South Dalton",
         "PostCode": "HU17",
         "Accuracy": 4,
         "LatLong": "53.8955,-0.5301"
        },
        {
         "Name": "Arram",
         "PostCode": "HU17",
         "Accuracy": 4,
         "LatLong": "53.8846,-0.4269"
        },
        {
         "Name": "Woodmansey",
         "PostCode": "HU17",
         "Accuracy": 3,
         "LatLong": "53.8284,-0.4227"
        },
        {
         "Name": "Leven",
         "PostCode": "HU17",
         "Accuracy": 4,
         "LatLong": "53.8833,-0.3167"
        },
        {
         "Name": "Thearne",
         "PostCode": "HU17",
         "Accuracy": 3,
         "LatLong": "53.8622,-0.4318"
        },
        {
         "Name": "Bishop Burton",
         "PostCode": "HU17",
         "Accuracy": 4,
         "LatLong": "53.8456,-0.4981"
        },
        {
         "Name": "Little Catwick",
         "PostCode": "HU17",
         "Accuracy": 3,
         "LatLong": "53.8622,-0.4318"
        },
        {
         "Name": "Moles-croft",
         "PostCode": "HU17",
         "Accuracy": 3,
         "LatLong": "53.8622,-0.4318"
        },
        {
         "Name": "Bentley",
         "PostCode": "HU17",
         "Accuracy": 4,
         "LatLong": "53.8471,-0.4278"
        },
        {
         "Name": "Holme on the Wolds",
         "PostCode": "HU17",
         "Accuracy": 3,
         "LatLong": "53.8622,-0.4318"
        },
        {
         "Name": "Gardham",
         "PostCode": "HU17",
         "Accuracy": 3,
         "LatLong": "53.8622,-0.4318"
        },
        {
         "Name": "Hornsea",
         "PostCode": "HU18",
         "Accuracy": 4,
         "LatLong": "53.9104,-0.1681"
        },
        {
         "Name": "Mappleton",
         "PostCode": "HU18",
         "Accuracy": 4,
         "LatLong": "53.8769,-0.1366"
        },
        {
         "Name": "Rolston",
         "PostCode": "HU18",
         "Accuracy": 3,
         "LatLong": "53.8936,-0.1523"
        },
        {
         "Name": "Out Newton",
         "PostCode": "HU19",
         "Accuracy": 4,
         "LatLong": "53.6757,0.0906"
        },
        {
         "Name": "Holmpton",
         "PostCode": "HU19",
         "Accuracy": 4,
         "LatLong": "53.6877,0.0658"
        },
        {
         "Name": "Hollym",
         "PostCode": "HU19",
         "Accuracy": 4,
         "LatLong": "53.704,0.0401"
        },
        {
         "Name": "Waxholme",
         "PostCode": "HU19",
         "Accuracy": 4,
         "LatLong": "53.7411,0.0089"
        },
        {
         "Name": "Rimswell",
         "PostCode": "HU19",
         "Accuracy": 4,
         "LatLong": "53.7232,0.0346"
        },
        {
         "Name": "Withernsea",
         "PostCode": "HU19",
         "Accuracy": 4,
         "LatLong": "53.7311,0.0335"
        },
        {
         "Name": "Hull",
         "PostCode": "HU2",
         "Accuracy": 4,
         "LatLong": "53.7446,-0.3353"
        },
        {
         "Name": "Little Weighton",
         "PostCode": "HU20",
         "Accuracy": 4,
         "LatLong": "53.7902,-0.5068"
        },
        {
         "Name": "Rowley",
         "PostCode": "HU20",
         "Accuracy": 3,
         "LatLong": "53.7902,-0.5068"
        },
        {
         "Name": "Hull",
         "PostCode": "HU3",
         "Accuracy": 4,
         "LatLong": "53.7446,-0.3353"
        },
        {
         "Name": "Hull",
         "PostCode": "HU4",
         "Accuracy": 4,
         "LatLong": "53.7446,-0.3353"
        },
        {
         "Name": "Hull",
         "PostCode": "HU5",
         "Accuracy": 4,
         "LatLong": "53.7603,-0.3758"
        },
        {
         "Name": "Dunswell",
         "PostCode": "HU6",
         "Accuracy": 4,
         "LatLong": "53.8011,-0.3714"
        },
        {
         "Name": "Wawne",
         "PostCode": "HU7",
         "Accuracy": 4,
         "LatLong": "53.8171,-0.3484"
        },
        {
         "Name": "Sutton-on-Hull",
         "PostCode": "HU7",
         "Accuracy": 4,
         "LatLong": "53.7799,-0.305"
        },
        {
         "Name": "Stoneferry",
         "PostCode": "HU7",
         "Accuracy": 3,
         "LatLong": "53.7985,-0.3267"
        },
        {
         "Name": "Hull",
         "PostCode": "HU8",
         "Accuracy": 4,
         "LatLong": "53.7693,-0.2998"
        },
        {
         "Name": "Marfleet",
         "PostCode": "HU9",
         "Accuracy": 4,
         "LatLong": "53.7495,-0.2726"
        },
        {
         "Name": "Sewerby",
         "PostCode": "YO15",
         "Accuracy": 3,
         "LatLong": "54.0939,-0.1808"
        },
        {
         "Name": "Bempton",
         "PostCode": "YO15",
         "Accuracy": 4,
         "LatLong": "54.1304,-0.1785"
        },
        {
         "Name": "Flamborough",
         "PostCode": "YO15",
         "Accuracy": 4,
         "LatLong": "54.1149,-0.1227"
        },
        {
         "Name": "Hilderthorpe",
         "PostCode": "YO15",
         "Accuracy": 3,
         "LatLong": "54.0939,-0.1808"
        },
        {
         "Name": "Fraisthorpe",
         "PostCode": "YO15",
         "Accuracy": 4,
         "LatLong": "54.0365,-0.2413"
        },
        {
         "Name": "Buckton",
         "PostCode": "YO15",
         "Accuracy": 3,
         "LatLong": "54.0939,-0.1808"
        },
        {
         "Name": "Grindale",
         "PostCode": "YO16",
         "Accuracy": 4,
         "LatLong": "54.1245,-0.2736"
        },
        {
         "Name": "Bridlington",
         "PostCode": "YO16",
         "Accuracy": 4,
         "LatLong": "54.0831,-0.1919"
        },
        {
         "Name": "Boynton",
         "PostCode": "YO16",
         "Accuracy": 4,
         "LatLong": "54.0975,-0.2648"
        },
        {
         "Name": "Carnaby",
         "PostCode": "YO16",
         "Accuracy": 4,
         "LatLong": "54.0726,-0.2493"
        },
        {
         "Name": "Bessingby",
         "PostCode": "YO16",
         "Accuracy": 4,
         "LatLong": "54.0763,-0.2302"
        },
        {
         "Name": "Watton",
         "PostCode": "YO25",
         "Accuracy": 4,
         "LatLong": "53.9333,-0.45"
        },
        {
         "Name": "Beeford",
         "PostCode": "YO25",
         "Accuracy": 4,
         "LatLong": "53.97,-0.2891"
        },
        {
         "Name": "Ulrome",
         "PostCode": "YO25",
         "Accuracy": 4,
         "LatLong": "53.992,-0.2297"
        },
        {
         "Name": "Ruston Parva",
         "PostCode": "YO25",
         "Accuracy": 4,
         "LatLong": "54.0437,-0.3778"
        },
        {
         "Name": "Foston on the Wolds",
         "PostCode": "YO25",
         "Accuracy": 4,
         "LatLong": "53.9822,-0.328"
        },
        {
         "Name": "Sledmere",
         "PostCode": "YO25",
         "Accuracy": 4,
         "LatLong": "54.0714,-0.5766"
        },
        {
         "Name": "Garton-on-the-Wolds",
         "PostCode": "YO25",
         "Accuracy": 4,
         "LatLong": "54.021,-0.5028"
        },
        {
         "Name": "Atwick",
         "PostCode": "YO25",
         "Accuracy": 4,
         "LatLong": "53.9401,-0.189"
        },
        {
         "Name": "Thwing",
         "PostCode": "YO25",
         "Accuracy": 4,
         "LatLong": "54.1155,-0.3895"
        },
        {
         "Name": "Lockington",
         "PostCode": "YO25",
         "Accuracy": 4,
         "LatLong": "53.9141,-0.4857"
        },
        {
         "Name": "Burton Agnes",
         "PostCode": "YO25",
         "Accuracy": 4,
         "LatLong": "54.0514,-0.3156"
        },
        {
         "Name": "Kilham",
         "PostCode": "YO25",
         "Accuracy": 4,
         "LatLong": "54.05,-0.3667"
        },
        {
         "Name": "Rudston",
         "PostCode": "YO25",
         "Accuracy": 4,
         "LatLong": "54.0909,-0.3282"
        },
        {
         "Name": "Wetwang",
         "PostCode": "YO25",
         "Accuracy": 4,
         "LatLong": "54.0175,-0.5774"
        },
        {
         "Name": "North Dalton",
         "PostCode": "YO25",
         "Accuracy": 4,
         "LatLong": "53.9572,-0.5759"
        },
        {
         "Name": "Skipsea",
         "PostCode": "YO25",
         "Accuracy": 4,
         "LatLong": "53.9767,-0.2208"
        },
        {
         "Name": "Beswick",
         "PostCode": "YO25",
         "Accuracy": 4,
         "LatLong": "53.9326,-0.4809"
        },
        {
         "Name": "Fridaythorpe",
         "PostCode": "YO25",
         "Accuracy": 4,
         "LatLong": "54.0201,-0.6653"
        },
        {
         "Name": "Nafferton",
         "PostCode": "YO25",
         "Accuracy": 4,
         "LatLong": "54.0196,-0.3919"
        },
        {
         "Name": "Wansford",
         "PostCode": "YO25",
         "Accuracy": 4,
         "LatLong": "53.9947,-0.3815"
        },
        {
         "Name": "Lowthorpe",
         "PostCode": "YO25",
         "Accuracy": 4,
         "LatLong": "54.0283,-0.3496"
        },
        {
         "Name": "Burshill",
         "PostCode": "YO25",
         "Accuracy": 4,
         "LatLong": "53.9167,-0.3333"
        },
        {
         "Name": "Kilnwick",
         "PostCode": "YO25",
         "Accuracy": 4,
         "LatLong": "53.9326,-0.4809"
        },
        {
         "Name": "Harpham",
         "PostCode": "YO25",
         "Accuracy": 4,
         "LatLong": "54.039,-0.3269"
        },
        {
         "Name": "Rotsea",
         "PostCode": "YO25",
         "Accuracy": 4,
         "LatLong": "53.9512,-0.3783"
        },
        {
         "Name": "Brandesburton",
         "PostCode": "YO25",
         "Accuracy": 4,
         "LatLong": "53.9111,-0.3012"
        },
        {
         "Name": "Hutton Cranswick",
         "PostCode": "YO25",
         "Accuracy": 4,
         "LatLong": "53.9512,-0.3783"
        },
        {
         "Name": "Tibthorpe",
         "PostCode": "YO25",
         "Accuracy": 4,
         "LatLong": "53.9866,-0.5369"
        },
        {
         "Name": "Fordon",
         "PostCode": "YO25",
         "Accuracy": 4,
         "LatLong": "54.15,-0.3833"
        },
        {
         "Name": "Barmston",
         "PostCode": "YO25",
         "Accuracy": 4,
         "LatLong": "54.0141,-0.2286"
        },
        {
         "Name": "Great Driffield",
         "PostCode": "YO25",
         "Accuracy": 3,
         "LatLong": "53.9377,-0.4425"
        },
        {
         "Name": "Brigham",
         "PostCode": "YO25",
         "Accuracy": 4,
         "LatLong": "53.9667,-0.35"
        },
        {
         "Name": "Aike",
         "PostCode": "YO25",
         "Accuracy": 3,
         "LatLong": "53.9377,-0.4425"
        },
        {
         "Name": "Southburn",
         "PostCode": "YO25",
         "Accuracy": 4,
         "LatLong": "53.9762,-0.4927"
        },
        {
         "Name": "Little Burton",
         "PostCode": "YO25",
         "Accuracy": 3,
         "LatLong": "53.9377,-0.4425"
        },
        {
         "Name": "Fimber",
         "PostCode": "YO25",
         "Accuracy": 4,
         "LatLong": "54.0333,-0.633"
        },
        {
         "Name": "Church End",
         "PostCode": "YO25",
         "Accuracy": 4,
         "LatLong": "54.0044,-0.4154"
        },
        {
         "Name": "Burton Fleming",
         "PostCode": "YO25",
         "Accuracy": 4,
         "LatLong": "54.1356,-0.3409"
        },
        {
         "Name": "Kelleythorpe",
         "PostCode": "YO25",
         "Accuracy": 3,
         "LatLong": "53.9377,-0.4425"
        },
        {
         "Name": "Dunnington",
         "PostCode": "YO25",
         "Accuracy": 4,
         "LatLong": "53.95,-0.25"
        },
        {
         "Name": "North Frodingham",
         "PostCode": "YO25",
         "Accuracy": 4,
         "LatLong": "53.9595,-0.3239"
        },
        {
         "Name": "Lund",
         "PostCode": "YO25",
         "Accuracy": 4,
         "LatLong": "53.9192,-0.5221"
        },
        {
         "Name": "Eastburn",
         "PostCode": "YO25",
         "Accuracy": 3,
         "LatLong": "53.9377,-0.4425"
        },
        {
         "Name": "Kirkburn",
         "PostCode": "YO25",
         "Accuracy": 4,
         "LatLong": "53.9834,-0.504"
        },
        {
         "Name": "Cowlam Manor",
         "PostCode": "YO25",
         "Accuracy": 3,
         "LatLong": "53.9377,-0.4425"
        },
        {
         "Name": "Bainton",
         "PostCode": "YO25",
         "Accuracy": 4,
         "LatLong": "53.95,-0.5333"
        },
        {
         "Name": "Wold Newton",
         "PostCode": "YO25",
         "Accuracy": 4,
         "LatLong": "54.1333,-0.4"
        },
        {
         "Name": "Old Sunderlandwick",
         "PostCode": "YO25",
         "Accuracy": 3,
         "LatLong": "53.9377,-0.4425"
        },
        {
         "Name": "Middleton-on-the-Wolds",
         "PostCode": "YO25",
         "Accuracy": 4,
         "LatLong": "53.9335,-0.5609"
        },
        {
         "Name": "Gembling",
         "PostCode": "YO25",
         "Accuracy": 3,
         "LatLong": "53.9377,-0.4425"
        },
        {
         "Name": "Little Driffield",
         "PostCode": "YO25",
         "Accuracy": 4,
         "LatLong": "54.0022,-0.4661"
        },
        {
         "Name": "Haisthorpe",
         "PostCode": "YO25",
         "Accuracy": 3,
         "LatLong": "53.9377,-0.4425"
        },
        {
         "Name": "Lissett",
         "PostCode": "YO25",
         "Accuracy": 4,
         "LatLong": "54.0053,-0.2516"
        },
        {
         "Name": "Towthorpe",
         "PostCode": "YO25",
         "Accuracy": 3,
         "LatLong": "53.9377,-0.4425"
        },
        {
         "Name": "Skerne",
         "PostCode": "YO25",
         "Accuracy": 4,
         "LatLong": "53.9836,-0.4069"
        },
        {
         "Name": "Octon",
         "PostCode": "YO25",
         "Accuracy": 3,
         "LatLong": "53.9377,-0.4425"
        },
        {
         "Name": "Bewholme",
         "PostCode": "YO25",
         "Accuracy": 4,
         "LatLong": "53.9331,-0.2266"
        },
        {
         "Name": "Great Kelk",
         "PostCode": "YO25",
         "Accuracy": 3,
         "LatLong": "53.9377,-0.4425"
        },
        {
         "Name": "Thornholme",
         "PostCode": "YO25",
         "Accuracy": 3,
         "LatLong": "53.9377,-0.4425"
        },
        {
         "Name": "Langtoft",
         "PostCode": "YO25",
         "Accuracy": 3,
         "LatLong": "54.0883,-0.4583"
        },
        {
         "Name": "Thorpe",
         "PostCode": "YO25",
         "Accuracy": 4,
         "LatLong": "54.0044,-0.4154"
        },
        {
         "Name": "Hempholme",
         "PostCode": "YO25",
         "Accuracy": 3,
         "LatLong": "53.9377,-0.4425"
        },
        {
         "Name": "Gransmoor",
         "PostCode": "YO25",
         "Accuracy": 3,
         "LatLong": "53.9377,-0.4425"
        },
        {
         "Name": "West End",
         "PostCode": "YO25",
         "Accuracy": 3,
         "LatLong": "53.9377,-0.4425"
        },
        {
         "Name": "Swaythorpe",
         "PostCode": "YO25",
         "Accuracy": 3,
         "LatLong": "53.9377,-0.4425"
        },
        {
         "Name": "Elmswell",
         "PostCode": "YO25",
         "Accuracy": 3,
         "LatLong": "53.9377,-0.4425"
        },
        {
         "Name": "Cottam",
         "PostCode": "YO25",
         "Accuracy": 4,
         "LatLong": "54.0732,-0.5082"
        },
        {
         "Name": "Scorborough",
         "PostCode": "YO25",
         "Accuracy": 4,
         "LatLong": "54.0044,-0.4154"
        },
        {
         "Name": "Wilberfoss",
         "PostCode": "YO41",
         "Accuracy": 4,
         "LatLong": "53.9485,-0.8895"
        },
        {
         "Name": "Helmsley",
         "PostCode": "YO41",
         "Accuracy": 4,
         "LatLong": "53.9697,-0.9024"
        },
        {
         "Name": "Skirpenbeck",
         "PostCode": "YO41",
         "Accuracy": 4,
         "LatLong": "54.0039,-0.8621"
        },
        {
         "Name": "Huggate",
         "PostCode": "YO42",
         "Accuracy": 4,
         "LatLong": "53.9855,-0.6567"
        },
        {
         "Name": "Everingham",
         "PostCode": "YO42",
         "Accuracy": 4,
         "LatLong": "53.8738,-0.7802"
        },
        {
         "Name": "Barmby Moor",
         "PostCode": "YO42",
         "Accuracy": 4,
         "LatLong": "53.9308,-0.8152"
        },
        {
         "Name": "Meltonby",
         "PostCode": "YO42",
         "Accuracy": 3,
         "LatLong": "53.9185,-0.7737"
        },
        {
         "Name": "Pocklington",
         "PostCode": "YO42",
         "Accuracy": 4,
         "LatLong": "53.9334,-0.7811"
        },
        {
         "Name": "Melbourne",
         "PostCode": "YO42",
         "Accuracy": 4,
         "LatLong": "53.8875,-0.8593"
        },
        {
         "Name": "Hayton",
         "PostCode": "YO42",
         "Accuracy": 4,
         "LatLong": "53.9,-0.75"
        },
        {
         "Name": "Bielby",
         "PostCode": "YO42",
         "Accuracy": 3,
         "LatLong": "53.8842,-0.7975"
        },
        {
         "Name": "Laytham",
         "PostCode": "YO42",
         "Accuracy": 3,
         "LatLong": "53.9185,-0.7737"
        },
        {
         "Name": "Storwood",
         "PostCode": "YO42",
         "Accuracy": 3,
         "LatLong": "53.9185,-0.7737"
        },
        {
         "Name": "North Newbald",
         "PostCode": "YO43",
         "Accuracy": 4,
         "LatLong": "53.8167,-0.6167"
        },
        {
         "Name": "Shiptonthorpe",
         "PostCode": "YO43",
         "Accuracy": 3,
         "LatLong": "53.8252,-0.6414"
        },
        {
         "Name": "Hotham",
         "PostCode": "YO43",
         "Accuracy": 4,
         "LatLong": "53.7958,-0.6425"
        },
        {
         "Name": "Market Weighton",
         "PostCode": "YO43",
         "Accuracy": 4,
         "LatLong": "53.8631,-0.6651"
        },
        {
         "Name": "Holme-on-Spalding-Moor",
         "PostCode": "YO43",
         "Accuracy": 3,
         "LatLong": "53.8252,-0.6414"
        },
        {
         "Name": "Foggathorpe",
         "PostCode": "YO8",
         "Accuracy": 4,
         "LatLong": "53.8294,-0.8554"
        },
        {
         "Name": "Breighton",
         "PostCode": "YO8",
         "Accuracy": 4,
         "LatLong": "53.7969,-0.9241"
        },
        {
         "Name": "Highfield",
         "PostCode": "YO8",
         "Accuracy": 4,
         "LatLong": "53.8179,-0.9011"
        },
        {
         "Name": "Wressle",
         "PostCode": "YO8",
         "Accuracy": 4,
         "LatLong": "53.7737,-0.9247"
        },
        {
         "Name": "Bubwith",
         "PostCode": "YO8",
         "Accuracy": 4,
         "LatLong": "53.819,-0.9197"
        }
       ]
      }
     ]
    },
    {
     "Name": "Rutland",
     "Code": "11609012",
     "Communities": [
      {
       "Places": [
        {
         "Name": "Ashwell",
         "PostCode": "LE15",
         "Accuracy": 4,
         "LatLong": "52.714,-0.7192"
        },
        {
         "Name": "Seaton",
         "PostCode": "LE15",
         "Accuracy": 4,
         "LatLong": "52.5749,-0.6676"
        },
        {
         "Name": "Market Overton",
         "PostCode": "LE15",
         "Accuracy": 4,
         "LatLong": "52.7381,-0.6863"
        },
        {
         "Name": "Cold Overton",
         "PostCode": "LE15",
         "Accuracy": 3,
         "LatLong": "52.6377,-0.7436"
        },
        {
         "Name": "Exton",
         "PostCode": "LE15",
         "Accuracy": 4,
         "LatLong": "52.6911,-0.6346"
        },
        {
         "Name": "Greetham",
         "PostCode": "LE15",
         "Accuracy": 4,
         "LatLong": "52.7206,-0.6307"
        },
        {
         "Name": "Uppingham",
         "PostCode": "LE15",
         "Accuracy": 4,
         "LatLong": "52.588,-0.7227"
        },
        {
         "Name": "Empingham",
         "PostCode": "LE15",
         "Accuracy": 4,
         "LatLong": "52.6672,-0.596"
        },
        {
         "Name": "Wing",
         "PostCode": "LE15",
         "Accuracy": 4,
         "LatLong": "52.6177,-0.6827"
        },
        {
         "Name": "Brooke",
         "PostCode": "LE15",
         "Accuracy": 4,
         "LatLong": "52.6432,-0.7464"
        },
        {
         "Name": "Manton",
         "PostCode": "LE15",
         "Accuracy": 4,
         "LatLong": "52.6322,-0.7004"
        },
        {
         "Name": "Braunston",
         "PostCode": "LE15",
         "Accuracy": 4,
         "LatLong": "52.6517,-0.7689"
        },
        {
         "Name": "Edith Weston",
         "PostCode": "LE15",
         "Accuracy": 4,
         "LatLong": "52.6379,-0.6319"
        },
        {
         "Name": "Oakham",
         "PostCode": "LE15",
         "Accuracy": 4,
         "LatLong": "52.6667,-0.7333"
        },
        {
         "Name": "Lyddington",
         "PostCode": "LE15",
         "Accuracy": 4,
         "LatLong": "52.5646,-0.7107"
        },
        {
         "Name": "Barrowden",
         "PostCode": "LE15",
         "Accuracy": 4,
         "LatLong": "52.5903,-0.6024"
        },
        {
         "Name": "Clipsham",
         "PostCode": "LE15",
         "Accuracy": 4,
         "LatLong": "52.7361,-0.5655"
        },
        {
         "Name": "Whitwell",
         "PostCode": "LE15",
         "Accuracy": 4,
         "LatLong": "52.6678,-0.6343"
        },
        {
         "Name": "Upper Hambleton",
         "PostCode": "LE15",
         "Accuracy": 4,
         "LatLong": "52.6585,-0.6698"
        },
        {
         "Name": "Ridlington",
         "PostCode": "LE15",
         "Accuracy": 4,
         "LatLong": "52.6134,-0.756"
        },
        {
         "Name": "Belton",
         "PostCode": "LE15",
         "Accuracy": 4,
         "LatLong": "52.6019,-0.795"
        },
        {
         "Name": "North Luffenham",
         "PostCode": "LE15",
         "Accuracy": 4,
         "LatLong": "52.6211,-0.6199"
        },
        {
         "Name": "Langham",
         "PostCode": "LE15",
         "Accuracy": 4,
         "LatLong": "52.6915,-0.7539"
        },
        {
         "Name": "Cottesmore",
         "PostCode": "LE15",
         "Accuracy": 4,
         "LatLong": "52.7138,-0.6633"
        },
        {
         "Name": "South Luffenham",
         "PostCode": "LE15",
         "Accuracy": 4,
         "LatLong": "52.6086,-0.6123"
        },
        {
         "Name": "Morcott",
         "PostCode": "LE15",
         "Accuracy": 4,
         "LatLong": "52.5967,-0.637"
        },
        {
         "Name": "Stretton",
         "PostCode": "LE15",
         "Accuracy": 4,
         "LatLong": "52.7396,-0.5937"
        },
        {
         "Name": "Burley",
         "PostCode": "LE15",
         "Accuracy": 4,
         "LatLong": "52.6851,-0.6961"
        },
        {
         "Name": "Normanton",
         "PostCode": "LE15",
         "Accuracy": 4,
         "LatLong": "52.646,-0.6203"
        },
        {
         "Name": "Barrow",
         "PostCode": "LE15",
         "Accuracy": 4,
         "LatLong": "52.7262,-0.6801"
        },
        {
         "Name": "Whissendine",
         "PostCode": "LE15",
         "Accuracy": 3,
         "LatLong": "52.7187,-0.7786"
        },
        {
         "Name": "Wardley",
         "PostCode": "LE15",
         "Accuracy": 3,
         "LatLong": "52.5934,-0.7721"
        },
        {
         "Name": "Teigh",
         "PostCode": "LE15",
         "Accuracy": 3,
         "LatLong": "52.7351,-0.7242"
        },
        {
         "Name": "Stoke Dry",
         "PostCode": "LE15",
         "Accuracy": 3,
         "LatLong": "52.5637,-0.738"
        },
        {
         "Name": "Lyndon",
         "PostCode": "LE15",
         "Accuracy": 3,
         "LatLong": "52.6294,-0.6574"
        },
        {
         "Name": "Glaston",
         "PostCode": "LE15",
         "Accuracy": 3,
         "LatLong": "52.5949,-0.6762"
        },
        {
         "Name": "Bisbrooke",
         "PostCode": "LE15",
         "Accuracy": 3,
         "LatLong": "52.5869,-0.696"
        },
        {
         "Name": "Thistleton",
         "PostCode": "LE15",
         "Accuracy": 3,
         "LatLong": "52.7514,-0.6484"
        },
        {
         "Name": "Egleton",
         "PostCode": "LE15",
         "Accuracy": 3,
         "LatLong": "52.6572,-0.7068"
        },
        {
         "Name": "Barleythorpe",
         "PostCode": "LE15",
         "Accuracy": 3,
         "LatLong": "52.6791,-0.742"
        },
        {
         "Name": "Ayston",
         "PostCode": "LE15",
         "Accuracy": 3,
         "LatLong": "52.6005,-0.7299"
        },
        {
         "Name": "Thorpe by Water",
         "PostCode": "LE15",
         "Accuracy": 3,
         "LatLong": "52.6377,-0.7436"
        },
        {
         "Name": "Preston",
         "PostCode": "LE15",
         "Accuracy": 4,
         "LatLong": "52.6125,-0.7143"
        },
        {
         "Name": "Marefield",
         "PostCode": "LE15",
         "Accuracy": 4,
         "LatLong": "52.6561,-0.7007"
        },
        {
         "Name": "Pilton",
         "PostCode": "LE15",
         "Accuracy": 4,
         "LatLong": "52.6164,-0.6504"
        },
        {
         "Name": "Ryhall",
         "PostCode": "PE9",
         "Accuracy": 4,
         "LatLong": "52.6859,-0.4685"
        },
        {
         "Name": "Tickencote",
         "PostCode": "PE9",
         "Accuracy": 4,
         "LatLong": "52.675,-0.537"
        },
        {
         "Name": "Pickworth",
         "PostCode": "PE9",
         "Accuracy": 4,
         "LatLong": "52.7131,-0.5332"
        },
        {
         "Name": "Essendine",
         "PostCode": "PE9",
         "Accuracy": 4,
         "LatLong": "52.7019,-0.4525"
        },
        {
         "Name": "Little Casterton",
         "PostCode": "PE9",
         "Accuracy": 3,
         "LatLong": "52.6714,-0.5021"
        },
        {
         "Name": "Ketton",
         "PostCode": "PE9",
         "Accuracy": 4,
         "LatLong": "52.628,-0.5546"
        },
        {
         "Name": "Great Casterton",
         "PostCode": "PE9",
         "Accuracy": 3,
         "LatLong": "52.6736,-0.5209"
        },
        {
         "Name": "Tinwell",
         "PostCode": "PE9",
         "Accuracy": 4,
         "LatLong": "52.6463,-0.515"
        },
        {
         "Name": "Tixover",
         "PostCode": "PE9",
         "Accuracy": 3,
         "LatLong": "52.5996,-0.5568"
        }
       ]
      }
     ]
    },
    {
     "Name": "Shropshire",
     "Code": "11609013",
     "Communities": [
      {
       "Places": [
        {
         "Name": "Woore",
         "PostCode": "CW3",
         "Accuracy": 4,
         "LatLong": "52.977,-2.4024"
        },
        {
         "Name": "Kinlet",
         "PostCode": "DY12",
         "Accuracy": 4,
         "LatLong": "52.4197,-2.4146"
        },
        {
         "Name": "Farlow",
         "PostCode": "DY14",
         "Accuracy": 4,
         "LatLong": "52.4225,-2.5301"
        },
        {
         "Name": "Neen Savage",
         "PostCode": "DY14",
         "Accuracy": 4,
         "LatLong": "52.3932,-2.4792"
        },
        {
         "Name": "Hopton Wafers",
         "PostCode": "DY14",
         "Accuracy": 3,
         "LatLong": "52.3922,-2.5496"
        },
        {
         "Name": "Cleobury Mortimer",
         "PostCode": "DY14",
         "Accuracy": 4,
         "LatLong": "52.3785,-2.482"
        },
        {
         "Name": "Silvington",
         "PostCode": "DY14",
         "Accuracy": 4,
         "LatLong": "52.4167,-2.5667"
        },
        {
         "Name": "Stottesdon",
         "PostCode": "DY14",
         "Accuracy": 3,
         "LatLong": "52.4361,-2.4808"
        },
        {
         "Name": "Doddington",
         "PostCode": "DY14",
         "Accuracy": 4,
         "LatLong": "52.3805,-2.4665"
        },
        {
         "Name": "Milson",
         "PostCode": "DY14",
         "Accuracy": 3,
         "LatLong": "52.355,-2.5296"
        },
        {
         "Name": "Neen Sollars",
         "PostCode": "DY14",
         "Accuracy": 3,
         "LatLong": "52.3467,-2.498"
        },
        {
         "Name": "Llanfair Waterdine",
         "PostCode": "LD7",
         "Accuracy": 4,
         "LatLong": "52.3833,-3.1167"
        },
        {
         "Name": "Panpunton",
         "PostCode": "LD7",
         "Accuracy": 3,
         "LatLong": "52.4105,-3.0078"
        },
        {
         "Name": "Five Turnings",
         "PostCode": "LD7",
         "Accuracy": 3,
         "LatLong": "52.4105,-3.0078"
        },
        {
         "Name": "Dutlas",
         "PostCode": "LD7",
         "Accuracy": 3,
         "LatLong": "52.4105,-3.0078"
        },
        {
         "Name": "Lloyney",
         "PostCode": "LD7",
         "Accuracy": 3,
         "LatLong": "52.4105,-3.0078"
        },
        {
         "Name": "Rhos-y-Meirch",
         "PostCode": "LD7",
         "Accuracy": 3,
         "LatLong": "52.4105,-3.0078"
        },
        {
         "Name": "Pilleth",
         "PostCode": "LD7",
         "Accuracy": 3,
         "LatLong": "52.4105,-3.0078"
        },
        {
         "Name": "Milebrook",
         "PostCode": "LD7",
         "Accuracy": 3,
         "LatLong": "52.4105,-3.0078"
        },
        {
         "Name": "Quabbs",
         "PostCode": "LD7",
         "Accuracy": 3,
         "LatLong": "52.4105,-3.0078"
        },
        {
         "Name": "Stowe",
         "PostCode": "LD7",
         "Accuracy": 4,
         "LatLong": "52.3522,-3.0334"
        },
        {
         "Name": "Battlefield",
         "PostCode": "SY1",
         "Accuracy": 4,
         "LatLong": "52.7234,-2.7415"
        },
        {
         "Name": "Shrewsbury",
         "PostCode": "SY1",
         "Accuracy": 4,
         "LatLong": "52.7101,-2.7521"
        },
        {
         "Name": "Llynclys",
         "PostCode": "SY10",
         "Accuracy": 4,
         "LatLong": "52.8097,-3.0661"
        },
        {
         "Name": "Knockin",
         "PostCode": "SY10",
         "Accuracy": 4,
         "LatLong": "52.7965,-2.9967"
        },
        {
         "Name": "Gobowen",
         "PostCode": "SY10",
         "Accuracy": 4,
         "LatLong": "52.8961,-3.0369"
        },
        {
         "Name": "Kinnerley",
         "PostCode": "SY10",
         "Accuracy": 4,
         "LatLong": "52.7839,-2.9855"
        },
        {
         "Name": "Llanyblodwel",
         "PostCode": "SY10",
         "Accuracy": 4,
         "LatLong": "52.7991,-3.1252"
        },
        {
         "Name": "Trefonen",
         "PostCode": "SY10",
         "Accuracy": 4,
         "LatLong": "52.8333,-3.1"
        },
        {
         "Name": "Selattyn",
         "PostCode": "SY10",
         "Accuracy": 4,
         "LatLong": "52.9,-3.0833"
        },
        {
         "Name": "Maesbury Marsh",
         "PostCode": "SY10",
         "Accuracy": 4,
         "LatLong": "52.8167,-3.0167"
        },
        {
         "Name": "Ball",
         "PostCode": "SY10",
         "Accuracy": 4,
         "LatLong": "52.8167,-3.0333"
        },
        {
         "Name": "Rhydycroesau",
         "PostCode": "SY10",
         "Accuracy": 4,
         "LatLong": "52.8676,-3.1203"
        },
        {
         "Name": "Tyn-y-ffridd",
         "PostCode": "SY10",
         "Accuracy": 3,
         "LatLong": "52.8394,-3.1236"
        },
        {
         "Name": "Pant",
         "PostCode": "SY10",
         "Accuracy": 4,
         "LatLong": "52.7833,-3.0667"
        },
        {
         "Name": "Cefn-coch",
         "PostCode": "SY10",
         "Accuracy": 3,
         "LatLong": "52.8394,-3.1236"
        },
        {
         "Name": "Rhiwlas",
         "PostCode": "SY10",
         "Accuracy": 3,
         "LatLong": "52.8394,-3.1236"
        },
        {
         "Name": "Penygarnedd",
         "PostCode": "SY10",
         "Accuracy": 3,
         "LatLong": "52.8394,-3.1236"
        },
        {
         "Name": "Penisarcwn",
         "PostCode": "SY10",
         "Accuracy": 3,
         "LatLong": "52.8394,-3.1236"
        },
        {
         "Name": "Pencraig",
         "PostCode": "SY10",
         "Accuracy": 3,
         "LatLong": "52.8394,-3.1236"
        },
        {
         "Name": "Preesgweene",
         "PostCode": "SY10",
         "Accuracy": 3,
         "LatLong": "52.8394,-3.1236"
        },
        {
         "Name": "Tan-y-pistyll",
         "PostCode": "SY10",
         "Accuracy": 3,
         "LatLong": "52.8394,-3.1236"
        },
        {
         "Name": "Edgerley",
         "PostCode": "SY10",
         "Accuracy": 3,
         "LatLong": "52.8394,-3.1236"
        },
        {
         "Name": "Bwlch-y-ddar",
         "PostCode": "SY10",
         "Accuracy": 3,
         "LatLong": "52.8394,-3.1236"
        },
        {
         "Name": "Alltforgan",
         "PostCode": "SY10",
         "Accuracy": 3,
         "LatLong": "52.8394,-3.1236"
        },
        {
         "Name": "Crickheath",
         "PostCode": "SY10",
         "Accuracy": 3,
         "LatLong": "52.8394,-3.1236"
        },
        {
         "Name": "Craignant",
         "PostCode": "SY10",
         "Accuracy": 3,
         "LatLong": "52.8394,-3.1236"
        },
        {
         "Name": "Treflach",
         "PostCode": "SY10",
         "Accuracy": 3,
         "LatLong": "52.8394,-3.1236"
        },
        {
         "Name": "Nantmawr",
         "PostCode": "SY10",
         "Accuracy": 3,
         "LatLong": "52.8394,-3.1236"
        },
        {
         "Name": "Morda",
         "PostCode": "SY10",
         "Accuracy": 3,
         "LatLong": "52.8394,-3.1236"
        },
        {
         "Name": "Llawnt",
         "PostCode": "SY10",
         "Accuracy": 3,
         "LatLong": "52.8394,-3.1236"
        },
        {
         "Name": "Croesau Bach",
         "PostCode": "SY10",
         "Accuracy": 3,
         "LatLong": "52.8394,-3.1236"
        },
        {
         "Name": "Brogyntyn",
         "PostCode": "SY10",
         "Accuracy": 3,
         "LatLong": "52.8394,-3.1236"
        },
        {
         "Name": "Pentrefelin",
         "PostCode": "SY10",
         "Accuracy": 3,
         "LatLong": "52.8394,-3.1236"
        },
        {
         "Name": "Rhiwargor",
         "PostCode": "SY10",
         "Accuracy": 3,
         "LatLong": "52.8394,-3.1236"
        },
        {
         "Name": "Porth-y-waen",
         "PostCode": "SY10",
         "Accuracy": 3,
         "LatLong": "52.8394,-3.1236"
        },
        {
         "Name": "Cedig",
         "PostCode": "SY10",
         "Accuracy": 3,
         "LatLong": "52.8394,-3.1236"
        },
        {
         "Name": "Morton",
         "PostCode": "SY10",
         "Accuracy": 4,
         "LatLong": "52.8394,-3.1236"
        },
        {
         "Name": "Lledrod",
         "PostCode": "SY10",
         "Accuracy": 4,
         "LatLong": "52.8394,-3.1236"
        },
        {
         "Name": "Moelfre",
         "PostCode": "SY10",
         "Accuracy": 4,
         "LatLong": "52.8394,-3.1236"
        },
        {
         "Name": "Woolston",
         "PostCode": "SY10",
         "Accuracy": 4,
         "LatLong": "52.8394,-3.1236"
        },
        {
         "Name": "Hengoed",
         "PostCode": "SY10",
         "Accuracy": 4,
         "LatLong": "52.8394,-3.1236"
        },
        {
         "Name": "Pentre",
         "PostCode": "SY10",
         "Accuracy": 4,
         "LatLong": "52.8394,-3.1236"
        },
        {
         "Name": "Rhewl",
         "PostCode": "SY10",
         "Accuracy": 4,
         "LatLong": "52.8394,-3.1236"
        },
        {
         "Name": "Dovaston",
         "PostCode": "SY10",
         "Accuracy": 3,
         "LatLong": "52.8394,-3.1236"
        },
        {
         "Name": "Abertridwr",
         "PostCode": "SY10",
         "Accuracy": 4,
         "LatLong": "52.8394,-3.1236"
        },
        {
         "Name": "Weston Rhyn",
         "PostCode": "SY10",
         "Accuracy": 3,
         "LatLong": "52.9155,-3.0673"
        },
        {
         "Name": "West Felton",
         "PostCode": "SY11",
         "Accuracy": 4,
         "LatLong": "52.8249,-2.9735"
        },
        {
         "Name": "Weirbrook",
         "PostCode": "SY11",
         "Accuracy": 3,
         "LatLong": "52.8054,-2.9458"
        },
        {
         "Name": "Hindford",
         "PostCode": "SY11",
         "Accuracy": 4,
         "LatLong": "52.8904,-2.9913"
        },
        {
         "Name": "Welsh Frankton",
         "PostCode": "SY11",
         "Accuracy": 3,
         "LatLong": "52.8054,-2.9458"
        },
        {
         "Name": "Rednal",
         "PostCode": "SY11",
         "Accuracy": 4,
         "LatLong": "52.8486,-2.9475"
        },
        {
         "Name": "Ifton Heath",
         "PostCode": "SY11",
         "Accuracy": 4,
         "LatLong": "52.9254,-3.0062"
        },
        {
         "Name": "Haughton",
         "PostCode": "SY11",
         "Accuracy": 4,
         "LatLong": "52.8388,-2.9359"
        },
        {
         "Name": "Eardiston",
         "PostCode": "SY11",
         "Accuracy": 4,
         "LatLong": "52.8167,-2.9333"
        },
        {
         "Name": "Oswestry",
         "PostCode": "SY11",
         "Accuracy": 4,
         "LatLong": "52.8619,-3.055"
        },
        {
         "Name": "Queen's Head",
         "PostCode": "SY11",
         "Accuracy": 3,
         "LatLong": "52.8054,-2.9458"
        },
        {
         "Name": "Whittington",
         "PostCode": "SY11",
         "Accuracy": 4,
         "LatLong": "52.8667,-3"
        },
        {
         "Name": "Street Dinas",
         "PostCode": "SY11",
         "Accuracy": 3,
         "LatLong": "52.8054,-2.9458"
        },
        {
         "Name": "Grimpo",
         "PostCode": "SY11",
         "Accuracy": 3,
         "LatLong": "52.8054,-2.9458"
        },
        {
         "Name": "Rhyn",
         "PostCode": "SY11",
         "Accuracy": 3,
         "LatLong": "52.8054,-2.9458"
        },
        {
         "Name": "New Marton",
         "PostCode": "SY11",
         "Accuracy": 3,
         "LatLong": "52.8054,-2.9458"
        },
        {
         "Name": "St Martin's",
         "PostCode": "SY11",
         "Accuracy": 3,
         "LatLong": "52.8054,-2.9458"
        },
        {
         "Name": "Babbinswood",
         "PostCode": "SY11",
         "Accuracy": 3,
         "LatLong": "52.8054,-2.9458"
        },
        {
         "Name": "Middleton",
         "PostCode": "SY11",
         "Accuracy": 4,
         "LatLong": "52.8695,-3.0318"
        },
        {
         "Name": "Colemere",
         "PostCode": "SY12",
         "Accuracy": 4,
         "LatLong": "52.8893,-2.8429"
        },
        {
         "Name": "Welshampton",
         "PostCode": "SY12",
         "Accuracy": 4,
         "LatLong": "52.9099,-2.8385"
        },
        {
         "Name": "Tetchill",
         "PostCode": "SY12",
         "Accuracy": 3,
         "LatLong": "52.8888,-2.8656"
        },
        {
         "Name": "Cockshutt",
         "PostCode": "SY12",
         "Accuracy": 4,
         "LatLong": "52.8568,-2.8409"
        },
        {
         "Name": "English Frankton",
         "PostCode": "SY12",
         "Accuracy": 3,
         "LatLong": "52.8888,-2.8656"
        },
        {
         "Name": "Ellesmere",
         "PostCode": "SY12",
         "Accuracy": 4,
         "LatLong": "52.9167,-2.8833"
        },
        {
         "Name": "Kenwick",
         "PostCode": "SY12",
         "Accuracy": 3,
         "LatLong": "52.8888,-2.8656"
        },
        {
         "Name": "Sodylt Bank",
         "PostCode": "SY12",
         "Accuracy": 3,
         "LatLong": "52.8888,-2.8656"
        },
        {
         "Name": "Bagley",
         "PostCode": "SY12",
         "Accuracy": 3,
         "LatLong": "52.8888,-2.8656"
        },
        {
         "Name": "Lyneal",
         "PostCode": "SY12",
         "Accuracy": 3,
         "LatLong": "52.8888,-2.8656"
        },
        {
         "Name": "Hordley",
         "PostCode": "SY12",
         "Accuracy": 4,
         "LatLong": "52.8511,-2.8975"
        },
        {
         "Name": "Lee",
         "PostCode": "SY12",
         "Accuracy": 3,
         "LatLong": "52.8888,-2.8656"
        },
        {
         "Name": "Lower Hordley",
         "PostCode": "SY12",
         "Accuracy": 3,
         "LatLong": "52.8888,-2.8656"
        },
        {
         "Name": "Dudleston Heath",
         "PostCode": "SY12",
         "Accuracy": 3,
         "LatLong": "52.8888,-2.8656"
        },
        {
         "Name": "Perthy",
         "PostCode": "SY12",
         "Accuracy": 3,
         "LatLong": "52.8888,-2.8656"
        },
        {
         "Name": "Elson",
         "PostCode": "SY12",
         "Accuracy": 3,
         "LatLong": "52.8888,-2.8656"
        },
        {
         "Name": "Tilstock",
         "PostCode": "SY13",
         "Accuracy": 4,
         "LatLong": "52.9356,-2.6838"
        },
        {
         "Name": "Bronington",
         "PostCode": "SY13",
         "Accuracy": 3,
         "LatLong": "52.9441,-2.6649"
        },
        {
         "Name": "Ightfield",
         "PostCode": "SY13",
         "Accuracy": 4,
         "LatLong": "52.9413,-2.6058"
        },
        {
         "Name": "Arowry",
         "PostCode": "SY13",
         "Accuracy": 3,
         "LatLong": "52.9441,-2.6649"
        },
        {
         "Name": "Whitchurch",
         "PostCode": "SY13",
         "Accuracy": 4,
         "LatLong": "52.9667,-2.6833"
        },
        {
         "Name": "Prees",
         "PostCode": "SY13",
         "Accuracy": 4,
         "LatLong": "52.8969,-2.664"
        },
        {
         "Name": "Wilkesley",
         "PostCode": "SY13",
         "Accuracy": 3,
         "LatLong": "52.9441,-2.6649"
        },
        {
         "Name": "Fauls",
         "PostCode": "SY13",
         "Accuracy": 4,
         "LatLong": "52.8904,-2.6129"
        },
        {
         "Name": "Whixall",
         "PostCode": "SY13",
         "Accuracy": 4,
         "LatLong": "52.9054,-2.721"
        },
        {
         "Name": "The Chequer",
         "PostCode": "SY13",
         "Accuracy": 3,
         "LatLong": "52.9441,-2.6649"
        },
        {
         "Name": "Prees Higher Heath",
         "PostCode": "SY13",
         "Accuracy": 3,
         "LatLong": "52.9441,-2.6649"
        },
        {
         "Name": "Horseman's Green",
         "PostCode": "SY13",
         "Accuracy": 3,
         "LatLong": "52.9441,-2.6649"
        },
        {
         "Name": "Eglwys Cross",
         "PostCode": "SY13",
         "Accuracy": 3,
         "LatLong": "52.9441,-2.6649"
        },
        {
         "Name": "Platt Lane",
         "PostCode": "SY13",
         "Accuracy": 3,
         "LatLong": "52.9441,-2.6649"
        },
        {
         "Name": "Marley Green",
         "PostCode": "SY13",
         "Accuracy": 3,
         "LatLong": "52.9441,-2.6649"
        },
        {
         "Name": "Calverhall",
         "PostCode": "SY13",
         "Accuracy": 3,
         "LatLong": "52.9441,-2.6649"
        },
        {
         "Name": "Broughall",
         "PostCode": "SY13",
         "Accuracy": 3,
         "LatLong": "52.9441,-2.6649"
        },
        {
         "Name": "Ash Magna",
         "PostCode": "SY13",
         "Accuracy": 3,
         "LatLong": "52.9441,-2.6649"
        },
        {
         "Name": "Alkington",
         "PostCode": "SY13",
         "Accuracy": 3,
         "LatLong": "52.9441,-2.6649"
        },
        {
         "Name": "Millenheath",
         "PostCode": "SY13",
         "Accuracy": 3,
         "LatLong": "52.9441,-2.6649"
        },
        {
         "Name": "Edgeley",
         "PostCode": "SY13",
         "Accuracy": 3,
         "LatLong": "52.9441,-2.6649"
        },
        {
         "Name": "Prees Green",
         "PostCode": "SY13",
         "Accuracy": 4,
         "LatLong": "52.9523,-2.6903"
        },
        {
         "Name": "Hollinwood",
         "PostCode": "SY13",
         "Accuracy": 4,
         "LatLong": "52.9523,-2.6903"
        },
        {
         "Name": "Welsh End",
         "PostCode": "SY13",
         "Accuracy": 3,
         "LatLong": "52.9441,-2.6649"
        },
        {
         "Name": "Darliston",
         "PostCode": "SY13",
         "Accuracy": 3,
         "LatLong": "52.9441,-2.6649"
        },
        {
         "Name": "Burleydam",
         "PostCode": "SY13",
         "Accuracy": 3,
         "LatLong": "52.9441,-2.6649"
        },
        {
         "Name": "Chirbury",
         "PostCode": "SY15",
         "Accuracy": 4,
         "LatLong": "52.5783,-3.0903"
        },
        {
         "Name": "Sutton",
         "PostCode": "SY2",
         "Accuracy": 4,
         "LatLong": "52.7065,-2.7295"
        },
        {
         "Name": "Marton",
         "PostCode": "SY21",
         "Accuracy": 4,
         "LatLong": "52.6167,-3.05"
        },
        {
         "Name": "Bicton",
         "PostCode": "SY3",
         "Accuracy": 4,
         "LatLong": "52.7333,-2.8167"
        },
        {
         "Name": "Bicton Heath",
         "PostCode": "SY3",
         "Accuracy": 3,
         "LatLong": "52.699,-2.7725"
        },
        {
         "Name": "Bayston Hill",
         "PostCode": "SY3",
         "Accuracy": 4,
         "LatLong": "52.6755,-2.7616"
        },
        {
         "Name": "Meole Brace",
         "PostCode": "SY3",
         "Accuracy": 4,
         "LatLong": "52.6872,-2.7561"
        },
        {
         "Name": "Shelton",
         "PostCode": "SY3",
         "Accuracy": 4,
         "LatLong": "52.699,-2.7725"
        },
        {
         "Name": "The Isle",
         "PostCode": "SY3",
         "Accuracy": 3,
         "LatLong": "52.699,-2.7725"
        },
        {
         "Name": "Great Lyth",
         "PostCode": "SY3",
         "Accuracy": 3,
         "LatLong": "52.699,-2.7725"
        },
        {
         "Name": "Kinton",
         "PostCode": "SY4",
         "Accuracy": 4,
         "LatLong": "52.7683,-2.9336"
        },
        {
         "Name": "Yeaton",
         "PostCode": "SY4",
         "Accuracy": 3,
         "LatLong": "52.691,-2.6049"
        },
        {
         "Name": "Clive",
         "PostCode": "SY4",
         "Accuracy": 4,
         "LatLong": "52.8,-2.7167"
        },
        {
         "Name": "Forton",
         "PostCode": "SY4",
         "Accuracy": 4,
         "LatLong": "52.7981,-2.752"
        },
        {
         "Name": "Weston Lullingfields",
         "PostCode": "SY4",
         "Accuracy": 4,
         "LatLong": "52.8187,-2.8546"
        },
        {
         "Name": "Alderton",
         "PostCode": "SY4",
         "Accuracy": 4,
         "LatLong": "52.7981,-2.752"
        },
        {
         "Name": "Myddle",
         "PostCode": "SY4",
         "Accuracy": 4,
         "LatLong": "52.8102,-2.789"
        },
        {
         "Name": "Pentre",
         "PostCode": "SY4",
         "Accuracy": 4,
         "LatLong": "52.7981,-2.752"
        },
        {
         "Name": "Grinshill",
         "PostCode": "SY4",
         "Accuracy": 4,
         "LatLong": "52.806,-2.7118"
        },
        {
         "Name": "Bomere Heath",
         "PostCode": "SY4",
         "Accuracy": 3,
         "LatLong": "52.691,-2.6049"
        },
        {
         "Name": "Baschurch",
         "PostCode": "SY4",
         "Accuracy": 4,
         "LatLong": "52.7885,-2.8528"
        },
        {
         "Name": "Quina Brook",
         "PostCode": "SY4",
         "Accuracy": 3,
         "LatLong": "52.691,-2.6049"
        },
        {
         "Name": "Preston Gubbals",
         "PostCode": "SY4",
         "Accuracy": 4,
         "LatLong": "52.7721,-2.7531"
        },
        {
         "Name": "Felton Butler",
         "PostCode": "SY4",
         "Accuracy": 3,
         "LatLong": "52.691,-2.6049"
        },
        {
         "Name": "Weston",
         "PostCode": "SY4",
         "Accuracy": 4,
         "LatLong": "52.8547,-2.647"
        },
        {
         "Name": "Besford",
         "PostCode": "SY4",
         "Accuracy": 4,
         "LatLong": "52.7981,-2.752"
        },
        {
         "Name": "Haughton",
         "PostCode": "SY4",
         "Accuracy": 4,
         "LatLong": "52.8388,-2.9359"
        },
        {
         "Name": "Myddlewood",
         "PostCode": "SY4",
         "Accuracy": 3,
         "LatLong": "52.691,-2.6049"
        },
        {
         "Name": "Walford",
         "PostCode": "SY4",
         "Accuracy": 4,
         "LatLong": "52.8,-2.8333"
        },
        {
         "Name": "Wykey",
         "PostCode": "SY4",
         "Accuracy": 3,
         "LatLong": "52.691,-2.6049"
        },
        {
         "Name": "Shawbury",
         "PostCode": "SY4",
         "Accuracy": 4,
         "LatLong": "52.7833,-2.65"
        },
        {
         "Name": "Booley",
         "PostCode": "SY4",
         "Accuracy": 3,
         "LatLong": "52.691,-2.6049"
        },
        {
         "Name": "Marchamley",
         "PostCode": "SY4",
         "Accuracy": 4,
         "LatLong": "52.8615,-2.6007"
        },
        {
         "Name": "High Hatton",
         "PostCode": "SY4",
         "Accuracy": 3,
         "LatLong": "52.691,-2.6049"
        },
        {
         "Name": "Petton",
         "PostCode": "SY4",
         "Accuracy": 4,
         "LatLong": "52.8333,-2.8333"
        },
        {
         "Name": "Wolverley",
         "PostCode": "SY4",
         "Accuracy": 4,
         "LatLong": "52.7981,-2.752"
        },
        {
         "Name": "Tilley",
         "PostCode": "SY4",
         "Accuracy": 4,
         "LatLong": "52.8333,-2.7333"
        },
        {
         "Name": "Prescott",
         "PostCode": "SY4",
         "Accuracy": 4,
         "LatLong": "52.7981,-2.752"
        },
        {
         "Name": "Lee Brockhurst",
         "PostCode": "SY4",
         "Accuracy": 4,
         "LatLong": "52.8399,-2.6737"
        },
        {
         "Name": "Nesscliffe",
         "PostCode": "SY4",
         "Accuracy": 3,
         "LatLong": "52.691,-2.6049"
        },
        {
         "Name": "Fitz",
         "PostCode": "SY4",
         "Accuracy": 4,
         "LatLong": "52.7558,-2.8195"
        },
        {
         "Name": "Uffington",
         "PostCode": "SY4",
         "Accuracy": 3,
         "LatLong": "52.7217,-2.7002"
        },
        {
         "Name": "Astley",
         "PostCode": "SY4",
         "Accuracy": 4,
         "LatLong": "52.7667,-2.7"
        },
        {
         "Name": "Milford",
         "PostCode": "SY4",
         "Accuracy": 4,
         "LatLong": "52.7981,-2.752"
        },
        {
         "Name": "Loppington",
         "PostCode": "SY4",
         "Accuracy": 4,
         "LatLong": "52.8589,-2.7875"
        },
        {
         "Name": "Paddolgreen",
         "PostCode": "SY4",
         "Accuracy": 3,
         "LatLong": "52.691,-2.6049"
        },
        {
         "Name": "Wilcott",
         "PostCode": "SY4",
         "Accuracy": 4,
         "LatLong": "52.7633,-2.9271"
        },
        {
         "Name": "Noneley",
         "PostCode": "SY4",
         "Accuracy": 3,
         "LatLong": "52.691,-2.6049"
        },
        {
         "Name": "Burlton",
         "PostCode": "SY4",
         "Accuracy": 4,
         "LatLong": "52.829,-2.8067"
        },
        {
         "Name": "Stanwardine in the Fields",
         "PostCode": "SY4",
         "Accuracy": 3,
         "LatLong": "52.691,-2.6049"
        },
        {
         "Name": "Great Ness",
         "PostCode": "SY4",
         "Accuracy": 4,
         "LatLong": "52.7638,-2.8915"
        },
        {
         "Name": "Preston Brockhurst",
         "PostCode": "SY4",
         "Accuracy": 3,
         "LatLong": "52.691,-2.6049"
        },
        {
         "Name": "Upton Magna",
         "PostCode": "SY4",
         "Accuracy": 4,
         "LatLong": "52.7081,-2.6604"
        },
        {
         "Name": "Poynton Green",
         "PostCode": "SY4",
         "Accuracy": 3,
         "LatLong": "52.691,-2.6049"
        },
        {
         "Name": "Withington",
         "PostCode": "SY4",
         "Accuracy": 4,
         "LatLong": "52.7167,-2.6"
        },
        {
         "Name": "Harmer Hill",
         "PostCode": "SY4",
         "Accuracy": 3,
         "LatLong": "52.691,-2.6049"
        },
        {
         "Name": "Wem",
         "PostCode": "SY4",
         "Accuracy": 4,
         "LatLong": "52.8584,-2.7183"
        },
        {
         "Name": "Ensdon",
         "PostCode": "SY4",
         "Accuracy": 3,
         "LatLong": "52.691,-2.6049"
        },
        {
         "Name": "Hadnall",
         "PostCode": "SY4",
         "Accuracy": 4,
         "LatLong": "52.7738,-2.71"
        },
        {
         "Name": "Moreton Corbet",
         "PostCode": "SY4",
         "Accuracy": 4,
         "LatLong": "52.8058,-2.657"
        },
        {
         "Name": "Great Wytheford",
         "PostCode": "SY4",
         "Accuracy": 3,
         "LatLong": "52.691,-2.6049"
        },
        {
         "Name": "Merrington",
         "PostCode": "SY4",
         "Accuracy": 4,
         "LatLong": "52.7823,-2.7847"
        },
        {
         "Name": "Norton",
         "PostCode": "SY4",
         "Accuracy": 4,
         "LatLong": "52.7981,-2.752"
        },
        {
         "Name": "Little Ness",
         "PostCode": "SY4",
         "Accuracy": 4,
         "LatLong": "52.7713,-2.8796"
        },
        {
         "Name": "Edgebolton",
         "PostCode": "SY4",
         "Accuracy": 3,
         "LatLong": "52.691,-2.6049"
        },
        {
         "Name": "Edstaston",
         "PostCode": "SY4",
         "Accuracy": 4,
         "LatLong": "52.8821,-2.7167"
        },
        {
         "Name": "Montford Bridge",
         "PostCode": "SY4",
         "Accuracy": 3,
         "LatLong": "52.691,-2.6049"
        },
        {
         "Name": "Yorton",
         "PostCode": "SY4",
         "Accuracy": 4,
         "LatLong": "52.8092,-2.7385"
        },
        {
         "Name": "Northwood",
         "PostCode": "SY4",
         "Accuracy": 4,
         "LatLong": "52.7981,-2.752"
        },
        {
         "Name": "Albrighton",
         "PostCode": "SY4",
         "Accuracy": 4,
         "LatLong": "52.75,-2.75"
        },
        {
         "Name": "Aston",
         "PostCode": "SY4",
         "Accuracy": 4,
         "LatLong": "52.7981,-2.752"
        },
        {
         "Name": "Leaton",
         "PostCode": "SY4",
         "Accuracy": 4,
         "LatLong": "52.7618,-2.7913"
        },
        {
         "Name": "Ruyton-XI-Towns",
         "PostCode": "SY4",
         "Accuracy": 3,
         "LatLong": "52.7972,-2.9055"
        },
        {
         "Name": "Stanton upon Hine Heath",
         "PostCode": "SY4",
         "Accuracy": 4,
         "LatLong": "52.8117,-2.6408"
        },
        {
         "Name": "Newtown",
         "PostCode": "SY4",
         "Accuracy": 4,
         "LatLong": "52.7981,-2.752"
        },
        {
         "Name": "Rodington",
         "PostCode": "SY4",
         "Accuracy": 4,
         "LatLong": "52.7255,-2.61"
        },
        {
         "Name": "Grafton",
         "PostCode": "SY4",
         "Accuracy": 4,
         "LatLong": "52.7981,-2.752"
        },
        {
         "Name": "Montford",
         "PostCode": "SY4",
         "Accuracy": 4,
         "LatLong": "52.732,-2.8904"
        },
        {
         "Name": "Shrawardine",
         "PostCode": "SY4",
         "Accuracy": 4,
         "LatLong": "52.732,-2.8904"
        },
        {
         "Name": "Great Hanwood",
         "PostCode": "SY5",
         "Accuracy": 4,
         "LatLong": "52.6833,-2.8167"
        },
        {
         "Name": "Ford",
         "PostCode": "SY5",
         "Accuracy": 4,
         "LatLong": "52.7167,-2.85"
        },
        {
         "Name": "Brockton",
         "PostCode": "SY5",
         "Accuracy": 4,
         "LatLong": "52.6333,-3"
        },
        {
         "Name": "Church Pulverbatch",
         "PostCode": "SY5",
         "Accuracy": 4,
         "LatLong": "52.6202,-2.8443"
        },
        {
         "Name": "Pitchford",
         "PostCode": "SY5",
         "Accuracy": 4,
         "LatLong": "52.6284,-2.6955"
        },
        {
         "Name": "Cardeston",
         "PostCode": "SY5",
         "Accuracy": 4,
         "LatLong": "52.7051,-2.8969"
        },
        {
         "Name": "Ratlinghope",
         "PostCode": "SY5",
         "Accuracy": 4,
         "LatLong": "52.565,-2.883"
        },
        {
         "Name": "Pulverbatch",
         "PostCode": "SY5",
         "Accuracy": 4,
         "LatLong": "52.6202,-2.8443"
        },
        {
         "Name": "Frodesley",
         "PostCode": "SY5",
         "Accuracy": 4,
         "LatLong": "52.6079,-2.7202"
        },
        {
         "Name": "Acton Burnell",
         "PostCode": "SY5",
         "Accuracy": 4,
         "LatLong": "52.6139,-2.6947"
        },
        {
         "Name": "Cound",
         "PostCode": "SY5",
         "Accuracy": 4,
         "LatLong": "52.6401,-2.6545"
        },
        {
         "Name": "Meadowtown",
         "PostCode": "SY5",
         "Accuracy": 4,
         "LatLong": "52.6042,-3.0185"
        },
        {
         "Name": "Minsterley",
         "PostCode": "SY5",
         "Accuracy": 4,
         "LatLong": "52.6399,-2.9281"
        },
        {
         "Name": "Yockleton",
         "PostCode": "SY5",
         "Accuracy": 4,
         "LatLong": "52.6855,-2.8892"
        },
        {
         "Name": "Plealey",
         "PostCode": "SY5",
         "Accuracy": 4,
         "LatLong": "52.6568,-2.8546"
        },
        {
         "Name": "Berrington",
         "PostCode": "SY5",
         "Accuracy": 4,
         "LatLong": "52.65,-2.7"
        },
        {
         "Name": "Alberbury",
         "PostCode": "SY5",
         "Accuracy": 4,
         "LatLong": "52.7223,-2.9507"
        },
        {
         "Name": "Condover",
         "PostCode": "SY5",
         "Accuracy": 4,
         "LatLong": "52.6483,-2.7503"
        },
        {
         "Name": "Dorrington",
         "PostCode": "SY5",
         "Accuracy": 4,
         "LatLong": "52.6167,-2.7833"
        },
        {
         "Name": "Asterley",
         "PostCode": "SY5",
         "Accuracy": 4,
         "LatLong": "52.6576,-2.9256"
        },
        {
         "Name": "Wroxeter",
         "PostCode": "SY5",
         "Accuracy": 4,
         "LatLong": "52.6704,-2.6476"
        },
        {
         "Name": "Leigh",
         "PostCode": "SY5",
         "Accuracy": 4,
         "LatLong": "52.6515,-2.8327"
        },
        {
         "Name": "Shelve",
         "PostCode": "SY5",
         "Accuracy": 4,
         "LatLong": "52.5848,-2.9801"
        },
        {
         "Name": "Hughley",
         "PostCode": "SY5",
         "Accuracy": 4,
         "LatLong": "52.5775,-2.6433"
        },
        {
         "Name": "Hinton",
         "PostCode": "SY5",
         "Accuracy": 4,
         "LatLong": "52.6515,-2.8327"
        },
        {
         "Name": "Wollaston",
         "PostCode": "SY5",
         "Accuracy": 4,
         "LatLong": "52.7,-3"
        },
        {
         "Name": "Habberley",
         "PostCode": "SY5",
         "Accuracy": 4,
         "LatLong": "52.6167,-2.8833"
        },
        {
         "Name": "Golding",
         "PostCode": "SY5",
         "Accuracy": 4,
         "LatLong": "52.6515,-2.8327"
        },
        {
         "Name": "Westbury",
         "PostCode": "SY5",
         "Accuracy": 4,
         "LatLong": "52.6833,-2.95"
        },
        {
         "Name": "Crewgreen",
         "PostCode": "SY5",
         "Accuracy": 3,
         "LatLong": "52.6515,-2.8327"
        },
        {
         "Name": "Longnor",
         "PostCode": "SY5",
         "Accuracy": 4,
         "LatLong": "52.6,-2.75"
        },
        {
         "Name": "Nox",
         "PostCode": "SY5",
         "Accuracy": 3,
         "LatLong": "52.6515,-2.8327"
        },
        {
         "Name": "Pontesbury",
         "PostCode": "SY5",
         "Accuracy": 4,
         "LatLong": "52.6483,-2.8903"
        },
        {
         "Name": "Stoney Stretton",
         "PostCode": "SY5",
         "Accuracy": 3,
         "LatLong": "52.6515,-2.8327"
        },
        {
         "Name": "Cressage",
         "PostCode": "SY5",
         "Accuracy": 4,
         "LatLong": "52.6336,-2.605"
        },
        {
         "Name": "Wrentnall",
         "PostCode": "SY5",
         "Accuracy": 3,
         "LatLong": "52.6515,-2.8327"
        },
        {
         "Name": "Kenley",
         "PostCode": "SY5",
         "Accuracy": 4,
         "LatLong": "52.6,-2.6333"
        },
        {
         "Name": "Acton Pigott",
         "PostCode": "SY5",
         "Accuracy": 3,
         "LatLong": "52.6515,-2.8327"
        },
        {
         "Name": "Harley",
         "PostCode": "SY5",
         "Accuracy": 4,
         "LatLong": "52.6,-2.6"
        },
        {
         "Name": "Aston Rogers",
         "PostCode": "SY5",
         "Accuracy": 3,
         "LatLong": "52.6515,-2.8327"
        },
        {
         "Name": "Stapleton",
         "PostCode": "SY5",
         "Accuracy": 4,
         "LatLong": "52.6333,-2.7833"
        },
        {
         "Name": "Betton",
         "PostCode": "SY5",
         "Accuracy": 3,
         "LatLong": "52.6515,-2.8327"
        },
        {
         "Name": "Worthen",
         "PostCode": "SY5",
         "Accuracy": 4,
         "LatLong": "52.6358,-2.9951"
        },
        {
         "Name": "Black Marsh",
         "PostCode": "SY5",
         "Accuracy": 3,
         "LatLong": "52.6515,-2.8327"
        },
        {
         "Name": "Atcham",
         "PostCode": "SY5",
         "Accuracy": 4,
         "LatLong": "52.6796,-2.6797"
        },
        {
         "Name": "Cantlop",
         "PostCode": "SY5",
         "Accuracy": 3,
         "LatLong": "52.6515,-2.8327"
        },
        {
         "Name": "Cross Houses",
         "PostCode": "SY5",
         "Accuracy": 3,
         "LatLong": "52.6515,-2.8327"
        },
        {
         "Name": "Eaton Constantine",
         "PostCode": "SY5",
         "Accuracy": 3,
         "LatLong": "52.6515,-2.8327"
        },
        {
         "Name": "Exfords Green",
         "PostCode": "SY5",
         "Accuracy": 3,
         "LatLong": "52.6515,-2.8327"
        },
        {
         "Name": "Hook-a-Gate",
         "PostCode": "SY5",
         "Accuracy": 3,
         "LatLong": "52.6515,-2.8327"
        },
        {
         "Name": "Lower Wallop",
         "PostCode": "SY5",
         "Accuracy": 3,
         "LatLong": "52.6515,-2.8327"
        },
        {
         "Name": "Upper Cound",
         "PostCode": "SY5",
         "Accuracy": 3,
         "LatLong": "52.6515,-2.8327"
        },
        {
         "Name": "Cruckmeole",
         "PostCode": "SY5",
         "Accuracy": 3,
         "LatLong": "52.6515,-2.8327"
        },
        {
         "Name": "Ploxgreen",
         "PostCode": "SY5",
         "Accuracy": 3,
         "LatLong": "52.6515,-2.8327"
        },
        {
         "Name": "Ruckley",
         "PostCode": "SY5",
         "Accuracy": 3,
         "LatLong": "52.6515,-2.8327"
        },
        {
         "Name": "Stretton Heath",
         "PostCode": "SY5",
         "Accuracy": 3,
         "LatLong": "52.6515,-2.8327"
        },
        {
         "Name": "Vennington",
         "PostCode": "SY5",
         "Accuracy": 3,
         "LatLong": "52.6515,-2.8327"
        },
        {
         "Name": "Binweston",
         "PostCode": "SY5",
         "Accuracy": 3,
         "LatLong": "52.6515,-2.8327"
        },
        {
         "Name": "Halfway House",
         "PostCode": "SY5",
         "Accuracy": 3,
         "LatLong": "52.6515,-2.8327"
        },
        {
         "Name": "Longwood",
         "PostCode": "SY5",
         "Accuracy": 3,
         "LatLong": "52.6515,-2.8327"
        },
        {
         "Name": "Bridges",
         "PostCode": "SY5",
         "Accuracy": 3,
         "LatLong": "52.6515,-2.8327"
        },
        {
         "Name": "Rowley",
         "PostCode": "SY5",
         "Accuracy": 3,
         "LatLong": "52.6515,-2.8327"
        },
        {
         "Name": "Farley",
         "PostCode": "SY5",
         "Accuracy": 4,
         "LatLong": "52.6515,-2.8327"
        },
        {
         "Name": "Edge",
         "PostCode": "SY5",
         "Accuracy": 4,
         "LatLong": "52.6515,-2.8327"
        },
        {
         "Name": "Gravels",
         "PostCode": "SY5",
         "Accuracy": 3,
         "LatLong": "52.6515,-2.8327"
        },
        {
         "Name": "The Bog",
         "PostCode": "SY5",
         "Accuracy": 3,
         "LatLong": "52.6515,-2.8327"
        },
        {
         "Name": "Shoot Hill",
         "PostCode": "SY5",
         "Accuracy": 3,
         "LatLong": "52.6515,-2.8327"
        },
        {
         "Name": "Annscroft",
         "PostCode": "SY5",
         "Accuracy": 3,
         "LatLong": "52.6515,-2.8327"
        },
        {
         "Name": "Leighton",
         "PostCode": "SY5",
         "Accuracy": 4,
         "LatLong": "52.6515,-2.8327"
        },
        {
         "Name": "Pontesford",
         "PostCode": "SY5",
         "Accuracy": 3,
         "LatLong": "52.6515,-2.8327"
        },
        {
         "Name": "Lea",
         "PostCode": "SY5",
         "Accuracy": 4,
         "LatLong": "52.6515,-2.8327"
        },
        {
         "Name": "Longden",
         "PostCode": "SY5",
         "Accuracy": 3,
         "LatLong": "52.6563,-2.8175"
        },
        {
         "Name": "Sheinton",
         "PostCode": "SY5",
         "Accuracy": 3,
         "LatLong": "52.6309,-2.5734"
        },
        {
         "Name": "Westley",
         "PostCode": "SY5",
         "Accuracy": 3,
         "LatLong": "52.6515,-2.8327"
        },
        {
         "Name": "Perkins Beach",
         "PostCode": "SY5",
         "Accuracy": 3,
         "LatLong": "52.6515,-2.8327"
        },
        {
         "Name": "Snailbeach",
         "PostCode": "SY5",
         "Accuracy": 3,
         "LatLong": "52.6515,-2.8327"
        },
        {
         "Name": "Great Ryton",
         "PostCode": "SY5",
         "Accuracy": 3,
         "LatLong": "52.6515,-2.8327"
        },
        {
         "Name": "The Marsh",
         "PostCode": "SY5",
         "Accuracy": 3,
         "LatLong": "52.6515,-2.8327"
        },
        {
         "Name": "Dryton",
         "PostCode": "SY5",
         "Accuracy": 3,
         "LatLong": "52.6515,-2.8327"
        },
        {
         "Name": "Donnington",
         "PostCode": "SY5",
         "Accuracy": 4,
         "LatLong": "52.6515,-2.8327"
        },
        {
         "Name": "Hope",
         "PostCode": "SY5",
         "Accuracy": 4,
         "LatLong": "52.6515,-2.8327"
        },
        {
         "Name": "Cruckton",
         "PostCode": "SY5",
         "Accuracy": 3,
         "LatLong": "52.6515,-2.8327"
        },
        {
         "Name": "Pennerley",
         "PostCode": "SY5",
         "Accuracy": 3,
         "LatLong": "52.6515,-2.8327"
        },
        {
         "Name": "Rushbury",
         "PostCode": "SY6",
         "Accuracy": 4,
         "LatLong": "52.5226,-2.7182"
        },
        {
         "Name": "Woolston",
         "PostCode": "SY6",
         "Accuracy": 4,
         "LatLong": "52.5364,-2.7923"
        },
        {
         "Name": "Hope Bowdler",
         "PostCode": "SY6",
         "Accuracy": 4,
         "LatLong": "52.5274,-2.7757"
        },
        {
         "Name": "Wall under Heywood",
         "PostCode": "SY6",
         "Accuracy": 3,
         "LatLong": "52.5364,-2.7923"
        },
        {
         "Name": "Little Stretton",
         "PostCode": "SY6",
         "Accuracy": 4,
         "LatLong": "52.5167,-2.8167"
        },
        {
         "Name": "Enchmarsh",
         "PostCode": "SY6",
         "Accuracy": 3,
         "LatLong": "52.5364,-2.7923"
        },
        {
         "Name": "Ticklerton",
         "PostCode": "SY6",
         "Accuracy": 4,
         "LatLong": "52.5129,-2.7615"
        },
        {
         "Name": "Plaish",
         "PostCode": "SY6",
         "Accuracy": 3,
         "LatLong": "52.5364,-2.7923"
        },
        {
         "Name": "Acton Scott",
         "PostCode": "SY6",
         "Accuracy": 4,
         "LatLong": "52.501,-2.8048"
        },
        {
         "Name": "Marshbrook",
         "PostCode": "SY6",
         "Accuracy": 4,
         "LatLong": "52.5035,-2.8238"
        },
        {
         "Name": "Harton",
         "PostCode": "SY6",
         "Accuracy": 3,
         "LatLong": "52.5364,-2.7923"
        },
        {
         "Name": "Woolstaston",
         "PostCode": "SY6",
         "Accuracy": 4,
         "LatLong": "52.5808,-2.81"
        },
        {
         "Name": "Picklescott",
         "PostCode": "SY6",
         "Accuracy": 4,
         "LatLong": "52.5899,-2.8347"
        },
        {
         "Name": "Gretton",
         "PostCode": "SY6",
         "Accuracy": 4,
         "LatLong": "52.5364,-2.7923"
        },
        {
         "Name": "Cardington",
         "PostCode": "SY6",
         "Accuracy": 4,
         "LatLong": "52.55,-2.7333"
        },
        {
         "Name": "Hatton",
         "PostCode": "SY6",
         "Accuracy": 4,
         "LatLong": "52.5364,-2.7923"
        },
        {
         "Name": "Church Stretton",
         "PostCode": "SY6",
         "Accuracy": 4,
         "LatLong": "52.5378,-2.8015"
        },
        {
         "Name": "Whittingslow",
         "PostCode": "SY6",
         "Accuracy": 3,
         "LatLong": "52.5364,-2.7923"
        },
        {
         "Name": "Eaton",
         "PostCode": "SY6",
         "Accuracy": 4,
         "LatLong": "52.5,-2.75"
        },
        {
         "Name": "Wall Bank",
         "PostCode": "SY6",
         "Accuracy": 3,
         "LatLong": "52.5364,-2.7923"
        },
        {
         "Name": "All Stretton",
         "PostCode": "SY6",
         "Accuracy": 4,
         "LatLong": "52.5539,-2.7979"
        },
        {
         "Name": "Alcaston",
         "PostCode": "SY6",
         "Accuracy": 3,
         "LatLong": "52.5364,-2.7923"
        },
        {
         "Name": "Leebotwood",
         "PostCode": "SY6",
         "Accuracy": 4,
         "LatLong": "52.5846,-2.7752"
        },
        {
         "Name": "Church Preen",
         "PostCode": "SY6",
         "Accuracy": 3,
         "LatLong": "52.5775,-2.6727"
        },
        {
         "Name": "Minton",
         "PostCode": "SY6",
         "Accuracy": 3,
         "LatLong": "52.5364,-2.7923"
        },
        {
         "Name": "Upper Affcot",
         "PostCode": "SY6",
         "Accuracy": 3,
         "LatLong": "52.5364,-2.7923"
        },
        {
         "Name": "Bedstone",
         "PostCode": "SY7",
         "Accuracy": 4,
         "LatLong": "52.3748,-2.9273"
        },
        {
         "Name": "Bouldon",
         "PostCode": "SY7",
         "Accuracy": 3,
         "LatLong": "52.451,-2.7599"
        },
        {
         "Name": "Wistanstow",
         "PostCode": "SY7",
         "Accuracy": 4,
         "LatLong": "52.4647,-2.8376"
        },
        {
         "Name": "Letton",
         "PostCode": "SY7",
         "Accuracy": 4,
         "LatLong": "52.4258,-2.8872"
        },
        {
         "Name": "Hopesay",
         "PostCode": "SY7",
         "Accuracy": 4,
         "LatLong": "52.4454,-2.8982"
        },
        {
         "Name": "Eyton",
         "PostCode": "SY7",
         "Accuracy": 4,
         "LatLong": "52.4258,-2.8872"
        },
        {
         "Name": "Plowden",
         "PostCode": "SY7",
         "Accuracy": 4,
         "LatLong": "52.4841,-2.9152"
        },
        {
         "Name": "Brockton",
         "PostCode": "SY7",
         "Accuracy": 4,
         "LatLong": "52.4258,-2.8872"
        },
        {
         "Name": "Newcastle",
         "PostCode": "SY7",
         "Accuracy": 4,
         "LatLong": "52.4333,-3.1167"
        },
        {
         "Name": "Walford",
         "PostCode": "SY7",
         "Accuracy": 4,
         "LatLong": "52.4258,-2.8872"
        },
        {
         "Name": "Onibury",
         "PostCode": "SY7",
         "Accuracy": 4,
         "LatLong": "52.4083,-2.8031"
        },
        {
         "Name": "Kinton",
         "PostCode": "SY7",
         "Accuracy": 4,
         "LatLong": "52.4258,-2.8872"
        },
        {
         "Name": "Horderley",
         "PostCode": "SY7",
         "Accuracy": 4,
         "LatLong": "52.4764,-2.8704"
        },
        {
         "Name": "Wootton",
         "PostCode": "SY7",
         "Accuracy": 4,
         "LatLong": "52.4258,-2.8872"
        },
        {
         "Name": "Tugford",
         "PostCode": "SY7",
         "Accuracy": 4,
         "LatLong": "52.4806,-2.6535"
        },
        {
         "Name": "Craven Arms",
         "PostCode": "SY7",
         "Accuracy": 4,
         "LatLong": "52.4431,-2.8356"
        },
        {
         "Name": "Anchor",
         "PostCode": "SY7",
         "Accuracy": 4,
         "LatLong": "52.4258,-2.8872"
        },
        {
         "Name": "Hoptonheath",
         "PostCode": "SY7",
         "Accuracy": 4,
         "LatLong": "52.3833,-2.9167"
        },
        {
         "Name": "Clungunford",
         "PostCode": "SY7",
         "Accuracy": 4,
         "LatLong": "52.4039,-2.8848"
        },
        {
         "Name": "Newton",
         "PostCode": "SY7",
         "Accuracy": 4,
         "LatLong": "52.4258,-2.8872"
        },
        {
         "Name": "Abdon",
         "PostCode": "SY7",
         "Accuracy": 4,
         "LatLong": "52.4806,-2.6535"
        },
        {
         "Name": "Diddlebury",
         "PostCode": "SY7",
         "Accuracy": 4,
         "LatLong": "52.4658,-2.7325"
        },
        {
         "Name": "Myndtown",
         "PostCode": "SY7",
         "Accuracy": 3,
         "LatLong": "52.5109,-2.8973"
        },
        {
         "Name": "Clee St Margaret",
         "PostCode": "SY7",
         "Accuracy": 4,
         "LatLong": "52.45,-2.65"
        },
        {
         "Name": "Clun",
         "PostCode": "SY7",
         "Accuracy": 4,
         "LatLong": "52.4214,-3.0275"
        },
        {
         "Name": "Hopton Castle",
         "PostCode": "SY7",
         "Accuracy": 3,
         "LatLong": "52.3902,-2.9459"
        },
        {
         "Name": "Halford",
         "PostCode": "SY7",
         "Accuracy": 4,
         "LatLong": "52.4467,-2.8256"
        },
        {
         "Name": "Edgton",
         "PostCode": "SY7",
         "Accuracy": 4,
         "LatLong": "52.4669,-2.9038"
        },
        {
         "Name": "Kempton",
         "PostCode": "SY7",
         "Accuracy": 3,
         "LatLong": "52.451,-2.7599"
        },
        {
         "Name": "Bucknell",
         "PostCode": "SY7",
         "Accuracy": 4,
         "LatLong": "52.3667,-2.95"
        },
        {
         "Name": "Stokesay",
         "PostCode": "SY7",
         "Accuracy": 4,
         "LatLong": "52.4283,-2.83"
        },
        {
         "Name": "Westhope",
         "PostCode": "SY7",
         "Accuracy": 3,
         "LatLong": "52.451,-2.7599"
        },
        {
         "Name": "Bettws-y-crwyn",
         "PostCode": "SY7",
         "Accuracy": 4,
         "LatLong": "52.4333,-3.1667"
        },
        {
         "Name": "Broome",
         "PostCode": "SY7",
         "Accuracy": 4,
         "LatLong": "52.4167,-2.8833"
        },
        {
         "Name": "Corfton",
         "PostCode": "SY7",
         "Accuracy": 3,
         "LatLong": "52.451,-2.7599"
        },
        {
         "Name": "Clunton",
         "PostCode": "SY7",
         "Accuracy": 4,
         "LatLong": "52.426,-2.9798"
        },
        {
         "Name": "Lydbury North",
         "PostCode": "SY7",
         "Accuracy": 4,
         "LatLong": "52.4676,-2.957"
        },
        {
         "Name": "Birtley",
         "PostCode": "SY7",
         "Accuracy": 3,
         "LatLong": "52.451,-2.7599"
        },
        {
         "Name": "Clunbury",
         "PostCode": "SY7",
         "Accuracy": 4,
         "LatLong": "52.4187,-2.9255"
        },
        {
         "Name": "Purslow",
         "PostCode": "SY7",
         "Accuracy": 3,
         "LatLong": "52.451,-2.7599"
        },
        {
         "Name": "Munslow",
         "PostCode": "SY7",
         "Accuracy": 4,
         "LatLong": "52.4849,-2.7057"
        },
        {
         "Name": "Purlogue",
         "PostCode": "SY7",
         "Accuracy": 3,
         "LatLong": "52.451,-2.7599"
        },
        {
         "Name": "Sibdon Carwood",
         "PostCode": "SY7",
         "Accuracy": 4,
         "LatLong": "52.443,-2.8661"
        },
        {
         "Name": "Lower Down",
         "PostCode": "SY7",
         "Accuracy": 3,
         "LatLong": "52.451,-2.7599"
        },
        {
         "Name": "Little Brampton",
         "PostCode": "SY7",
         "Accuracy": 3,
         "LatLong": "52.451,-2.7599"
        },
        {
         "Name": "Hobarris",
         "PostCode": "SY7",
         "Accuracy": 3,
         "LatLong": "52.451,-2.7599"
        },
        {
         "Name": "Hall of the Forest",
         "PostCode": "SY7",
         "Accuracy": 3,
         "LatLong": "52.451,-2.7599"
        },
        {
         "Name": "Chapel Lawn",
         "PostCode": "SY7",
         "Accuracy": 3,
         "LatLong": "52.451,-2.7599"
        },
        {
         "Name": "Buckton",
         "PostCode": "SY7",
         "Accuracy": 3,
         "LatLong": "52.451,-2.7599"
        },
        {
         "Name": "Whitcott Keysett",
         "PostCode": "SY7",
         "Accuracy": 3,
         "LatLong": "52.451,-2.7599"
        },
        {
         "Name": "Vernolds Common",
         "PostCode": "SY7",
         "Accuracy": 3,
         "LatLong": "52.451,-2.7599"
        },
        {
         "Name": "Strefford",
         "PostCode": "SY7",
         "Accuracy": 3,
         "LatLong": "52.451,-2.7599"
        },
        {
         "Name": "Peaton",
         "PostCode": "SY7",
         "Accuracy": 3,
         "LatLong": "52.451,-2.7599"
        },
        {
         "Name": "Obley",
         "PostCode": "SY7",
         "Accuracy": 3,
         "LatLong": "52.451,-2.7599"
        },
        {
         "Name": "Lower Dinchope",
         "PostCode": "SY7",
         "Accuracy": 3,
         "LatLong": "52.451,-2.7599"
        },
        {
         "Name": "Shelderton",
         "PostCode": "SY7",
         "Accuracy": 3,
         "LatLong": "52.451,-2.7599"
        },
        {
         "Name": "Middlehope",
         "PostCode": "SY7",
         "Accuracy": 3,
         "LatLong": "52.451,-2.7599"
        },
        {
         "Name": "Cheney Longville",
         "PostCode": "SY7",
         "Accuracy": 3,
         "LatLong": "52.451,-2.7599"
        },
        {
         "Name": "Aston on Clun",
         "PostCode": "SY7",
         "Accuracy": 3,
         "LatLong": "52.451,-2.7599"
        },
        {
         "Name": "Broadstone",
         "PostCode": "SY7",
         "Accuracy": 3,
         "LatLong": "52.451,-2.7599"
        },
        {
         "Name": "Aston Munslow",
         "PostCode": "SY7",
         "Accuracy": 3,
         "LatLong": "52.451,-2.7599"
        },
        {
         "Name": "Asterton",
         "PostCode": "SY7",
         "Accuracy": 3,
         "LatLong": "52.451,-2.7599"
        },
        {
         "Name": "Norton",
         "PostCode": "SY7",
         "Accuracy": 4,
         "LatLong": "52.4258,-2.8872"
        },
        {
         "Name": "Llwyn",
         "PostCode": "SY7",
         "Accuracy": 3,
         "LatLong": "52.451,-2.7599"
        },
        {
         "Name": "Upper Heath",
         "PostCode": "SY7",
         "Accuracy": 3,
         "LatLong": "52.451,-2.7599"
        },
        {
         "Name": "Twitchen",
         "PostCode": "SY7",
         "Accuracy": 3,
         "LatLong": "52.451,-2.7599"
        },
        {
         "Name": "New Invention",
         "PostCode": "SY7",
         "Accuracy": 3,
         "LatLong": "52.451,-2.7599"
        },
        {
         "Name": "Bicton",
         "PostCode": "SY7",
         "Accuracy": 4,
         "LatLong": "52.4258,-2.8872"
        },
        {
         "Name": "Walcot",
         "PostCode": "SY7",
         "Accuracy": 4,
         "LatLong": "52.4258,-2.8872"
        },
        {
         "Name": "Woodside",
         "PostCode": "SY7",
         "Accuracy": 4,
         "LatLong": "52.4258,-2.8872"
        },
        {
         "Name": "Culmington",
         "PostCode": "SY8",
         "Accuracy": 4,
         "LatLong": "52.4339,-2.7473"
        },
        {
         "Name": "Knowle",
         "PostCode": "SY8",
         "Accuracy": 4,
         "LatLong": "52.3654,-2.6954"
        },
        {
         "Name": "Bromfield",
         "PostCode": "SY8",
         "Accuracy": 4,
         "LatLong": "52.3833,-2.7667"
        },
        {
         "Name": "Orleton Common",
         "PostCode": "SY8",
         "Accuracy": 3,
         "LatLong": "52.383,-2.6942"
        },
        {
         "Name": "Hope Bagot",
         "PostCode": "SY8",
         "Accuracy": 4,
         "LatLong": "52.3627,-2.6049"
        },
        {
         "Name": "Siefton",
         "PostCode": "SY8",
         "Accuracy": 3,
         "LatLong": "52.383,-2.6942"
        },
        {
         "Name": "Ludlow",
         "PostCode": "SY8",
         "Accuracy": 4,
         "LatLong": "52.3743,-2.7131"
        },
        {
         "Name": "Cleehill",
         "PostCode": "SY8",
         "Accuracy": 3,
         "LatLong": "52.383,-2.6942"
        },
        {
         "Name": "Middleton",
         "PostCode": "SY8",
         "Accuracy": 4,
         "LatLong": "52.3833,-2.6833"
        },
        {
         "Name": "Downton on the Rock",
         "PostCode": "SY8",
         "Accuracy": 3,
         "LatLong": "52.383,-2.6942"
        },
        {
         "Name": "Stanton Lacy",
         "PostCode": "SY8",
         "Accuracy": 4,
         "LatLong": "52.4048,-2.7426"
        },
        {
         "Name": "Richard's Castle",
         "PostCode": "SY8",
         "Accuracy": 4,
         "LatLong": "52.3126,-2.7051"
        },
        {
         "Name": "Hayton's Bent",
         "PostCode": "SY8",
         "Accuracy": 3,
         "LatLong": "52.383,-2.6942"
        },
        {
         "Name": "Stoke St Milborough",
         "PostCode": "SY8",
         "Accuracy": 4,
         "LatLong": "52.4333,-2.6333"
        },
        {
         "Name": "Hopton Cangeford",
         "PostCode": "SY8",
         "Accuracy": 4,
         "LatLong": "52.4196,-2.6673"
        },
        {
         "Name": "Farden",
         "PostCode": "SY8",
         "Accuracy": 3,
         "LatLong": "52.383,-2.6942"
        },