{
 "Provinces": [
  {
   "Name": "Anuradhapura",
   "Places": [
    {
     "PostCode": "50000",
     "Accuracy": 4,
     "LatLong": "8.3565,80.4173"
    },
    {
     "Name": "Perimiyankulama",
     "PostCode": "50004",
     "Accuracy": 4,
     "LatLong": "8.2667,80.5333"
    },
    {
     "Name": "Galkadawala",
     "PostCode": "50006",
     "Accuracy": 4,
     "LatLong": "8.6044,80.681"
    },
    {
     "Name": "Saliyapura",
     "PostCode": "50008",
     "Accuracy": 4,
     "LatLong": "8.4225,81.0541"
    },
    {
     "Name": "Viharapalugama",
     "PostCode": "50012",
     "Accuracy": 1,
     "LatLong": "8.3955,80.3103"
    },
    {
     "Name": "Elayapattuwa",
     "PostCode": "50014",
     "Accuracy": 4,
     "LatLong": "8.3955,80.3103"
    },
    {
     "Name": "Tantirimale",
     "PostCode": "50016",
     "Accuracy": 1,
     "LatLong": "8.3955,80.3103"
    },
    {
     "Name": "Pemaduwa",
     "PostCode": "50020",
     "Accuracy": 1,
     "LatLong": "8.3322,80.3645"
    },
    {
     "Name": "Mahawilachchiya",
     "PostCode": "50022",
     "Accuracy": 1,
     "LatLong": "8.3322,80.3645"
    },
    {
     "Name": "Pandulagama",
     "PostCode": "50029",
     "Accuracy": 4,
     "LatLong": "8.3322,80.3645"
    },
    {
     "Name": "Gnanikulama",
     "PostCode": "50036",
     "Accuracy": 4,
     "LatLong": "8.25,80.5167"
    },
    {
     "Name": "Sravasthipura",
     "PostCode": "50042",
     "Accuracy": 1,
     "LatLong": "8.2629,80.4325"
    },
    {
     "Name": "Hidogama",
     "PostCode": "50044",
     "Accuracy": 4,
     "LatLong": "8.2591,80.3983"
    },
    {
     "Name": "Nachchaduwa",
     "PostCode": "50046",
     "Accuracy": 4,
     "LatLong": "8.2667,80.4667"
    },
    {
     "Name": "Parasangahawewa",
     "PostCode": "50055",
     "Accuracy": 4,
     "LatLong": "8.3864,80.3725"
    },
    {
     "Name": "Gambirigaswewa",
     "PostCode": "50057",
     "Accuracy": 4,
     "LatLong": "8.2377,80.3368"
    },
    {
     "Name": "Kurundankulama",
     "PostCode": "50062",
     "Accuracy": 4,
     "LatLong": "8.2,80.45"
    },
    {
     "Name": "Galkulama",
     "PostCode": "50064",
     "Accuracy": 4,
     "LatLong": "8.2667,80.5"
    },
    {
     "Name": "Uttimaduwa",
     "PostCode": "50067",
     "Accuracy": 4,
     "LatLong": "8.25,80.55"
    },
    {
     "Name": "Sivalakulama",
     "PostCode": "50068",
     "Accuracy": 4,
     "LatLong": "8.25,80.6333"
    },
    {
     "Name": "Tirappane",
     "PostCode": "50072",
     "Accuracy": 4,
     "LatLong": "8.3,80.5833"
    },
    {
     "Name": "Maradankadawala",
     "PostCode": "50080",
     "Accuracy": 4,
     "LatLong": "8.1268,80.5621"
    },
    {
     "Name": "Walagambahuwa",
     "PostCode": "50086",
     "Accuracy": 4,
     "LatLong": "8.15,80.5"
    },
    {
     "Name": "Labunoruwa",
     "PostCode": "50088",
     "Accuracy": 4,
     "LatLong": "8.1667,80.6"
    },
    {
     "Name": "Kekirawa",
     "PostCode": "50100",
     "Accuracy": 4,
     "LatLong": "8.0385,80.5941"
    },
    {
     "Name": "Tammennawa",
     "PostCode": "50104",
     "Accuracy": 4,
     "LatLong": "8.0909,80.356"
    },
    {
     "Name": "Vijithapura",
     "PostCode": "50110",
     "Accuracy": 1,
     "LatLong": "7.9,80.5261"
    },
    {
     "Name": "Palagala",
     "PostCode": "50111",
     "Accuracy": 1,
     "LatLong": "7.9,80.5261"
    },
    {
     "Name": "Andiyagala",
     "PostCode": "50112",
     "Accuracy": 4,
     "LatLong": "7.9,80.5261"
    },
    {
     "Name": "Galkiriyagama",
     "PostCode": "50120",
     "Accuracy": 4,
     "LatLong": "7.9425,80.565"
    },
    {
     "Name": "Pubbogama",
     "PostCode": "50122",
     "Accuracy": 4,
     "LatLong": "7.9261,80.5936"
    },
    {
     "Name": "Halmillawa Dambulla",
     "PostCode": "50124",
     "Accuracy": 1,
     "LatLong": "7.9517,80.5913"
    },
    {
     "Name": "Maha Elagamuwa",
     "PostCode": "50126",
     "Accuracy": 4,
     "LatLong": "7.9865,80.6153"
    },
    {
     "Name": "Madatugama",
     "PostCode": "50130",
     "Accuracy": 4,
     "LatLong": "7.942,80.628"
    },
    {
     "Name": "Kitulhitiyawa",
     "PostCode": "50132",
     "Accuracy": 4,
     "LatLong": "7.9185,80.631"
    },
    {
     "Name": "Ganewalpola",
     "PostCode": "50142",
     "Accuracy": 4,
     "LatLong": "8.0933,80.6215"
    },
    {
     "Name": "Palugaswewa",
     "PostCode": "50144",
     "Accuracy": 4,
     "LatLong": "8.0577,80.707"
    },
    {
     "Name": "Habarana",
     "PostCode": "50150",
     "Accuracy": 4,
     "LatLong": "8.0363,80.7467"
    },
    {
     "Name": "Awukana",
     "PostCode": "50169",
     "Accuracy": 1,
     "LatLong": "7.9969,80.5461"
    },
    {
     "Name": "Galnewa",
     "PostCode": "50170",
     "Accuracy": 4,
     "LatLong": "8.0257,80.4803"
    },
    {
     "Name": "Kalankuttiya",
     "PostCode": "50174",
     "Accuracy": 4,
     "LatLong": "8.05,80.3833"
    },
    {
     "Name": "Hurigaswewa",
     "PostCode": "50176",
     "Accuracy": 4,
     "LatLong": "8.0759,80.373"
    },
    {
     "Name": "Negampaha",
     "PostCode": "50180",
     "Accuracy": 4,
     "LatLong": "7.998,80.4595"
    },
    {
     "Name": "Maneruwa",
     "PostCode": "50182",
     "Accuracy": 4,
     "LatLong": "7.9173,80.4859"
    },
    {
     "Name": "Siyambalewa",
     "PostCode": "50184",
     "Accuracy": 4,
     "LatLong": "7.9474,80.5172"
    },
    {
     "Name": "Mahabulankulama",
     "PostCode": "50196",
     "Accuracy": 1,
     "LatLong": "7.9969,80.5461"
    },
    {
     "Name": "Nochchiyagama",
     "PostCode": "50200",
     "Accuracy": 4,
     "LatLong": "8.2631,80.2044"
    },
    {
     "Name": "Pahala Halmillewa",
     "PostCode": "50206",
     "Accuracy": 4,
     "LatLong": "8.1334,80.3599"
    },
    {
     "Name": "Udunuwara Colony",
     "PostCode": "50207",
     "Accuracy": 1,
     "LatLong": "8.1982,80.2822"
    },
    {
     "Name": "Galadivulwewa",
     "PostCode": "50210",
     "Accuracy": 1,
     "LatLong": "7.9218,80.0859"
    },
    {
     "Name": "Ranorawa",
     "PostCode": "50212",
     "Accuracy": 4,
     "LatLong": "7.9267,80.1213"
    },
    {
     "Name": "Dunumadalawa",
     "PostCode": "50214",
     "Accuracy": 4,
     "LatLong": "7.9169,80.0505"
    },
    {
     "Name": "Pahala Maragahawe",
     "PostCode": "50220",
     "Accuracy": 1,
     "LatLong": "8.1929,80.1457"
    },
    {
     "Name": "Horiwila",
     "PostCode": "50222",
     "Accuracy": 1,
     "LatLong": "8.1929,80.1457"
    },
    {
     "Name": "Gemunupura",
     "PostCode": "50224",
     "Accuracy": 4,
     "LatLong": "8.1929,80.1457"
    },
    {
     "Name": "Kalaoya",
     "PostCode": "50226",
     "Accuracy": 1,
     "LatLong": "8.1929,80.1457"
    },
    {
     "Name": "Talawa",
     "PostCode": "50230",
     "Accuracy": 4,
     "LatLong": "8.2364,80.3476"
    },
    {
     "Name": "Karagahawewa",
     "PostCode": "50232",
     "Accuracy": 4,
     "LatLong": "8.2453,80.3307"
    },
    {
     "Name": "Malwanagama",
     "PostCode": "50236",
     "Accuracy": 1,
     "LatLong": "8.2409,80.3391"
    },
    {
     "Name": "Tambuttegama",
     "PostCode": "50240",
     "Accuracy": 4,
     "LatLong": "8.15,80.3"
    },
    {
     "Name": "Telhiriyawa",
     "PostCode": "50242",
     "Accuracy": 4,
     "LatLong": "8.1535,80.3244"
    },
    {
     "Name": "Pahalagama",
     "PostCode": "50244",
     "Accuracy": 4,
     "LatLong": "8.1988,80.2808"
    },
    {
     "Name": "Rajanganaya",
     "PostCode": "50246",
     "Accuracy": 4,
     "LatLong": "8.062,80.251"
    },
    {
     "Name": "Angamuwa",
     "PostCode": "50248",
     "Accuracy": 4,
     "LatLong": "8.1812,80.2013"
    },
    {
     "Name": "Kiralogama",
     "PostCode": "50259",
     "Accuracy": 4,
     "LatLong": "8.1971,80.3798"
    },
    {
     "Name": "Eppawala",
     "PostCode": "50260",
     "Accuracy": 4,
     "LatLong": "8.1426,80.403"
    },
    {
     "Name": "Katiyawa",
     "PostCode": "50261",
     "Accuracy": 4,
     "LatLong": "7.6208,80.5515"
    },
    {
     "Name": "lhala Halmillewa",
     "PostCode": "50262",
     "Accuracy": 1,
     "LatLong": "7.8817,80.4772"
    },
    {
     "Name": "Mahailluppallama",
     "PostCode": "50270",
     "Accuracy": 1,
     "LatLong": "8.1056,80.3107"
    },
    {
     "Name": "lpologama",
     "PostCode": "50280",
     "Accuracy": 1,
     "LatLong": "8.0875,80.5154"
    },
    {
     "Name": "Kagama",
     "PostCode": "50282",
     "Accuracy": 4,
     "LatLong": "8.0839,80.5586"
    },
    {
     "Name": "Senapura",
     "PostCode": "50284",
     "Accuracy": 4,
     "LatLong": "8.0911,80.4722"
    },
    {
     "Name": "Kalakarambewa",
     "PostCode": "50288",
     "Accuracy": 1,
     "LatLong": "8.0875,80.5154"
    },
    {
     "Name": "Mihintale",
     "PostCode": "50300",
     "Accuracy": 4,
     "LatLong": "8.3593,80.5103"
    },
    {
     "Name": "lhalagama",
     "PostCode": "50304",
     "Accuracy": 1,
     "LatLong": "8.3593,80.5103"
    },
    {
     "Name": "Mahakanadarawa",
     "PostCode": "50306",
     "Accuracy": 1,
     "LatLong": "8.3593,80.5103"
    },
    {
     "Name": "Maradankalla",
     "PostCode": "50308",
     "Accuracy": 1,
     "LatLong": "8.3593,80.5103"
    },
    {
     "Name": "Kahatagasdigiliya",
     "PostCode": "50320",
     "Accuracy": 4,
     "LatLong": "8.4214,80.6865"
    },
    {
     "Name": "Mulkiriyawa",
     "PostCode": "50324",
     "Accuracy": 1,
     "LatLong": "8.4214,80.6865"
    },
    {
     "Name": "Parakumpura",
     "PostCode": "50326",
     "Accuracy": 1,
     "LatLong": "8.4214,80.6865"
    },
    {
     "Name": "Mahapothana",
     "PostCode": "50327",
     "Accuracy": 1,
     "LatLong": "8.4214,80.6865"
    },
    {
     "Name": "Megodawewa",
     "PostCode": "50334",
     "Accuracy": 1,
     "LatLong": "8.2333,80.7333"
    },
    {
     "Name": "Padikaramaduwa",
     "PostCode": "50338",
     "Accuracy": 4,
     "LatLong": "8.2333,80.7333"
    },
    {
     "Name": "Namalpura",
     "PostCode": "50339",
     "Accuracy": 1,
     "LatLong": "8.2333,80.7333"
    },
    {
     "Name": "Muriyakadawala",
     "PostCode": "50344",
     "Accuracy": 4,
     "LatLong": "8.2333,80.65"
    },
    {
     "Name": "Morakewa",
     "PostCode": "50349",
     "Accuracy": 4,
     "LatLong": "8.5052,80.7887"
    },
    {
     "Name": "Horawpatana",
     "PostCode": "50350",
     "Accuracy": 1,
     "LatLong": "8.3889,80.766"
    },
    {
     "Name": "Parangiyawadiya",
     "PostCode": "50354",
     "Accuracy": 4,
     "LatLong": "8.4945,80.8654"
    },
    {
     "Name": "Dematawewa",
     "PostCode": "50356",
     "Accuracy": 4,
     "LatLong": "8.2833,80.6667"
    },
    {
     "Name": "Welimuwapotana",
     "PostCode": "50358",
     "Accuracy": 1,
     "LatLong": "8.3889,80.766"
    },
    {
     "Name": "Kapugallawa",
     "PostCode": "50370",
     "Accuracy": 1,
     "LatLong": "8.3558,80.6894"
    },
    {
     "Name": "Seeppukulama",
     "PostCode": "50380",
     "Accuracy": 4,
     "LatLong": "8.3804,80.5888"
    },
    {
     "Name": "Upuldeniya",
     "PostCode": "50382",
     "Accuracy": 1,
     "LatLong": "8.3916,80.6079"
    },
    {
     "Name": "Mailagaswewa",
     "PostCode": "50384",
     "Accuracy": 1,
     "LatLong": "8.3916,80.6079"
    },
    {
     "Name": "Rampathwila",
     "PostCode": "50386",
     "Accuracy": 4,
     "LatLong": "8.4028,80.6269"
    },
    {
     "Name": "Galenbindunuwewa",
     "PostCode": "50390",
     "Accuracy": 4,
     "LatLong": "8.2833,80.7167"
    },
    {
     "Name": "Getalawa",
     "PostCode": "50392",
     "Accuracy": 1,
     "LatLong": "8.3,80.7333"
    },
    {
     "Name": "Dutuwewa",
     "PostCode": "50393",
     "Accuracy": 4,
     "LatLong": "8.3167,80.75"
    },
    {
     "Name": "Hurulunikawewa",
     "PostCode": "50394",
     "Accuracy": 1,
     "LatLong": "8.3,80.7333"
    },
    {
     "Name": "Pandukabayapura",
     "PostCode": "50448",
     "Accuracy": 1,
     "LatLong": "8.4661,80.5484"
    },
    {
     "Name": "Rambewa",
     "PostCode": "50450",
     "Accuracy": 4,
     "LatLong": "8.4423,80.5054"
    },
    {
     "Name": "Kendewa",
     "PostCode": "50452",
     "Accuracy": 4,
     "LatLong": "8.4858,80.6067"
    },
    {
     "Name": "Kallanchiya",
     "PostCode": "50454",
     "Accuracy": 4,
     "LatLong": "8.4592,80.5643"
    },
    {
     "Name": "Wahamalgollewa",
     "PostCode": "50492",
     "Accuracy": 4,
     "LatLong": "8.4771,80.5173"
    },
    {
     "Name": "Medawachchiya",
     "PostCode": "50500",
     "Accuracy": 4,
     "LatLong": "8.5345,80.4923"
    },
    {
     "Name": "Kebithigollewa",
     "PostCode": "50500",
     "Accuracy": 3,
     "LatLong": "8.5345,80.4923"
    },
    {
     "Name": "Punewa",
     "PostCode": "50506",
     "Accuracy": 4,
     "LatLong": "8.6113,80.4715"
    },
    {
     "Name": "Kirigalwewa",
     "PostCode": "50511",
     "Accuracy": 1,
     "LatLong": "8.4941,80.4801"
    },
    {
     "Name": "Pihimbiyagolewa",
     "PostCode": "50512",
     "Accuracy": 1,
     "LatLong": "8.4941,80.4801"
    },
    {
     "Name": "Rathmalgahawewa",
     "PostCode": "50514",
     "Accuracy": 1,
     "LatLong": "8.4941,80.4801"
    },
    {
     "Name": "Walahaviddawewa",
     "PostCode": "50516",
     "Accuracy": 1,
     "LatLong": "8.4941,80.4801"
    },
    {
     "Name": "Etaweeragollewa",
     "PostCode": "50518",
     "Accuracy": 1,
     "LatLong": "8.4941,80.4801"
    },
    {
     "Name": "Halmillawetiya",
     "PostCode": "50552",
     "Accuracy": 4,
     "LatLong": "8.3407,80.2796"
    },
    {
     "Name": "Gonahaddenawa",
     "PostCode": "50554",
     "Accuracy": 1,
     "LatLong": "8.5287,80.5148"
    },
    {
     "Name": "Kalawedi Ulpotha",
     "PostCode": "50556",
     "Accuracy": 1,
     "LatLong": "8.5287,80.5148"
    },
    {
     "Name": "Tittagonewa",
     "PostCode": "50558",
     "Accuracy": 4,
     "LatLong": "8.7167,80.75"
    },
    {
     "Name": "Kahatagollewa",
     "PostCode": "50562",
     "Accuracy": 4,
     "LatLong": "8.4445,80.647"
    },
    {
     "Name": "Wahalkada",
     "PostCode": "50564",
     "Accuracy": 1,
     "LatLong": "8.3807,80.4436"
    },
    {
     "Name": "Bogahawewa",
     "PostCode": "50566",
     "Accuracy": 4,
     "LatLong": "8.3169,80.2401"
    },
    {
     "Name": "Pulmoddai",
     "PostCode": "50567",
     "Accuracy": 1,
     "LatLong": "8.3807,80.4436"
    },
    {
     "Name": "Padaviya",
     "PostCode": "50570",
     "Accuracy": 1,
     "LatLong": "8.4941,80.4801"
    },
    {
     "Name": "Padavi Maithripura",
     "PostCode": "50572",
     "Accuracy": 1,
     "LatLong": "8.4941,80.4801"
    },
    {
     "Name": "Mahasenpura",
     "PostCode": "50574",
     "Accuracy": 1,
     "LatLong": "8.4941,80.4801"
    },
    {
     "Name": "Padavi Parakramapura",
     "PostCode": "50582",
     "Accuracy": 1,
     "LatLong": "8.4941,80.4801"
    },
    {
     "Name": "Etawatunuwewa",
     "PostCode": "50584",
     "Accuracy": 1,
     "LatLong": "8.4941,80.4801"
    },
    {
     "Name": "Welioya Project",
     "PostCode": "50586",
     "Accuracy": 1,
     "LatLong": "8.4941,80.4801"
    },
    {
     "Name": "Padavi Sripura",
     "PostCode": "50587",
     "Accuracy": 1,
     "LatLong": "8.4941,80.4801"
    },
    {
     "Name": "Padavi Sritissapura",
     "PostCode": "50588",
     "Accuracy": 1,
     "LatLong": "8.4941,80.4801"
    }
   ]
  },
  {
   "Name": "Ampara",
   "Places": [
    {
     "PostCode": "32000",
     "Accuracy": 4,
     "LatLong": "7.2975,81.682"
    },
    {
     "Name": "Deegawapiya",
     "PostCode": "32006",
     "Accuracy": 1,
     "LatLong": "7.2975,81.682"
    },
    {
     "Name": "Digamadulla Weeragoda",
     "PostCode": "32008",
     "Accuracy": 1,
     "LatLong": "7.2975,81.682"
    },
    {
     "Name": "Hingurana",
     "PostCode": "32010",
     "Accuracy": 4,
     "LatLong": "7.2144,81.6537"
    },
    {
     "Name": "Moragahapallama",
     "PostCode": "32012",
     "Accuracy": 1,
     "LatLong": "7.2076,81.654"
    },
    {
     "Name": "Damana",
     "PostCode": "32014",
     "Accuracy": 4,
     "LatLong": "7.2007,81.6542"
    },
    {
     "Name": "Madawalalanda",
     "PostCode": "32016",
     "Accuracy": 1,
     "LatLong": "7.2076,81.654"
    },
    {
     "Name": "Mahanagapura",
     "PostCode": "32018",
     "Accuracy": 1,
     "LatLong": "7.2076,81.654"
    },
    {
     "Name": "Pannalagama",
     "PostCode": "32022",
     "Accuracy": 4,
     "LatLong": "7.0724,81.6065"
    },
    {
     "Name": "Bakmitiyawa",
     "PostCode": "32024",
     "Accuracy": 4,
     "LatLong": "7.0194,81.6478"
    },
    {
     "Name": "Paragahakele",
     "PostCode": "32031",
     "Accuracy": 4,
     "LatLong": "7.25,81.6"
    },
    {
     "Name": "Polwaga Janapadaya",
     "PostCode": "32032",
     "Accuracy": 1,
     "LatLong": "7.137,81.5192"
    },
    {
     "Name": "Pahalalanda",
     "PostCode": "32034",
     "Accuracy": 1,
     "LatLong": "7.137,81.5192"
    },
    {
     "Name": "Koknahara",
     "PostCode": "32035",
     "Accuracy": 4,
     "LatLong": "7.186,81.5733"
    },
    {
     "Name": "Namaloya",
     "PostCode": "32037",
     "Accuracy": 4,
     "LatLong": "6.9952,81.3703"
    },
    {
     "Name": "Devalahinda",
     "PostCode": "32038",
     "Accuracy": 1,
     "LatLong": "7.137,81.5192"
    },
    {
     "Name": "Wadinagala",
     "PostCode": "32039",
     "Accuracy": 4,
     "LatLong": "7.1167,81.5333"
    },
    {
     "Name": "Dadayamtalawa",
     "PostCode": "32046",
     "Accuracy": 1,
     "LatLong": "7.1972,81.5989"
    },
    {
     "Name": "Siyambalawewa",
     "PostCode": "32048",
     "Accuracy": 1,
     "LatLong": "7.1972,81.5989"
    },
    {
     "Name": "Central Camp",
     "PostCode": "32050",
     "Accuracy": 1,
     "LatLong": "7.1972,81.5989"
    },
    {
     "Name": "Uhana",
     "PostCode": "32060",
     "Accuracy": 4,
     "LatLong": "7.3667,81.6333"
    },
    {
     "Name": "Werunketagoda",
     "PostCode": "32062",
     "Accuracy": 1,
     "LatLong": "7.4083,81.6333"
    },
    {
     "Name": "Gonagolla",
     "PostCode": "32064",
     "Accuracy": 4,
     "LatLong": "7.45,81.6333"
    },
    {
     "Name": "Galapitagala",
     "PostCode": "32066",
     "Accuracy": 1,
     "LatLong": "7.4083,81.6333"
    },
    {
     "Name": "Rajagalatenna",
     "PostCode": "32068",
     "Accuracy": 1,
     "LatLong": "7.4083,81.6333"
    },
    {
     "Name": "Mangalagama",
     "PostCode": "32069",
     "Accuracy": 1,
     "LatLong": "7.4083,81.6333"
    },
    {
     "Name": "Mahaoya",
     "PostCode": "32070",
     "Accuracy": 1,
     "LatLong": "7.1972,81.5989"
    },
    {
     "Name": "Tempitiya",
     "PostCode": "32072",
     "Accuracy": 1,
     "LatLong": "7.1972,81.5989"
    },
    {
     "Name": "Kekirihena",
     "PostCode": "32074",
     "Accuracy": 1,
     "LatLong": "7.1972,81.5989"
    },
    {
     "Name": "Padiyatalawa",
     "PostCode": "32100",
     "Accuracy": 4,
     "LatLong": "7.4002,81.2428"
    },
    {
     "Name": "Serankada",
     "PostCode": "32101",
     "Accuracy": 4,
     "LatLong": "7.4572,81.2808"
    },
    {
     "Name": "Kolamanthalawa",
     "PostCode": "32102",
     "Accuracy": 1,
     "LatLong": "7.4025,81.2745"
    },
    {
     "Name": "Dorakumbura",
     "PostCode": "32104",
     "Accuracy": 4,
     "LatLong": "7.35,81.3"
    },
    {
     "Name": "Nawamedagama",
     "PostCode": "32120",
     "Accuracy": 1,
     "LatLong": "7.3852,81.3892"
    },
    {
     "Name": "Damanewela",
     "PostCode": "32126",
     "Accuracy": 1,
     "LatLong": "7.3852,81.3892"
    },
    {
     "Name": "Dehiattakandiya",
     "PostCode": "32150",
     "Accuracy": 1,
     "LatLong": "7.3852,81.3892"
    },
    {
     "Name": "Siripura",
     "PostCode": "32155",
     "Accuracy": 1,
     "LatLong": "7.3852,81.3892"
    },
    {
     "Name": "Mawanagama",
     "PostCode": "32158",
     "Accuracy": 1,
     "LatLong": "7.3852,81.3892"
    },
    {
     "Name": "Malwatta",
     "PostCode": "32198",
     "Accuracy": 4,
     "LatLong": "7.3333,81.7333"
    },
    {
     "Name": "Samanthurai",
     "PostCode": "32200",
     "Accuracy": 1,
     "LatLong": "7.3833,81.8333"
    },
    {
     "Name": "Karativu",
     "PostCode": "32250",
     "Accuracy": 4,
     "LatLong": "7.3833,81.8333"
    },
    {
     "Name": "Sainthamaruthu",
     "PostCode": "32280",
     "Accuracy": 1,
     "LatLong": "7.3833,81.8333"
    },
    {
     "Name": "Kalmunai",
     "PostCode": "32300",
     "Accuracy": 4,
     "LatLong": "7.409,81.8347"
    },
    {
     "Name": "Navithanveli",
     "PostCode": "32308",
     "Accuracy": 4,
     "LatLong": "7.4333,81.7833"
    },
    {
     "Name": "Marathamune",
     "PostCode": "32314",
     "Accuracy": 1,
     "LatLong": "7.45,81.8167"
    },
    {
     "Name": "Periyaneelavanai",
     "PostCode": "32316",
     "Accuracy": 4,
     "LatLong": "7.45,81.8167"
    },
    {
     "Name": "Nintavur",
     "PostCode": "32340",
     "Accuracy": 4,
     "LatLong": "7.3498,81.853"
    },
    {
     "Name": "Addalaichenai",
     "PostCode": "32350",
     "Accuracy": 1,
     "LatLong": "7.2667,81.85"
    },
    {
     "Name": "Palamunai",
     "PostCode": "32354",
     "Accuracy": 4,
     "LatLong": "7.2667,81.85"
    },
    {
     "Name": "Oluvil",
     "PostCode": "32360",
     "Accuracy": 4,
     "LatLong": "7.2833,81.85"
    },
    {
     "Name": "Akkaraipattu",
     "PostCode": "32400",
     "Accuracy": 4,
     "LatLong": "7.2165,81.8538"
    },
    {
     "Name": "Kannakipuram",
     "PostCode": "32405",
     "Accuracy": 1,
     "LatLong": "7.2165,81.8538"
    },
    {
     "Name": "Thambiluvil",
     "PostCode": "32415",
     "Accuracy": 4,
     "LatLong": "7.1326,81.8514"
    },
    {
     "Name": "Komari",
     "PostCode": "32418",
     "Accuracy": 4,
     "LatLong": "6.9897,81.8621"
    },
    {
     "Name": "Tirukovil",
     "PostCode": "32420",
     "Accuracy": 4,
     "LatLong": "7.1203,81.849"
    },
    {
     "Name": "lmkkamam",
     "PostCode": "32450",
     "Accuracy": 1,
     "LatLong": "7.1148,81.8541"
    },
    {
     "Name": "Wanagamuwa",
     "PostCode": "32454",
     "Accuracy": 1,
     "LatLong": "7.1148,81.8541"
    },
    {
     "Name": "Pottuvil",
     "PostCode": "32500",
     "Accuracy": 4,
     "LatLong": "6.8762,81.8267"
    },
    {
     "Name": "Panama",
     "PostCode": "32508",
     "Accuracy": 4,
     "LatLong": "6.7552,81.8036"
    },
    {
     "Name": "Lahugala",
     "PostCode": "32512",
     "Accuracy": 1,
     "LatLong": "6.914,81.6639"
    },
    {
     "Name": "Hulannuge",
     "PostCode": "32514",
     "Accuracy": 4,
     "LatLong": "6.914,81.6639"
    }
   ]
  },
  {
   "Name": "Batticaloa",
   "Places": [
    {
     "PostCode": "30000",
     "Accuracy": 4,
     "LatLong": "7.7102,81.6924"
    },
    {
     "Name": "Kannankudah",
     "PostCode": "30016",
     "Accuracy": 4,
     "LatLong": "7.6798,81.6702"
    },
    {
     "Name": "Navatkadu",
     "PostCode": "30018",
     "Accuracy": 4,
     "LatLong": "7.5833,81.7167"
    },
    {
     "Name": "Pillaiyaradi",
     "PostCode": "30022",
     "Accuracy": 1,
     "LatLong": "7.7527,81.6417"
    },
    {
     "Name": "Thannamunai",
     "PostCode": "30024",
     "Accuracy": 4,
     "LatLong": "7.7527,81.6417"
    },
    {
     "Name": "Kattankudi",
     "PostCode": "30100",
     "Accuracy": 4,
     "LatLong": "7.6824,81.7334"
    },
    {
     "Name": "Araipattai",
     "PostCode": "30150",
     "Accuracy": 4,
     "LatLong": "7.6667,81.7333"
    },
    {
     "Name": "Puthukudiyiruppu",
     "PostCode": "30158",
     "Accuracy": 1,
     "LatLong": "7.6333,81.75"
    },
    {
     "Name": "Kirankulam",
     "PostCode": "30159",
     "Accuracy": 4,
     "LatLong": "7.6,81.7667"
    },
    {
     "Name": "Kokkaddichcholai",
     "PostCode": "30160",
     "Accuracy": 1,
     "LatLong": "7.624,81.7599"
    },
    {
     "Name": "Ampilanthurai",
     "PostCode": "30162",
     "Accuracy": 1,
     "LatLong": "7.624,81.7599"
    },
    {
     "Name": "Kurukkalmadam",
     "PostCode": "30192",
     "Accuracy": 4,
     "LatLong": "7.5876,81.7829"
    },
    {
     "Name": "Cheddipalayam",
     "PostCode": "30194",
     "Accuracy": 4,
     "LatLong": "7.5833,81.7833"
    },
    {
     "Name": "Thettativu",
     "PostCode": "30196",
     "Accuracy": 1,
     "LatLong": "7.5855,81.7831"
    },
    {
     "Name": "Kaluwanchikudi",
     "PostCode": "30200",
     "Accuracy": 4,
     "LatLong": "7.5167,81.7833"
    },
    {
     "Name": "Vellavely",
     "PostCode": "30204",
     "Accuracy": 4,
     "LatLong": "7.5,81.7333"
    },
    {
     "Name": "Bakiella",
     "PostCode": "30206",
     "Accuracy": 1,
     "LatLong": "7.5083,81.7583"
    },
    {
     "Name": "Mandur",
     "PostCode": "30220",
     "Accuracy": 4,
     "LatLong": "7.4833,81.75"
    },
    {
     "Name": "Periyaporativu",
     "PostCode": "30230",
     "Accuracy": 4,
     "LatLong": "7.5167,81.7667"
    },
    {
     "Name": "Thirupalugamam",
     "PostCode": "30234",
     "Accuracy": 1,
     "LatLong": "7.525,81.725"
    },
    {
     "Name": "Thikkodai",
     "PostCode": "30236",
     "Accuracy": 4,
     "LatLong": "7.5333,81.6833"
    },
    {
     "Name": "Navagirinagar",
     "PostCode": "30238",
     "Accuracy": 1,
     "LatLong": "7.525,81.725"
    },
    {
     "Name": "Koddaikallar",
     "PostCode": "30249",
     "Accuracy": 1,
     "LatLong": "7.5028,81.7528"
    },
    {
     "Name": "Kallar",
     "PostCode": "30250",
     "Accuracy": 4,
     "LatLong": "7.4667,81.8"
    },
    {
     "Name": "Thuraineelavanai",
     "PostCode": "30254",
     "Accuracy": 1,
     "LatLong": "7.4667,81.8"
    },
    {
     "Name": "Eravur",
     "PostCode": "30300",
     "Accuracy": 4,
     "LatLong": "7.7782,81.6038"
    },
    {
     "Name": "Chenkaladi",
     "PostCode": "30350",
     "Accuracy": 4,
     "LatLong": "7.786,81.591"
    },
    {
     "Name": "Pankudavely",
     "PostCode": "30352",
     "Accuracy": 1,
     "LatLong": "7.7491,81.5689"
    },
    {
     "Name": "Karadiyanaru",
     "PostCode": "30354",
     "Accuracy": 4,
     "LatLong": "7.7121,81.5468"
    },
    {
     "Name": "Periyapullumalai",
     "PostCode": "30358",
     "Accuracy": 1,
     "LatLong": "7.7491,81.5689"
    },
    {
     "Name": "Ayithiyamalai",
     "PostCode": "30362",
     "Accuracy": 1,
     "LatLong": "7.6167,81.55"
    },
    {
     "Name": "Unnichchai",
     "PostCode": "30364",
     "Accuracy": 4,
     "LatLong": "7.6167,81.55"
    },
    {
     "Name": "Kaluwankemy",
     "PostCode": "30372",
     "Accuracy": 1,
     "LatLong": "7.7995,81.5773"
    },
    {
     "Name": "Vantharumoolai",
     "PostCode": "30376",
     "Accuracy": 4,
     "LatLong": "7.7995,81.5773"
    },
    {
     "Name": "Murakottanchanai",
     "PostCode": "30392",
     "Accuracy": 1,
     "LatLong": "7.8655,81.5375"
    },
    {
     "Name": "Kiran",
     "PostCode": "30394",
     "Accuracy": 4,
     "LatLong": "7.8655,81.5375"
    },
    {
     "Name": "Valaichenai",
     "PostCode": "30400",
     "Accuracy": 4,
     "LatLong": "7.6899,81.6011"
    },
    {
     "Name": "Kalkudah",
     "PostCode": "30410",
     "Accuracy": 4,
     "LatLong": "7.9167,81.5667"
    },
    {
     "Name": "Oddamavadi",
     "PostCode": "30420",
     "Accuracy": 4,
     "LatLong": "7.9167,81.5167"
    },
    {
     "Name": "Vakaneri",
     "PostCode": "30424",
     "Accuracy": 4,
     "LatLong": "7.9167,81.4333"
    },
    {
     "Name": "Miravodai",
     "PostCode": "30426",
     "Accuracy": 4,
     "LatLong": "7.9024,81.5098"
    },
    {
     "Name": "Punanai",
     "PostCode": "30428",
     "Accuracy": 4,
     "LatLong": "7.9667,81.3833"
    },
    {
     "Name": "Mankemi",
     "PostCode": "30442",
     "Accuracy": 1,
     "LatLong": "7.9574,81.4805"
    },
    {
     "Name": "Panichankemi",
     "PostCode": "30444",
     "Accuracy": 1,
     "LatLong": "7.9574,81.4805"
    },
    {
     "Name": "Vakarai",
     "PostCode": "30450",
     "Accuracy": 4,
     "LatLong": "8.1333,81.4333"
    },
    {
     "Name": "Kathiraveli",
     "PostCode": "30456",
     "Accuracy": 4,
     "LatLong": "8.2167,81.4"
    }
   ]
  },
  {
   "Name": "Badulla",
   "Places": [
    {
     "PostCode": "90000",
     "Accuracy": 4,
     "LatLong": "6.9895,81.0557"
    },
    {
     "Name": "Soranatota",
     "PostCode": "90008",
     "Accuracy": 4,
     "LatLong": "7.0331,81.0508"
    },
    {
     "Name": "Timbirigaspitiya",
     "PostCode": "90012",
     "Accuracy": 4,
     "LatLong": "7.0195,81.0672"
    },
    {
     "Name": "Egodawela",
     "PostCode": "90013",
     "Accuracy": 4,
     "LatLong": "7.065,81.0619"
    },
    {
     "Name": "Taldena",
     "PostCode": "90014",
     "Accuracy": 4,
     "LatLong": "7.0956,81.0479"
    },
    {
     "Name": "Meegahakiula",
     "PostCode": "90015",
     "Accuracy": 1,
     "LatLong": "7.0866,81.0689"
    },
    {
     "Name": "Ketawatta",
     "PostCode": "90016",
     "Accuracy": 4,
     "LatLong": "7.094,81.0912"
    },
    {
     "Name": "Arawa",
     "PostCode": "90017",
     "Accuracy": 4,
     "LatLong": "7.1591,81.0761"
    },
    {
     "Name": "Baduluoya",
     "PostCode": "90019",
     "Accuracy": 1,
     "LatLong": "7.0866,81.0689"
    },
    {
     "Name": "Kandaketya",
     "PostCode": "90020",
     "Accuracy": 1,
     "LatLong": "7.1089,81.0089"
    },
    {
     "Name": "Maliyadda",
     "PostCode": "90022",
     "Accuracy": 4,
     "LatLong": "7.1089,81.0089"
    },
    {
     "Name": "Rilpola",
     "PostCode": "90026",
     "Accuracy": 1,
     "LatLong": "7.1089,81.0089"
    },
    {
     "Name": "Spring Valley",
     "PostCode": "90028",
     "Accuracy": 1,
     "LatLong": "7.1089,81.0089"
    },
    {
     "Name": "Wineethagama",
     "PostCode": "90034",
     "Accuracy": 1,
     "LatLong": "7.0057,81.0533"
    },
    {
     "Name": "Nelumgama",
     "PostCode": "90042",
     "Accuracy": 4,
     "LatLong": "7.0053,81.0743"
    },
    {
     "Name": "Sirimalgoda",
     "PostCode": "90044",
     "Accuracy": 4,
     "LatLong": "7.0031,81.0829"
    },
    {
     "Name": "Kuttiyagolla",
     "PostCode": "90046",
     "Accuracy": 4,
     "LatLong": "7.0214,81.0879"
    },
    {
     "Name": "Kendagolla",
     "PostCode": "90048",
     "Accuracy": 4,
     "LatLong": "6.9977,81.1086"
    },
    {
     "Name": "Kahataruppa",
     "PostCode": "90052",
     "Accuracy": 4,
     "LatLong": "7.0333,81.1167"
    },
    {
     "Name": "Hali Ela",
     "PostCode": "90060",
     "Accuracy": 4,
     "LatLong": "6.9536,81.0299"
    },
    {
     "Name": "Uva Uduwara",
     "PostCode": "90061",
     "Accuracy": 1,
     "LatLong": "7.0218,80.9957"
    },
    {
     "Name": "Uva Deegalla",
     "PostCode": "90062",
     "Accuracy": 1,
     "LatLong": "7.0218,80.9957"
    },
    {
     "Name": "Jangulla",
     "PostCode": "90063",
     "Accuracy": 1,
     "LatLong": "7.0218,80.9957"
    },
    {
     "Name": "Narangala",
     "PostCode": "90064",
     "Accuracy": 1,
     "LatLong": "7.0218,80.9957"
    },
    {
     "Name": "Galauda",
     "PostCode": "90065",
     "Accuracy": 4,
     "LatLong": "7.034,80.9861"
    },
    {
     "Name": "Beramada",
     "PostCode": "90066",
     "Accuracy": 4,
     "LatLong": "7.0544,80.9785"
    },
    {
     "Name": "Godunna",
     "PostCode": "90067",
     "Accuracy": 4,
     "LatLong": "7.0691,80.9803"
    },
    {
     "Name": "Landewela",
     "PostCode": "90068",
     "Accuracy": 4,
     "LatLong": "6.9977,81.0039"
    },
    {
     "Name": "Kandegedara",
     "PostCode": "90070",
     "Accuracy": 4,
     "LatLong": "7.0276,81.0339"
    },
    {
     "Name": "Pathanewatta",
     "PostCode": "90071",
     "Accuracy": 1,
     "LatLong": "7.0276,81.0339"
    },
    {
     "Name": "Tennepanguwa",
     "PostCode": "90072",
     "Accuracy": 1,
     "LatLong": "7.0276,81.0339"
    },
    {
     "Name": "Demodara",
     "PostCode": "90080",
     "Accuracy": 4,
     "LatLong": "6.9002,81.0555"
    },
    {
     "Name": "Gawarawela",
     "PostCode": "90082",
     "Accuracy": 4,
     "LatLong": "6.9,81.0639"
    },
    {
     "Name": "Ella",
     "PostCode": "90090",
     "Accuracy": 4,
     "LatLong": "6.8756,81.0463"
    },
    {
     "Name": "Uva Karandagolla",
     "PostCode": "90091",
     "Accuracy": 4,
     "LatLong": "6.8336,81.0705"
    },
    {
     "Name": "Ballaketuwa",
     "PostCode": "90092",
     "Accuracy": 4,
     "LatLong": "6.8667,81.1"
    },
    {
     "Name": "Helapupula",
     "PostCode": "90094",
     "Accuracy": 1,
     "LatLong": "6.8586,81.0723"
    },
    {
     "Name": "Bandarawela",
     "PostCode": "90100",
     "Accuracy": 4,
     "LatLong": "6.8334,80.9853"
    },
    {
     "Name": "Kebillawela",
     "PostCode": "90102",
     "Accuracy": 4,
     "LatLong": "6.811,80.9962"
    },
    {
     "Name": "Dulgolla",
     "PostCode": "90104",
     "Accuracy": 4,
     "LatLong": "7.2388,80.7293"
    },
    {
     "Name": "Liyangahawela",
     "PostCode": "90106",
     "Accuracy": 1,
     "LatLong": "6.9251,80.9389"
    },
    {
     "Name": "Ambadandegama",
     "PostCode": "90108",
     "Accuracy": 4,
     "LatLong": "6.8173,81.0448"
    },
    {
     "Name": "Heeloya",
     "PostCode": "90112",
     "Accuracy": 4,
     "LatLong": "6.8447,81.0199"
    },
    {
     "Name": "Makulella",
     "PostCode": "90114",
     "Accuracy": 1,
     "LatLong": "6.8447,81.0199"
    },
    {
     "Name": "Helahalpe",
     "PostCode": "90122",
     "Accuracy": 4,
     "LatLong": "6.8885,81.0357"
    },
    {
     "Name": "Diganatenna",
     "PostCode": "90132",
     "Accuracy": 4,
     "LatLong": "6.8667,80.9667"
    },
    {
     "Name": "Mirahawatta",
     "PostCode": "90134",
     "Accuracy": 4,
     "LatLong": "6.8718,80.9445"
    },
    {
     "Name": "Pattiyagedara",
     "PostCode": "90138",
     "Accuracy": 4,
     "LatLong": "6.8751,80.979"
    },
    {
     "Name": "Ettampitiya",
     "PostCode": "90140",
     "Accuracy": 4,
     "LatLong": "6.9387,80.9717"
    },
    {
     "Name": "Diyatalawa",
     "PostCode": "90150",
     "Accuracy": 4,
     "LatLong": "6.8007,80.9546"
    },
    {
     "Name": "Haputale",
     "PostCode": "90160",
     "Accuracy": 4,
     "LatLong": "6.7681,80.9595"
    },
    {
     "Name": "Ratkarawwa",
     "PostCode": "90164",
     "Accuracy": 4,
     "LatLong": "6.8,80.9167"
    },
    {
     "Name": "Nikapotha",
     "PostCode": "90165",
     "Accuracy": 4,
     "LatLong": "6.7333,80.9667"
    },
    {
     "Name": "Akkarasiyaya",
     "PostCode": "90166",
     "Accuracy": 1,
     "LatLong": "6.7797,80.9208"
    },
    {
     "Name": "Ohiya",
     "PostCode": "90168",
     "Accuracy": 4,
     "LatLong": "6.8173,80.8403"
    },
    {
     "Name": "Boralanda",
     "PostCode": "90170",
     "Accuracy": 4,
     "LatLong": "6.827,80.894"
    },
    {
     "Name": "Pitapola",
     "PostCode": "90171",
     "Accuracy": 4,
     "LatLong": "6.8097,80.893"
    },
    {
     "Name": "Haldummulla",
     "PostCode": "90180",
     "Accuracy": 4,
     "LatLong": "6.7603,80.8844"
    },
    {
     "Name": "Soragune",
     "PostCode": "90183",
     "Accuracy": 1,
     "LatLong": "6.8294,80.8806"
    },
    {
     "Name": "Kiriwanagama",
     "PostCode": "90184",
     "Accuracy": 4,
     "LatLong": "6.9682,80.9118"
    },
    {
     "Name": "Kalupahana",
     "PostCode": "90186",
     "Accuracy": 4,
     "LatLong": "6.7596,80.8455"
    },
    {
     "Name": "Uva Tenna",
     "PostCode": "90188",
     "Accuracy": 1,
     "LatLong": "6.8294,80.8806"
    },
    {
     "Name": "Koslanda",
     "PostCode": "90190",
     "Accuracy": 4,
     "LatLong": "6.7434,81.0189"
    },
    {
     "Name": "Uva Mawelagama",
     "PostCode": "90192",
     "Accuracy": 1,
     "LatLong": "6.7434,81.0189"
    },
    {
     "Name": "Welimada",
     "PostCode": "90200",
     "Accuracy": 4,
     "LatLong": "6.9044,80.9044"
    },
    {
     "Name": "Amunumulla",
     "PostCode": "90204",
     "Accuracy": 4,
     "LatLong": "6.8664,80.9084"
    },
    {
     "Name": "Galedanda",
     "PostCode": "90206",
     "Accuracy": 4,
     "LatLong": "6.8258,80.9291"
    },
    {
     "Name": "Gurutalawa",
     "PostCode": "90208",
     "Accuracy": 4,
     "LatLong": "6.8362,80.9122"
    },
    {
     "Name": "Puhulpola",
     "PostCode": "90212",
     "Accuracy": 4,
     "LatLong": "6.9028,80.9238"
    },
    {
     "Name": "Dikkapitiya",
     "PostCode": "90214",
     "Accuracy": 4,
     "LatLong": "6.7422,80.9733"
    },
    {
     "Name": "Nugatalawa",
     "PostCode": "90216",
     "Accuracy": 4,
     "LatLong": "6.8994,80.8806"
    },
    {
     "Name": "Medawela Udukinda",
     "PostCode": "90218",
     "Accuracy": 1,
     "LatLong": "6.8481,80.9259"
    },
    {
     "Name": "Perawella",
     "PostCode": "90222",
     "Accuracy": 4,
     "LatLong": "6.9378,80.8389"
    },
    {
     "Name": "Hangunnawa",
     "PostCode": "90224",
     "Accuracy": 4,
     "LatLong": "6.9513,80.8729"
    },
    {
     "Name": "Uduhawara",
     "PostCode": "90226",
     "Accuracy": 4,
     "LatLong": "6.9667,80.8667"
    },
    {
     "Name": "Uvaparanagama",
     "PostCode": "90230",
     "Accuracy": 1,
     "LatLong": "6.8833,80.901"
    },
    {
     "Name": "Ambagasdowa",
     "PostCode": "90300",
     "Accuracy": 4,
     "LatLong": "6.9232,80.8936"
    },
    {
     "Name": "Bowela",
     "PostCode": "90302",
     "Accuracy": 4,
     "LatLong": "6.95,80.9333"
    },
    {
     "Name": "Lunuwatta",
     "PostCode": "90310",
     "Accuracy": 1,
     "LatLong": "6.9334,80.9006"
    },
    {
     "Name": "Bambarapana",
     "PostCode": "90322",
     "Accuracy": 4,
     "LatLong": "7.0032,80.9678"
    },
    {
     "Name": "Dimbulana",
     "PostCode": "90324",
     "Accuracy": 4,
     "LatLong": "7,80.95"
    },
    {
     "Name": "Ambagahawatta",
     "PostCode": "90326",
     "Accuracy": 1,
     "LatLong": "7.0167,80.9551"
    },
    {
     "Name": "Maspanna",
     "PostCode": "90328",
     "Accuracy": 4,
     "LatLong": "7.0167,80.95"
    },
    {
     "Name": "Yalagamuwa",
     "PostCode": "90329",
     "Accuracy": 4,
     "LatLong": "7.0469,80.9525"
    },
    {
     "Name": "Keppetipola",
     "PostCode": "90350",
     "Accuracy": 4,
     "LatLong": "6.8975,80.8705"
    },
    {
     "Name": "Kalubululanda",
     "PostCode": "90352",
     "Accuracy": 4,
     "LatLong": "6.8621,80.8791"
    },
    {
     "Name": "Bogahakumbura",
     "PostCode": "90354",
     "Accuracy": 4,
     "LatLong": "6.8631,80.8639"
    },
    {
     "Name": "Kandepuhulpola",
     "PostCode": "90356",
     "Accuracy": 4,
     "LatLong": "6.838,80.8638"
    },
    {
     "Name": "Hewanakumbura",
     "PostCode": "90358",
     "Accuracy": 4,
     "LatLong": "6.8902,80.8473"
    },
    {
     "Name": "Boragas",
     "PostCode": "90362",
     "Accuracy": 4,
     "LatLong": "6.9097,80.8356"
    },
    {
     "Name": "Silmiyapura",
     "PostCode": "90364",
     "Accuracy": 1,
     "LatLong": "6.9097,80.8356"
    },
    {
     "Name": "Passara",
     "PostCode": "90500",
     "Accuracy": 4,
     "LatLong": "6.9346,81.1574"
    },
    {
     "Name": "Bibilegama",
     "PostCode": "90502",
     "Accuracy": 4,
     "LatLong": "6.8945,81.1361"
    },
    {
     "Name": "Miriyabedda",
     "PostCode": "90504",
     "Accuracy": 4,
     "LatLong": "6.9,81.1667"
    },
    {
     "Name": "Kotamuduna",
     "PostCode": "90506",
     "Accuracy": 4,
     "LatLong": "6.8929,81.1841"
    },
    {
     "Name": "Hingurukaduwa",
     "PostCode": "90508",
     "Accuracy": 4,
     "LatLong": "6.8288,81.1573"
    },
    {
     "Name": "Gamewela",
     "PostCode": "90512",
     "Accuracy": 4,
     "LatLong": "6.9186,81.2056"
    },
    {
     "Name": "Medawelagama",
     "PostCode": "90518",
     "Accuracy": 4,
     "LatLong": "6.976,81.1712"
    },
    {
     "Name": "Pelagahatenna",
     "PostCode": "90522",
     "Accuracy": 1,
     "LatLong": "6.9644,81.1584"
    },
    {
     "Name": "Hopton",
     "PostCode": "90524",
     "Accuracy": 1,
     "LatLong": "6.9644,81.1584"
    },
    {
     "Name": "Lunugala",
     "PostCode": "90530",
     "Accuracy": 4,
     "LatLong": "7.0369,81.2017"
    },
    {
     "Name": "Arawakumbura",
     "PostCode": "90532",
     "Accuracy": 4,
     "LatLong": "7.0849,81.1982"
    },
    {
     "Name": "Pallekiruwa",
     "PostCode": "90534",
     "Accuracy": 4,
     "LatLong": "7.0098,81.2362"
    },
    {
     "Name": "Madulsima",
     "PostCode": "90535",
     "Accuracy": 4,
     "LatLong": "7.0334,81.1687"
    },
    {
     "Name": "Metigahatenna",
     "PostCode": "90540",
     "Accuracy": 4,
     "LatLong": "6.9667,81.0833"
    },
    {
     "Name": "Atakiriya",
     "PostCode": "90542",
     "Accuracy": 1,
     "LatLong": "7.0698,81.1023"
    },
    {
     "Name": "Pitamaruwa",
     "PostCode": "90544",
     "Accuracy": 4,
     "LatLong": "7.1162,81.1262"
    },
    {
     "Name": "Kalugahakandura",
     "PostCode": "90546",
     "Accuracy": 4,
     "LatLong": "7.1264,81.0975"
    },
    {
     "Name": "Namunukula",
     "PostCode": "90580",
     "Accuracy": 4,
     "LatLong": "6.9041,81.1211"
    },
    {
     "Name": "Maussagolla",
     "PostCode": "90582",
     "Accuracy": 4,
     "LatLong": "6.9091,81.1323"
    },
    {
     "Name": "Miyanakandura",
     "PostCode": "90584",
     "Accuracy": 4,
     "LatLong": "6.8619,81.1486"
    },
    {
     "Name": "Mahiyanganaya",
     "PostCode": "90700",
     "Accuracy": 1,
     "LatLong": "7.2444,81.1167"
    },
    {
     "Name": "Uraniya",
     "PostCode": "90702",
     "Accuracy": 4,
     "LatLong": "7.2333,81.1"
    },
    {
     "Name": "Ridimaliyadda",
     "PostCode": "90704",
     "Accuracy": 4,
     "LatLong": "7.2333,81.1"
    },
    {
     "Name": "Yalwela",
     "PostCode": "90706",
     "Accuracy": 4,
     "LatLong": "7.2667,81.15"
    },
    {
     "Name": "Arawatta",
     "PostCode": "90712",
     "Accuracy": 4,
     "LatLong": "7.3333,81.05"
    },
    {
     "Name": "Dambana",
     "PostCode": "90714",
     "Accuracy": 1,
     "LatLong": "7.3583,81.1083"
    },
    {
     "Name": "Wewatta",
     "PostCode": "90716",
     "Accuracy": 4,
     "LatLong": "7.3833,81.1667"
    },
    {
     "Name": "Sorabora Colony",
     "PostCode": "90718",
     "Accuracy": 1,
     "LatLong": "7.3583,81.1083"
    },
    {
     "Name": "Aluttaramma",
     "PostCode": "90722",
     "Accuracy": 1,
     "LatLong": "7.2221,81.0612"
    },
    {
     "Name": "Hebarawa",
     "PostCode": "90724",
     "Accuracy": 1,
     "LatLong": "7.2221,81.0612"
    },
    {
     "Name": "Divulapelessa",
     "PostCode": "90726",
     "Accuracy": 1,
     "LatLong": "7.2221,81.0612"
    },
    {
     "Name": "Kuruwitenna",
     "PostCode": "90728",
     "Accuracy": 4,
     "LatLong": "7.2221,81.0612"
    },
    {
     "Name": "Mapakadawewa",
     "PostCode": "90730",
     "Accuracy": 1,
     "LatLong": "7.3,81.1167"
    },
    {
     "Name": "Uva Tissapura",
     "PostCode": "90734",
     "Accuracy": 1,
     "LatLong": "7.3,81.1167"
    },
    {
     "Name": "Aluketiyawa",
     "PostCode": "90736",
     "Accuracy": 4,
     "LatLong": "7.3,81.1167"
    },
    {
     "Name": "Keselpotha",
     "PostCode": "90738",
     "Accuracy": 1,
     "LatLong": "7.3,81.1167"
    },
    {
     "Name": "Girandurukotte",
     "PostCode": "90750",
     "Accuracy": 1,
     "LatLong": "7.4,81.05"
    },
    {
     "Name": "Galporuyaya",
     "PostCode": "90752",
     "Accuracy": 1,
     "LatLong": "7.4,81.05"
    },
    {
     "Name": "Malgoda",
     "PostCode": "90754",
     "Accuracy": 4,
     "LatLong": "7.4,81.05"
    },
    {
     "Name": "Pahalarathkinda",
     "PostCode": "90756",
     "Accuracy": 1,
     "LatLong": "7.4,81.05"
    },
    {
     "Name": "Idalgashinna",
     "PostCode": "96167",
     "Accuracy": 4,
     "LatLong": "6.7819,80.8931"
    }
   ]
  },
  {
   "Name": "Colombo",
   "Places": [
    {
     "Name": "Fort",
     "PostCode": "00100",
     "Accuracy": 4,
     "LatLong": "6.9392,79.8436"
    },
    {
     "Name": "Slave lsland",
     "PostCode": "00200",
     "Accuracy": 1,
     "LatLong": "7.3267,80.5226"
    },
    {
     "Name": "Slave Island",
     "PostCode": "00200",
     "Accuracy": 4,
     "LatLong": "6.9167,79.85"
    },
    {
     "Name": "Colpetty",
     "PostCode": "00300",
     "Accuracy": 4,
     "LatLong": "6.8833,79.85"
    },
    {
     "Name": "Bambalapitiya",
     "PostCode": "00400",
     "Accuracy": 4,
     "LatLong": "6.8914,79.8522"
    },
    {
     "Name": "Havelock Town",
     "PostCode": "00500",
     "Accuracy": 4,
     "LatLong": "6.8841,79.8608"
    },
    {
     "Name": "Kirulapone",
     "PostCode": "00600",
     "Accuracy": 3,
     "LatLong": "6.8753,79.8611"
    },
    {
     "Name": "Wellawatta",
     "PostCode": "00600",
     "Accuracy": 4,
     "LatLong": "6.8753,79.8611"
    },
    {
     "Name": "Borella",
     "PostCode": "00800",
     "Accuracy": 4,
     "LatLong": "6.9177,79.8742"
    },
    {
     "Name": "Kotahena",
     "PostCode": "01300",
     "Accuracy": 4,
     "LatLong": "6.9459,79.8617"
    },
    {
     "Name": "Mutwal",
     "PostCode": "01500",
     "Accuracy": 4,
     "LatLong": "6.95,79.8667"
    },
    {
     "Name": "Sri Jayawardenepu",
     "PostCode": "10100",
     "Accuracy": 1,
     "LatLong": "6.8868,79.9551"
    },
    {
     "Name": "Malabe",
     "PostCode": "10115",
     "Accuracy": 4,
     "LatLong": "6.9083,79.9649"
    },
    {
     "Name": "Talawatugoda",
     "PostCode": "10116",
     "Accuracy": 4,
     "LatLong": "6.8738,79.9378"
    },
    {
     "Name": "Hokandara",
     "PostCode": "10118",
     "Accuracy": 1,
     "LatLong": "6.891,79.9513"
    },
    {
     "Name": "Battaramulla",
     "PostCode": "10120",
     "Accuracy": 4,
     "LatLong": "6.8964,79.9181"
    },
    {
     "Name": "Athurugiriya",
     "PostCode": "10150",
     "Accuracy": 4,
     "LatLong": "6.8687,79.9998"
    },
    {
     "Name": "Homagama",
     "PostCode": "10200",
     "Accuracy": 4,
     "LatLong": "6.844,80.0024"
    },
    {
     "Name": "Mullegama",
     "PostCode": "10202",
     "Accuracy": 4,
     "LatLong": "6.8796,80.0131"
    },
    {
     "Name": "Habarakada",
     "PostCode": "10204",
     "Accuracy": 4,
     "LatLong": "6.8708,80.0092"
    },
    {
     "Name": "Pitipana Homagama",
     "PostCode": "10206",
     "Accuracy": 1,
     "LatLong": "6.848,80.0098"
    },
    {
     "Name": "Kiriwattuduwa",
     "PostCode": "10208",
     "Accuracy": 4,
     "LatLong": "6.7977,80.0146"
    },
    {
     "Name": "Pannipitiya",
     "PostCode": "10230",
     "Accuracy": 4,
     "LatLong": "6.8462,79.9448"
    },
    {
     "Name": "Hiripitya",
     "PostCode": "10232",
     "Accuracy": 1,
     "LatLong": "6.8462,79.9448"
    },
    {
     "Name": "Nugegoda",
     "PostCode": "10250",
     "Accuracy": 4,
     "LatLong": "6.8735,79.8899"
    },
    {
     "Name": "Maharagama",
     "PostCode": "10280",
     "Accuracy": 4,
     "LatLong": "6.848,79.9265"
    },
    {
     "Name": "Boralesgamuwa",
     "PostCode": "10290",
     "Accuracy": 4,
     "LatLong": "6.8382,79.9104"
    },
    {
     "Name": "Piliyandala",
     "PostCode": "10300",
     "Accuracy": 4,
     "LatLong": "6.7999,79.9249"
    },
    {
     "Name": "Deltara",
     "PostCode": "10302",
     "Accuracy": 4,
     "LatLong": "6.7841,79.9117"
    },
    {
     "Name": "Siddamulla",
     "PostCode": "10304",
     "Accuracy": 4,
     "LatLong": "6.8232,79.9586"
    },
    {
     "Name": "Madapatha",
     "PostCode": "10306",
     "Accuracy": 4,
     "LatLong": "6.768,79.929"
    },
    {
     "Name": "Polgasowita",
     "PostCode": "10320",
     "Accuracy": 4,
     "LatLong": "6.7865,79.9657"
    },
    {
     "Name": "Dehiwala",
     "PostCode": "10350",
     "Accuracy": 4,
     "LatLong": "6.8523,79.8656"
    },
    {
     "Name": "Mount Lavinia",
     "PostCode": "10370",
     "Accuracy": 4,
     "LatLong": "6.8339,79.8644"
    },
    {
     "Name": "Moratuwa",
     "PostCode": "10400",
     "Accuracy": 4,
     "LatLong": "6.773,79.8816"
    },
    {
     "Name": "Padukka",
     "PostCode": "10500",
     "Accuracy": 4,
     "LatLong": "6.8408,80.0897"
    },
    {
     "Name": "Horagala",
     "PostCode": "10502",
     "Accuracy": 4,
     "LatLong": "6.8107,80.0466"
    },
    {
     "Name": "Meegoda",
     "PostCode": "10504",
     "Accuracy": 4,
     "LatLong": "6.8479,80.0484"
    },
    {
     "Name": "Kahawala",
     "PostCode": "10508",
     "Accuracy": 4,
     "LatLong": "6.7772,80.1057"
    },
    {
     "Name": "Watareka",
     "PostCode": "10511",
     "Accuracy": 4,
     "LatLong": "6.8509,80.064"
    },
    {
     "Name": "Batawala",
     "PostCode": "10513",
     "Accuracy": 4,
     "LatLong": "6.878,80.0472"
    },
    {
     "Name": "Bope",
     "PostCode": "10522",
     "Accuracy": 4,
     "LatLong": "6.832,80.1314"
    },
    {
     "Name": "Handapangoda",
     "PostCode": "10524",
     "Accuracy": 4,
     "LatLong": "6.7939,80.1441"
    },
    {
     "Name": "Batugampola",
     "PostCode": "10526",
     "Accuracy": 4,
     "LatLong": "6.7758,80.1344"
    },
    {
     "Name": "Kolonnawa",
     "PostCode": "10600",
     "Accuracy": 4,
     "LatLong": "6.9329,79.8848"
    },
    {
     "Name": "Mulleriyawa New Town",
     "PostCode": "10620",
     "Accuracy": 1,
     "LatLong": "6.9287,80.0478"
    },
    {
     "Name": "Kaduwela",
     "PostCode": "10640",
     "Accuracy": 4,
     "LatLong": "6.9339,79.982"
    },
    {
     "Name": "Hanwella",
     "PostCode": "10650",
     "Accuracy": 4,
     "LatLong": "6.9086,80.0796"
    },
    {
     "Name": "Ranala",
     "PostCode": "10654",
     "Accuracy": 4,
     "LatLong": "6.9144,80.032"
    },
    {
     "Name": "Dedigamuwa",
     "PostCode": "10656",
     "Accuracy": 4,
     "LatLong": "6.8905,80.027"
    },
    {
     "Name": "Waga",
     "PostCode": "10680",
     "Accuracy": 4,
     "LatLong": "6.9019,80.1236"
    },
    {
     "Name": "Tummodara",
     "PostCode": "10682",
     "Accuracy": 1,
     "LatLong": "6.9019,80.1236"
    },
    {
     "Name": "Avissawella",
     "PostCode": "10700",
     "Accuracy": 4,
     "LatLong": "6.953,80.2075"
    },
    {
     "Name": "Napawela",
     "PostCode": "10704",
     "Accuracy": 1,
     "LatLong": "6.953,80.2075"
    },
    {
     "Name": "Puwakpitiya",
     "PostCode": "10712",
     "Accuracy": 4,
     "LatLong": "7.0331,80.0722"
    },
    {
     "Name": "Hewainna",
     "PostCode": "10714",
     "Accuracy": 1,
     "LatLong": "7.0999,80.0944"
    },
    {
     "Name": "Kalatuwawa",
     "PostCode": "10718",
     "Accuracy": 4,
     "LatLong": "7.1667,80.1167"
    },
    {
     "Name": "Kosgama",
     "PostCode": "10730",
     "Accuracy": 4,
     "LatLong": "6.9404,80.1276"
    },
    {
     "Name": "Akarawita",
     "PostCode": "10732",
     "Accuracy": 4,
     "LatLong": "6.9459,80.1114"
    }
   ]
  },
  {
   "Name": "Galle",
   "Places": [
    {
     "PostCode": "80000",
     "Accuracy": 4,
     "LatLong": "6.0367,80.217"
    },
    {
     "Name": "Wakwella",
     "PostCode": "80042",
     "Accuracy": 4,
     "LatLong": "6.0949,80.2026"
    },
    {
     "Name": "Anangoda",
     "PostCode": "80044",
     "Accuracy": 1,
     "LatLong": "6.0663,80.2468"
    },
    {
     "Name": "Walahanduwa",
     "PostCode": "80046",
     "Accuracy": 4,
     "LatLong": "6.0568,80.2475"
    },
    {
     "Name": "Ankokkawala",
     "PostCode": "80048",
     "Accuracy": 4,
     "LatLong": "6.0471,80.2902"
    },
    {
     "Name": "Gonamulla Junction",
     "PostCode": "80054",
     "Accuracy": 1,
     "LatLong": "6.0647,80.3013"
    },
    {
     "Name": "Hiyare",
     "PostCode": "80056",
     "Accuracy": 4,
     "LatLong": "6.0647,80.3013"
    },
    {
     "Name": "Talagampola",
     "PostCode": "80058",
     "Accuracy": 1,
     "LatLong": "6.0647,80.3013"
    },
    {
     "Name": "Kottawagama",
     "PostCode": "80062",
     "Accuracy": 1,
     "LatLong": "6.1439,80.3353"
    },
    {
     "Name": "Nakiyadeniya",
     "PostCode": "80064",
     "Accuracy": 4,
     "LatLong": "6.1439,80.3353"
    },
    {
     "Name": "Udugama",
     "PostCode": "80070",
     "Accuracy": 4,
     "LatLong": "6.2211,80.3336"
    },
    {
     "Name": "Panangala",
     "PostCode": "80075",
     "Accuracy": 4,
     "LatLong": "6.2628,80.3223"
    },
    {
     "Name": "Hiniduma",
     "PostCode": "80080",
     "Accuracy": 4,
     "LatLong": "6.3126,80.3116"
    },
    {
     "Name": "Neluwa",
     "PostCode": "80082",
     "Accuracy": 4,
     "LatLong": "6.3757,80.3604"
    },
    {
     "Name": "Warukandeniya",
     "PostCode": "80084",
     "Accuracy": 4,
     "LatLong": "6.3834,80.4182"
    },
    {
     "Name": "Pannimulla Panagoda",
     "PostCode": "80086",
     "Accuracy": 1,
     "LatLong": "6.3572,80.3634"
    },
    {
     "Name": "Akmeemana",
     "PostCode": "80090",
     "Accuracy": 1,
     "LatLong": "6.1818,80.3036"
    },
    {
     "Name": "Meda-Keembiya",
     "PostCode": "80092",
     "Accuracy": 1,
     "LatLong": "6.1818,80.3036"
    },
    {
     "Name": "Wanduramba",
     "PostCode": "80100",
     "Accuracy": 4,
     "LatLong": "6.1305,80.2521"
    },
    {
     "Name": "Yatalamatta",
     "PostCode": "80107",
     "Accuracy": 4,
     "LatLong": "6.1619,80.2766"
    },
    {
     "Name": "Udalamatta",
     "PostCode": "80108",
     "Accuracy": 4,
     "LatLong": "6.1828,80.2952"
    },
    {
     "Name": "Nagoda",
     "PostCode": "80110",
     "Accuracy": 4,
     "LatLong": "6.1958,80.2742"
    },
    {
     "Name": "Mapalagama",
     "PostCode": "80112",
     "Accuracy": 4,
     "LatLong": "6.2307,80.3254"
    },
    {
     "Name": "Parana ThanaYamgoda",
     "PostCode": "80114",
     "Accuracy": 1,
     "LatLong": "6.2133,80.2998"
    },
    {
     "Name": "Mapalagama Central",
     "PostCode": "80116",
     "Accuracy": 1,
     "LatLong": "6.2133,80.2998"
    },
    {
     "Name": "Wanchawela",
     "PostCode": "80120",
     "Accuracy": 1,
     "LatLong": "6.0359,80.3156"
    },
    {
     "Name": "Angulugaha",
     "PostCode": "80122",
     "Accuracy": 4,
     "LatLong": "6.0359,80.3156"
    },
    {
     "Name": "lmaduwa",
     "PostCode": "80130",
     "Accuracy": 1,
     "LatLong": "6.1265,80.4898"
    },
    {
     "Name": "Hawpe",
     "PostCode": "80132",
     "Accuracy": 4,
     "LatLong": "6.1265,80.4898"
    },
    {
     "Name": "Ihala Walpola",
     "PostCode": "80134",
     "Accuracy": 1,
     "LatLong": "6.1265,80.4898"
    },
    {
     "Name": "Kananke Bazaar",
     "PostCode": "80136",
     "Accuracy": 1,
     "LatLong": "6.1265,80.4898"
    },
    {
     "Name": "Opatha",
     "PostCode": "80142",
     "Accuracy": 4,
     "LatLong": "6.3587,80.1412"
    },
    {
     "Name": "Banagala",
     "PostCode": "80143",
     "Accuracy": 4,
     "LatLong": "6.2882,80.2376"
    },
    {
     "Name": "Malgalla Talangalla",
     "PostCode": "80144",
     "Accuracy": 1,
     "LatLong": "6.3285,80.2408"
    },
    {
     "Name": "Halvitigala Colony",
     "PostCode": "80146",
     "Accuracy": 1,
     "LatLong": "6.3285,80.2408"
    },
    {
     "Name": "Tawalama",
     "PostCode": "80148",
     "Accuracy": 4,
     "LatLong": "6.3387,80.3437"
    },
    {
     "Name": "Yakkalamulla",
     "PostCode": "80150",
     "Accuracy": 4,
     "LatLong": "6.1098,80.3454"
    },
    {
     "Name": "Karagoda",
     "PostCode": "80151",
     "Accuracy": 4,
     "LatLong": "6.0931,80.3781"
    },
    {
     "Name": "Magedara",
     "PostCode": "80152",
     "Accuracy": 4,
     "LatLong": "6.1036,80.4062"
    },
    {
     "Name": "Uluvitike",
     "PostCode": "80168",
     "Accuracy": 1,
     "LatLong": "6.1763,80.3065"
    },
    {
     "Name": "Poddala",
     "PostCode": "80170",
     "Accuracy": 4,
     "LatLong": "6.112,80.2105"
    },
    {
     "Name": "Baddegama",
     "PostCode": "80200",
     "Accuracy": 4,
     "LatLong": "6.1652,80.1782"
    },
    {
     "Name": "Ampegama",
     "PostCode": "80204",
     "Accuracy": 4,
     "LatLong": "6.1916,80.1463"
    },
    {
     "Name": "Agaliya",
     "PostCode": "80212",
     "Accuracy": 4,
     "LatLong": "6.193,80.2006"
    },
    {
     "Name": "Unenwitiya",
     "PostCode": "80214",
     "Accuracy": 1,
     "LatLong": "6.2456,80.2234"
    },
    {
     "Name": "Weihena",
     "PostCode": "80216",
     "Accuracy": 4,
     "LatLong": "6.2982,80.2463"
    },
    {
     "Name": "Ginimellagaha",
     "PostCode": "80220",
     "Accuracy": 1,
     "LatLong": "6.1438,80.159"
    },
    {
     "Name": "Gonapinuwala",
     "PostCode": "80230",
     "Accuracy": 4,
     "LatLong": "6.1458,80.1384"
    },
    {
     "Name": "Hikkaduwa",
     "PostCode": "80240",
     "Accuracy": 4,
     "LatLong": "6.1407,80.1012"
    },
    {
     "Name": "Tiranagama",
     "PostCode": "80244",
     "Accuracy": 4,
     "LatLong": "6.1282,80.1245"
    },
    {
     "Name": "Dodanduwa",
     "PostCode": "80250",
     "Accuracy": 4,
     "LatLong": "6.0962,80.1351"
    },
    {
     "Name": "Ratgama",
     "PostCode": "80260",
     "Accuracy": 4,
     "LatLong": "6.0941,80.1429"
    },
    {
     "Name": "Boossa",
     "PostCode": "80270",
     "Accuracy": 4,
     "LatLong": "6.0733,80.1577"
    },
    {
     "Name": "Gintota",
     "PostCode": "80280",
     "Accuracy": 4,
     "LatLong": "6.0559,80.1774"
    },
    {
     "Name": "Ambalangoda",
     "PostCode": "80300",
     "Accuracy": 4,
     "LatLong": "6.2355,80.0538"
    },
    {
     "Name": "Godahena",
     "PostCode": "80302",
     "Accuracy": 4,
     "LatLong": "6.2393,80.0752"
    },
    {
     "Name": "Kahawa",
     "PostCode": "80312",
     "Accuracy": 4,
     "LatLong": "6.1832,80.0734"
    },
    {
     "Name": "Nindana",
     "PostCode": "80318",
     "Accuracy": 4,
     "LatLong": "6.2033,80.103"
    },
    {
     "Name": "Batapola",
     "PostCode": "80320",
     "Accuracy": 4,
     "LatLong": "6.2216,80.1254"
    },
    {
     "Name": "Kuleegoda",
     "PostCode": "80328",
     "Accuracy": 1,
     "LatLong": "6.2216,80.1254"
    },
    {
     "Name": "Meetiyagoda",
     "PostCode": "80330",
     "Accuracy": 4,
     "LatLong": "6.1915,80.0895"
    },
    {
     "Name": "Aluthwala",
     "PostCode": "80332",
     "Accuracy": 4,
     "LatLong": "6.1776,80.1386"
    },
    {
     "Name": "Watugedara",
     "PostCode": "80340",
     "Accuracy": 4,
     "LatLong": "6.2545,80.0576"
    },
    {
     "Name": "Uragasmanhandiya",
     "PostCode": "80350",
     "Accuracy": 4,
     "LatLong": "6.3429,80.0927"
    },
    {
     "Name": "Uragaha",
     "PostCode": "80352",
     "Accuracy": 4,
     "LatLong": "6.3589,80.1181"
    },
    {
     "Name": "Rantotuwila",
     "PostCode": "80354",
     "Accuracy": 4,
     "LatLong": "6.3847,80.097"
    },
    {
     "Name": "Karandeniya",
     "PostCode": "80360",
     "Accuracy": 4,
     "LatLong": "6.2704,80.0794"
    },
    {
     "Name": "Elpitiya",
     "PostCode": "80400",
     "Accuracy": 4,
     "LatLong": "6.2908,80.1626"
    },
    {
     "Name": "Ella Tanabaddegama",
     "PostCode": "80402",
     "Accuracy": 1,
     "LatLong": "6.2899,80.1978"
    },
    {
     "Name": "Talgaspe",
     "PostCode": "80406",
     "Accuracy": 4,
     "LatLong": "6.3081,80.1985"
    },
    {
     "Name": "Porawagama",
     "PostCode": "80408",
     "Accuracy": 4,
     "LatLong": "6.2707,80.2324"
    },
    {
     "Name": "Nawadagala",
     "PostCode": "80416",
     "Accuracy": 4,
     "LatLong": "6.3113,80.1333"
    },
    {
     "Name": "Pitigala",
     "PostCode": "80420",
     "Accuracy": 4,
     "LatLong": "6.3517,80.2162"
    },
    {
     "Name": "Amugoda",
     "PostCode": "80422",
     "Accuracy": 4,
     "LatLong": "6.3205,80.2173"
    },
    {
     "Name": "Mattaka",
     "PostCode": "80424",
     "Accuracy": 4,
     "LatLong": "6.3041,80.2522"
    },
    {
     "Name": "lhalahewessa",
     "PostCode": "80432",
     "Accuracy": 1,
     "LatLong": "6.2995,80.1968"
    },
    {
     "Name": "Ganegoda",
     "PostCode": "80440",
     "Accuracy": 4,
     "LatLong": "6.3223,80.1516"
    },
    {
     "Name": "Ethkandura",
     "PostCode": "80458",
     "Accuracy": 1,
     "LatLong": "6.2995,80.1968"
    },
    {
     "Name": "Kahaduwa",
     "PostCode": "80460",
     "Accuracy": 4,
     "LatLong": "6.2159,80.2072"
    },
    {
     "Name": "Talgaswela",
     "PostCode": "80470",
     "Accuracy": 1,
     "LatLong": "6.2995,80.1968"
    },
    {
     "Name": "Bentota",
     "PostCode": "80500",
     "Accuracy": 4,
     "LatLong": "6.4254,79.9948"
    },
    {
     "Name": "Gonagalpura",
     "PostCode": "80502",
     "Accuracy": 1,
     "LatLong": "6.4015,80.0291"
    },
    {
     "Name": "Haburugala",
     "PostCode": "80506",
     "Accuracy": 4,
     "LatLong": "6.4001,80.0361"
    },
    {
     "Name": "Miriswatta",
     "PostCode": "80508",
     "Accuracy": 4,
     "LatLong": "6.379,80.0563"
    },
    {
     "Name": "lnduruwa",
     "PostCode": "80510",
     "Accuracy": 1,
     "LatLong": "6.3557,80.0304"
    },
    {
     "Name": "Balapitiya",
     "PostCode": "80550",
     "Accuracy": 4,
     "LatLong": "6.278,80.0366"
    },
    {
     "Name": "Ahungalla",
     "PostCode": "80562",
     "Accuracy": 4,
     "LatLong": "6.3136,80.0322"
    },
    {
     "Name": "Kosgoda",
     "PostCode": "80570",
     "Accuracy": 4,
     "LatLong": "6.338,80.0262"
    },
    {
     "Name": "Unawatuna",
     "PostCode": "80600",
     "Accuracy": 4,
     "LatLong": "6.0212,80.2503"
    },
    {
     "Name": "Talpe",
     "PostCode": "80615",
     "Accuracy": 4,
     "LatLong": "5.9999,80.2787"
    },
    {
     "Name": "Habaraduwa",
     "PostCode": "80630",
     "Accuracy": 4,
     "LatLong": "5.9977,80.2958"
    },
    {
     "Name": "Ahangama",
     "PostCode": "80650",
     "Accuracy": 4,
     "LatLong": "5.9896,80.3598"
    },
    {
     "Name": "Dikkumbura",
     "PostCode": "80654",
     "Accuracy": 4,
     "LatLong": "6.0116,80.3729"
    }
   ]
  },
  {
   "Name": "Gampaha",
   "Places": [
    {
     "Name": "Pugoda",
     "PostCode": "10660",
     "Accuracy": 4,
     "LatLong": "6.9911,80.1197"
    },
    {
     "Name": "Kapugoda",
     "PostCode": "10662",
     "Accuracy": 4,
     "LatLong": "6.9504,80.0916"
    },
    {
     "Name": "Tittapattara",
     "PostCode": "10664",
     "Accuracy": 4,
     "LatLong": "6.9345,80.0902"
    },
    {
     "PostCode": "11000",
     "Accuracy": 4,
     "LatLong": "7.0897,79.9925"
    },
    {
     "Name": "Ragama",
     "PostCode": "11010",
     "Accuracy": 4,
     "LatLong": "7.0292,79.917"
    },
    {
     "Name": "Batuwatta",
     "PostCode": "11011",
     "Accuracy": 4,
     "LatLong": "7.0527,79.9266"
    },
    {
     "Name": "Walpola (WP)",
     "PostCode": "11012",
     "Accuracy": 1,
     "LatLong": "7.041,79.9218"
    },
    {
     "Name": "Ganemulla",
     "PostCode": "11020",
     "Accuracy": 4,
     "LatLong": "7.0652,79.963"
    },
    {
     "Name": "Bollete (WP)",
     "PostCode": "11024",
     "Accuracy": 1,
     "LatLong": "7.0652,79.963"
    },
    {
     "Name": "Udugampola",
     "PostCode": "11030",
     "Accuracy": 4,
     "LatLong": "7.1167,79.9833"
    },
    {
     "Name": "Madelgamuwa",
     "PostCode": "11033",
     "Accuracy": 4,
     "LatLong": "7.1116,79.953"
    },
    {
     "Name": "Uggalboda",
     "PostCode": "11034",
     "Accuracy": 4,
     "LatLong": "7.1273,79.9563"
    },
    {
     "Name": "Bemmulla",
     "PostCode": "11040",
     "Accuracy": 4,
     "LatLong": "7.1229,80.0239"
    },
    {
     "Name": "Pethiyagoda",
     "PostCode": "11043",
     "Accuracy": 1,
     "LatLong": "7.1229,80.0239"
    },
    {
     "Name": "Ambagaspitiya",
     "PostCode": "11052",
     "Accuracy": 4,
     "LatLong": "7.0821,80.0616"
    },
    {
     "Name": "Udathuthiripitiya",
     "PostCode": "11054",
     "Accuracy": 1,
     "LatLong": "7.0716,80.0333"
    },
    {
     "Name": "Mudungoda",
     "PostCode": "11056",
     "Accuracy": 4,
     "LatLong": "7.061,80.0049"
    },
    {
     "Name": "Mandawala",
     "PostCode": "11061",
     "Accuracy": 4,
     "LatLong": "7.0188,80.083"
    },
    {
     "Name": "Lunugama",
     "PostCode": "11062",
     "Accuracy": 4,
     "LatLong": "6.9714,80.0933"
    },
    {
     "Name": "Naranwala",
     "PostCode": "11063",
     "Accuracy": 4,
     "LatLong": "7.0006,80.0245"
    },
    {
     "Name": "Nedungamuwa",
     "PostCode": "11066",
     "Accuracy": 4,
     "LatLong": "7.0393,80.0197"
    },
    {
     "Name": "Wanaluwewa",
     "PostCode": "11068",
     "Accuracy": 1,
     "LatLong": "7.0075,80.0551"
    },
    {
     "Name": "Veyangoda",
     "PostCode": "11100",
     "Accuracy": 4,
     "LatLong": "7.1535,80.0597"
    },
    {
     "Name": "Dewalapola",
     "PostCode": "11102",
     "Accuracy": 4,
     "LatLong": "7.1659,79.9905"
    },
    {
     "Name": "Wattala",
     "PostCode": "11104",
     "Accuracy": 4,
     "LatLong": "6.9779,79.8898"
    },
    {
     "Name": "Watinapaha",
     "PostCode": "11104",
     "Accuracy": 4,
     "LatLong": "7.1891,80.0004"
    },
    {
     "Name": "Kumbaloluwa",
     "PostCode": "11105",
     "Accuracy": 4,
     "LatLong": "7.1763,80.0827"
    },
    {
     "Name": "Essella",
     "PostCode": "11108",
     "Accuracy": 4,
     "LatLong": "7.1773,80.0123"
    },
    {
     "Name": "Muddaragama",
     "PostCode": "11112",
     "Accuracy": 4,
     "LatLong": "7.2077,80.0545"
    },
    {
     "Name": "Mabodale",
     "PostCode": "11114",
     "Accuracy": 4,
     "LatLong": "7.1981,80.0166"
    },
    {
     "Name": "Ellakkala",
     "PostCode": "11116",
     "Accuracy": 4,
     "LatLong": "7.144,80.1241"
    },
    {
     "Name": "Attanagalla",
     "PostCode": "11120",
     "Accuracy": 4,
     "LatLong": "7.1152,80.1341"
    },
    {
     "Name": "Alawala",
     "PostCode": "11122",
     "Accuracy": 4,
     "LatLong": "7.1202,80.1815"
    },
    {
     "Name": "Urapola",
     "PostCode": "11126",
     "Accuracy": 4,
     "LatLong": "7.0987,80.143"
    },
    {
     "Name": "Nikahetikanda",
     "PostCode": "11128",
     "Accuracy": 4,
     "LatLong": "7.0951,80.1689"
    },
    {
     "Name": "Rukmale",
     "PostCode": "11129",
     "Accuracy": 4,
     "LatLong": "7.4074,80.0869"
    },
    {
     "Name": "Bopagama",
     "PostCode": "11134",
     "Accuracy": 4,
     "LatLong": "7.0742,80.1501"
    },
    {
     "Name": "Ruggahawila",
     "PostCode": "11142",
     "Accuracy": 1,
     "LatLong": "7.0725,80.115"
    },
    {
     "Name": "Kahatowita",
     "PostCode": "11144",
     "Accuracy": 1,
     "LatLong": "7.0725,80.115"
    },
    {
     "Name": "Walgammulla",
     "PostCode": "11146",
     "Accuracy": 4,
     "LatLong": "7.0725,80.115"
    },
    {
     "Name": "Pallewela",
     "PostCode": "11150",
     "Accuracy": 4,
     "LatLong": "7.2,80.0833"
    },
    {
     "Name": "Kaleliya",
     "PostCode": "11160",
     "Accuracy": 4,
     "LatLong": "7.195,80.1136"
    },
    {
     "Name": "Mirigama",
     "PostCode": "11200",
     "Accuracy": 4,
     "LatLong": "7.2439,80.1212"
    },
    {
     "Name": "Loluwagoda",
     "PostCode": "11204",
     "Accuracy": 4,
     "LatLong": "7.2959,80.1346"
    },
    {
     "Name": "Kitalawalana",
     "PostCode": "11206",
     "Accuracy": 4,
     "LatLong": "7.2965,80.1001"
    },
    {
     "Name": "Divuldeniya",
     "PostCode": "11208",
     "Accuracy": 4,
     "LatLong": "7.3028,80.0957"
    },
    {
     "Name": "Ambepussa",
     "PostCode": "11212",
     "Accuracy": 4,
     "LatLong": "7.2507,80.1723"
    },
    {
     "Name": "Pamunuwatta",
     "PostCode": "11214",
     "Accuracy": 4,
     "LatLong": "7.2127,80.1375"
    },
    {
     "Name": "Bokalagama",
     "PostCode": "11216",
     "Accuracy": 1,
     "LatLong": "7.2317,80.1549"
    },
    {
     "Name": "Nawana",
     "PostCode": "11222",
     "Accuracy": 4,
     "LatLong": "7.2638,80.1012"
    },
    {
     "Name": "Kaluaggala",
     "PostCode": "11224",
     "Accuracy": 4,
     "LatLong": "6.9173,80.1109"
    },
    {
     "Name": "Walpita",
     "PostCode": "11226",
     "Accuracy": 4,
     "LatLong": "7.2601,80.0493"
    },
    {
     "Name": "Delwagura",
     "PostCode": "11228",
     "Accuracy": 4,
     "LatLong": "7.2661,79.9936"
    },
    {
     "Name": "Kotadeniyawa",
     "PostCode": "11232",
     "Accuracy": 4,
     "LatLong": "7.2844,80.0625"
    },
    {
     "Name": "Mellawagedara",
     "PostCode": "11234",
     "Accuracy": 1,
     "LatLong": "7.2844,80.0625"
    },
    {
     "Name": "Kitulwala",
     "PostCode": "11242",
     "Accuracy": 4,
     "LatLong": "7.5034,80.5318"
    },
    {
     "Name": "Banduragoda",
     "PostCode": "11244",
     "Accuracy": 4,
     "LatLong": "7.2266,80.0544"
    },
    {
     "Name": "Divulapitiya",
     "PostCode": "11250",
     "Accuracy": 4,
     "LatLong": "7.224,80.0094"
    },
    {
     "Name": "Marandagahamula",
     "PostCode": "11260",
     "Accuracy": 1,
     "LatLong": "7.2405,79.9723"
    },
    {
     "Name": "Hunumulla",
     "PostCode": "11262",
     "Accuracy": 4,
     "LatLong": "7.2453,79.9974"
    },
    {
     "Name": "Dunagaha",
     "PostCode": "11264",
     "Accuracy": 4,
     "LatLong": "7.2256,79.9685"
    },
    {
     "Name": "Ihala Madampella",
     "PostCode": "11265",
     "Accuracy": 4,
     "LatLong": "7.2507,79.9509"
    },
    {
     "Name": "Demanhandiya",
     "PostCode": "11270",
     "Accuracy": 4,
     "LatLong": "7.2282,79.8964"
    },
    {
     "Name": "Kandana",
     "PostCode": "11320",
     "Accuracy": 4,
     "LatLong": "7.048,79.8937"
    },
    {
     "Name": "Polpithimukulana",
     "PostCode": "11324",
     "Accuracy": 1,
     "LatLong": "7.045,79.8781"
    },
    {
     "Name": "Uswetakeiyawa",
     "PostCode": "11328",
     "Accuracy": 4,
     "LatLong": "7.0421,79.8624"
    },
    {
     "Name": "Ja-Ela",
     "PostCode": "11350",
     "Accuracy": 4,
     "LatLong": "7.0744,79.8919"
    },
    {
     "Name": "Niwandama",
     "PostCode": "11354",
     "Accuracy": 4,
     "LatLong": "7.0815,79.9308"
    },
    {
     "Name": "Makewita",
     "PostCode": "11358",
     "Accuracy": 4,
     "LatLong": "7.1023,79.9313"
    },
    {
     "Name": "Pamunugama",
     "PostCode": "11370",
     "Accuracy": 4,
     "LatLong": "7.1006,79.8481"
    },
    {
     "Name": "Ekala",
     "PostCode": "11380",
     "Accuracy": 4,
     "LatLong": "7.099,79.913"
    },
    {
     "Name": "Kotugoda",
     "PostCode": "11390",
     "Accuracy": 4,
     "LatLong": "7.1231,79.9263"
    },
    {
     "Name": "Raddolugama",
     "PostCode": "11400",
     "Accuracy": 4,
     "LatLong": "7.1371,79.9034"
    },
    {
     "Name": "Seeduwa",
     "PostCode": "11410",
     "Accuracy": 4,
     "LatLong": "7.1305,79.8871"
    },
    {
     "Name": "Katunayake(FTZ)",
     "PostCode": "11420",
     "Accuracy": 1,
     "LatLong": "7.144,79.8887"
    },
    {
     "Name": "Katunayake Air Force Camp",
     "PostCode": "11440",
     "Accuracy": 1,
     "LatLong": "7.144,79.8887"
    },
    {
     "Name": "Katunayake",
     "PostCode": "11450",
     "Accuracy": 4,
     "LatLong": "7.1643,79.8757"
    },
    {
     "Name": "Negombo",
     "PostCode": "11500",
     "Accuracy": 4,
     "LatLong": "7.2083,79.8358"
    },
    {
     "Name": "Talahena",
     "PostCode": "11504",
     "Accuracy": 4,
     "LatLong": "7.1624,79.8246"
    },
    {
     "Name": "Kimbulapitiya",
     "PostCode": "11522",
     "Accuracy": 4,
     "LatLong": "7.2036,79.895"
    },
    {
     "Name": "Dagonna",
     "PostCode": "11524",
     "Accuracy": 4,
     "LatLong": "7.2219,79.9279"
    },
    {
     "Name": "Katuwellegama",
     "PostCode": "11526",
     "Accuracy": 4,
     "LatLong": "7.2234,79.9383"
    },
    {
     "Name": "Thimbirigaskatuwa",
     "PostCode": "11532",
     "Accuracy": 1,
     "LatLong": "7.2715,79.9484"
    },
    {
     "Name": "Katana",
     "PostCode": "11534",
     "Accuracy": 4,
     "LatLong": "7.2503,79.8957"
    },
    {
     "Name": "Akaragama",
     "PostCode": "11536",
     "Accuracy": 4,
     "LatLong": "7.2666,79.9652"
    },
    {
     "Name": "Badalgama",
     "PostCode": "11538",
     "Accuracy": 4,
     "LatLong": "7.2976,79.9844"
    },
    {
     "Name": "Kochchikade",
     "PostCode": "11540",
     "Accuracy": 4,
     "LatLong": "7.2657,79.8603"
    },
    {
     "Name": "Minuwangoda",
     "PostCode": "11550",
     "Accuracy": 4,
     "LatLong": "7.1663,79.9533"
    },
    {
     "Name": "Andiambalama",
     "PostCode": "11558",
     "Accuracy": 4,
     "LatLong": "7.1818,79.9001"
    },
    {
     "Name": "Wegowwa",
     "PostCode": "11562",
     "Accuracy": 4,
     "LatLong": "7.1715,79.9665"
    },
    {
     "Name": "Horampella",
     "PostCode": "11564",
     "Accuracy": 1,
     "LatLong": "7.1715,79.9665"
    },
    {
     "Name": "Yatiyana(WP)",
     "PostCode": "11566",
     "Accuracy": 1,
     "LatLong": "7.1715,79.9665"
    },
    {
     "Name": "Hinatiyana Madawala",
     "PostCode": "11568",
     "Accuracy": 1,
     "LatLong": "7.1715,79.9665"
    },
    {
     "Name": "Kelaniya",
     "PostCode": "11600",
     "Accuracy": 4,
     "LatLong": "6.9553,79.922"
    },
    {
     "Name": "Siyambalape",
     "PostCode": "11607",
     "Accuracy": 4,
     "LatLong": "6.9707,79.9875"
    },
    {
     "Name": "Heiyanthuduwa",
     "PostCode": "11618",
     "Accuracy": 1,
     "LatLong": "6.9618,80.0025"
    },
    {
     "Name": "GonawalaWP",
     "PostCode": "11630",
     "Accuracy": 1,
     "LatLong": "6.9618,80.0025"
    },
    {
     "Name": "Makola",
     "PostCode": "11640",
     "Accuracy": 4,
     "LatLong": "6.9769,79.958"
    },
    {
     "Name": "Biyagama",
     "PostCode": "11650",
     "Accuracy": 4,
     "LatLong": "6.9423,79.9842"
    },
    {
     "Name": "Malwana",
     "PostCode": "11670",
     "Accuracy": 4,
     "LatLong": "6.9414,80.021"
    },
    {
     "Name": "Biyagama IPZ",
     "PostCode": "11672",
     "Accuracy": 1,
     "LatLong": "6.9414,80.021"
    },
    {
     "Name": "Dompe",
     "PostCode": "11680",
     "Accuracy": 4,
     "LatLong": "6.9503,80.051"
    },
    {
     "Name": "Dekatana",
     "PostCode": "11690",
     "Accuracy": 4,
     "LatLong": "6.9694,80.0481"
    },
    {
     "Name": "Demalagama",
     "PostCode": "11692",
     "Accuracy": 4,
     "LatLong": "6.9879,80.0483"
    },
    {
     "Name": "Delgoda",
     "PostCode": "11700",
     "Accuracy": 4,
     "LatLong": "6.9909,80.008"
    },
    {
     "Name": "Weliveriya",
     "PostCode": "11710",
     "Accuracy": 1,
     "LatLong": "7.0177,80.0488"
    },
    {
     "Name": "Henegama",
     "PostCode": "11715",
     "Accuracy": 4,
     "LatLong": "7.0177,80.0488"
    },
    {
     "Name": "Buthpitiya",
     "PostCode": "11720",
     "Accuracy": 4,
     "LatLong": "7.0491,80.0514"
    },
    {
     "Name": "Wathurugama",
     "PostCode": "11724",
     "Accuracy": 1,
     "LatLong": "7.0406,80.0713"
    },
    {
     "Name": "Radawana",
     "PostCode": "11725",
     "Accuracy": 4,
     "LatLong": "7.0321,80.0912"
    },
    {
     "Name": "Kirindiwela",
     "PostCode": "11730",
     "Accuracy": 4,
     "LatLong": "7.0417,80.1282"
    },
    {
     "Name": "Hiswella",
     "PostCode": "11734",
     "Accuracy": 1,
     "LatLong": "7.0417,80.1282"
    },
    {
     "Name": "Pepiliyawala",
     "PostCode": "11741",
     "Accuracy": 4,
     "LatLong": "6.9982,80.1286"
    },
    {
     "Name": "Mithirigala",
     "PostCode": "11742",
     "Accuracy": 1,
     "LatLong": "6.9982,80.1286"
    },
    {
     "Name": "Peliyagoda",
     "PostCode": "11830",
     "Accuracy": 4,
     "LatLong": "6.9685,79.8836"
    },
    {
     "Name": "Kadawatha",
     "PostCode": "11850",
     "Accuracy": 1,
     "LatLong": "7.0276,79.993"
    },
    {
     "Name": "Imbulgoda",
     "PostCode": "11856",
     "Accuracy": 4,
     "LatLong": "7.0376,79.9913"
    },
    {
     "Name": "Weboda",
     "PostCode": "11858",
     "Accuracy": 4,
     "LatLong": "7.0176,79.9946"
    },
    {
     "Name": "Yakkala",
     "PostCode": "11870",
     "Accuracy": 4,
     "LatLong": "7.0869,80.0271"
    },
    {
     "Name": "Kalagedihena",
     "PostCode": "11875",
     "Accuracy": 4,
     "LatLong": "7.1185,80.0563"
    },
    {
     "Name": "Nittambuwa",
     "PostCode": "11880",
     "Accuracy": 4,
     "LatLong": "7.1426,80.0938"
    },
    {
     "Name": "Debahera",
     "PostCode": "11889",
     "Accuracy": 1,
     "LatLong": "7.1426,80.0938"
    },
    {
     "Name": "Pasyala",
     "PostCode": "11890",
     "Accuracy": 4,
     "LatLong": "7.1666,80.1219"
    },
    {
     "Name": "Radawadunna",
     "PostCode": "11892",
     "Accuracy": 4,
     "LatLong": "7.1785,80.1409"
    },
    {
     "Name": "Weweldeniya",
     "PostCode": "11894",
     "Accuracy": 1,
     "LatLong": "7.184,80.1466"
    },
    {
     "Name": "Danowita",
     "PostCode": "11896",
     "Accuracy": 4,
     "LatLong": "7.207,80.1769"
    }
   ]
  },
  {
   "Name": "Hambantota",
   "Places": [
    {
     "PostCode": "82000",
     "Accuracy": 4,
     "LatLong": "6.1241,81.1185"
    },
    {
     "Name": "Bundala",
     "PostCode": "82002",
     "Accuracy": 4,
     "LatLong": "6.1899,81.267"
    },
    {
     "Name": "Weligatta",
     "PostCode": "82004",
     "Accuracy": 4,
     "LatLong": "6.2049,81.1976"
    },
    {
     "Name": "Bandagiriya Colony",
     "PostCode": "82005",
     "Accuracy": 1,
     "LatLong": "6.1903,81.1721"
    },
    {
     "Name": "Gonnoruwa",
     "PostCode": "82006",
     "Accuracy": 4,
     "LatLong": "6.2423,81.1053"
    },
    {
     "Name": "Pahala Andarawewa",
     "PostCode": "82008",
     "Accuracy": 1,
     "LatLong": "6.1903,81.1721"
    },
    {
     "Name": "Sooriyawewa Town",
     "PostCode": "82010",
     "Accuracy": 1,
     "LatLong": "6.1903,81.1721"
    },
    {
     "Name": "Migahajandur",
     "PostCode": "82014",
     "Accuracy": 1,
     "LatLong": "6.1903,81.1721"
    },
    {
     "Name": "Mahagalwewa",
     "PostCode": "82016",
     "Accuracy": 1,
     "LatLong": "6.1903,81.1721"
    },
    {
     "Name": "Ranmuduwewa",
     "PostCode": "82018",
     "Accuracy": 1,
     "LatLong": "6.1903,81.1721"
    },
    {
     "Name": "Ambalantota",
     "PostCode": "82100",
     "Accuracy": 4,
     "LatLong": "6.1196,81.0214"
    },
    {
     "Name": "Beragama",
     "PostCode": "82102",
     "Accuracy": 4,
     "LatLong": "6.1493,81.0413"
    },
    {
     "Name": "RU/Ridiyagama",
     "PostCode": "82106",
     "Accuracy": 1,
     "LatLong": "6.1344,81.0028"
    },
    {
     "Name": "Lunama",
     "PostCode": "82108",
     "Accuracy": 4,
     "LatLong": "6.1074,80.9783"
    },
    {
     "Name": "Mamadala",
     "PostCode": "82109",
     "Accuracy": 4,
     "LatLong": "6.1614,80.9701"
    },
    {
     "Name": "Barawakumbuka",
     "PostCode": "82110",
     "Accuracy": 4,
     "LatLong": "6.2231,80.9308"
    },
    {
     "Name": "Hungama",
     "PostCode": "82120",
     "Accuracy": 4,
     "LatLong": "6.1087,80.9309"
    },
    {
     "Name": "Ranna",
     "PostCode": "82125",
     "Accuracy": 4,
     "LatLong": "6.0985,80.8807"
    },
    {
     "Name": "Kahandamodara",
     "PostCode": "82126",
     "Accuracy": 4,
     "LatLong": "6.0705,80.8958"
    },
    {
     "Name": "Netolpitiya",
     "PostCode": "82135",
     "Accuracy": 4,
     "LatLong": "6.0634,80.8363"
    },
    {
     "Name": "Tangalla",
     "PostCode": "82200",
     "Accuracy": 4,
     "LatLong": "6.024,80.7911"
    },
    {
     "Name": "Angunakolapelessa",
     "PostCode": "82220",
     "Accuracy": 4,
     "LatLong": "6.164,80.8913"
    },
    {
     "Name": "Vitharandeniya",
     "PostCode": "82232",
     "Accuracy": 1,
     "LatLong": "6.1781,80.7994"
    },
    {
     "Name": "Weeraketiya",
     "PostCode": "82240",
     "Accuracy": 4,
     "LatLong": "6.151,80.7643"
    },
    {
     "Name": "Mulkirigala",
     "PostCode": "82242",
     "Accuracy": 4,
     "LatLong": "6.1315,80.7305"
    },
    {
     "Name": "Wekandawela",
     "PostCode": "82246",
     "Accuracy": 1,
     "LatLong": "6.1423,80.776"
    },
    {
     "Name": "Hakuruwela",
     "PostCode": "82248",
     "Accuracy": 4,
     "LatLong": "6.1443,80.8332"
    },
    {
     "Name": "Julampitiya",
     "PostCode": "82252",
     "Accuracy": 4,
     "LatLong": "6.2212,80.7383"
    },
    {
     "Name": "Medamulana",
     "PostCode": "82254",
     "Accuracy": 4,
     "LatLong": "6.1783,80.7692"
    },
    {
     "Name": "Middeniya",
     "PostCode": "82270",
     "Accuracy": 4,
     "LatLong": "6.2502,80.7634"
    },
    {
     "Name": "Kariyamaditta",
     "PostCode": "82274",
     "Accuracy": 1,
     "LatLong": "6.2554,80.8254"
    },
    {
     "Name": "Ratmalwala",
     "PostCode": "82276",
     "Accuracy": 4,
     "LatLong": "6.2686,80.85"
    },
    {
     "Name": "Uswewa",
     "PostCode": "82278",
     "Accuracy": 4,
     "LatLong": "6.2475,80.8628"
    },
    {
     "Name": "Nakulugamuwa",
     "PostCode": "82300",
     "Accuracy": 1,
     "LatLong": "6.1905,80.9357"
    },
    {
     "Name": "Beliatta",
     "PostCode": "82400",
     "Accuracy": 4,
     "LatLong": "6.0496,80.7325"
    },
    {
     "Name": "Goda Koggalla",
     "PostCode": "82401",
     "Accuracy": 1,
     "LatLong": "6.0496,80.7325"
    },
    {
     "Name": "Ihala Beligalla",
     "PostCode": "82412",
     "Accuracy": 4,
     "LatLong": "6.0947,80.7411"
    },
    {
     "Name": "Nihiluwa",
     "PostCode": "82414",
     "Accuracy": 4,
     "LatLong": "6.0833,80.7"
    },
    {
     "Name": "Modarawana",
     "PostCode": "82416",
     "Accuracy": 4,
     "LatLong": "6.1257,80.7112"
    },
    {
     "Name": "Yatigala",
     "PostCode": "82418",
     "Accuracy": 4,
     "LatLong": "6.1056,80.692"
    },
    {
     "Name": "Getamanna",
     "PostCode": "82420",
     "Accuracy": 4,
     "LatLong": "6.0333,80.6833"
    },
    {
     "Name": "Walasmulla",
     "PostCode": "82450",
     "Accuracy": 4,
     "LatLong": "6.1521,80.6941"
    },
    {
     "Name": "Pallekanda",
     "PostCode": "82454",
     "Accuracy": 4,
     "LatLong": "6.4572,80.7187"
    },
    {
     "Name": "Horewelagoda",
     "PostCode": "82456",
     "Accuracy": 1,
     "LatLong": "6.3047,80.7064"
    },
    {
     "Name": "Bowalagama",
     "PostCode": "82458",
     "Accuracy": 1,
     "LatLong": "6.3047,80.7064"
    },
    {
     "Name": "Ittademaliya",
     "PostCode": "82462",
     "Accuracy": 4,
     "LatLong": "6.1565,80.7256"
    },
    {
     "Name": "Katuwana",
     "PostCode": "82500",
     "Accuracy": 4,
     "LatLong": "6.2683,80.6971"
    },
    {
     "Name": "Uda Gomadiya",
     "PostCode": "82504",
     "Accuracy": 1,
     "LatLong": "6.2683,80.6971"
    },
    {
     "Name": "Kirama",
     "PostCode": "82550",
     "Accuracy": 4,
     "LatLong": "6.2098,80.6632"
    },
    {
     "Name": "Rammalawarapitiya",
     "PostCode": "82554",
     "Accuracy": 1,
     "LatLong": "6.2098,80.6632"
    },
    {
     "Name": "Gangulandeniya",
     "PostCode": "82586",
     "Accuracy": 4,
     "LatLong": "6.2833,80.7182"
    },
    {
     "Name": "Tissamaharama",
     "PostCode": "82600",
     "Accuracy": 4,
     "LatLong": "6.2765,81.2865"
    },
    {
     "Name": "Gonagamuwa Uduwila",
     "PostCode": "82602",
     "Accuracy": 1,
     "LatLong": "6.2466,81.2933"
    },
    {
     "Name": "Magama",
     "PostCode": "82608",
     "Accuracy": 4,
     "LatLong": "6.2167,81.3"
    },
    {
     "Name": "Ranakeliya",
     "PostCode": "82612",
     "Accuracy": 4,
     "LatLong": "6.2187,81.322"
    },
    {
     "Name": "Kirinda",
     "PostCode": "82614",
     "Accuracy": 4,
     "LatLong": "6.2186,81.3256"
    },
    {
     "Name": "Weerawila NewTown",
     "PostCode": "82615",
     "Accuracy": 1,
     "LatLong": "6.2782,81.2872"
    },
    {
     "Name": "Beralihela",
     "PostCode": "82618",
     "Accuracy": 4,
     "LatLong": "6.3391,81.2571"
    },
    {
     "Name": "Ellagala",
     "PostCode": "82619",
     "Accuracy": 4,
     "LatLong": "6.3362,81.2441"
    },
    {
     "Name": "Kawantissapura",
     "PostCode": "82622",
     "Accuracy": 1,
     "LatLong": "6.2908,81.2463"
    },
    {
     "Name": "Weerawila",
     "PostCode": "82632",
     "Accuracy": 4,
     "LatLong": "6.2594,81.2164"
    },
    {
     "Name": "Lunugamwehera",
     "PostCode": "82634",
     "Accuracy": 4,
     "LatLong": "6.3434,81.2001"
    },
    {
     "Name": "Padawkema",
     "PostCode": "82636",
     "Accuracy": 4,
     "LatLong": "6.3599,81.1778"
    },
    {
     "Name": "Udamattala",
     "PostCode": "82638",
     "Accuracy": 4,
     "LatLong": "6.3391,81.1337"
    }
   ]
  },
  {
   "Name": "Jaffna",
   "Places": [
    {
     "PostCode": "40000",
     "Accuracy": 4,
     "LatLong": "9.6684,80.0074"
    }
   ]
  },
  {
   "Name": "Kegalle",
   "Places": [
    {
     "PostCode": "71000",
     "Accuracy": 4,
     "LatLong": "7.2523,80.3436"
    },
    {
     "Name": "Deldeniya",
     "PostCode": "71009",
     "Accuracy": 4,
     "LatLong": "7.2863,80.3626"
    },
    {
     "Name": "Hiriwadunna",
     "PostCode": "71014",
     "Accuracy": 4,
     "LatLong": "7.287,80.3783"
    },
    {
     "Name": "Molagoda",
     "PostCode": "71016",
     "Accuracy": 4,
     "LatLong": "7.2578,80.3819"
    },
    {
     "Name": "Deewala Pallegama",
     "PostCode": "71022",
     "Accuracy": 1,
     "LatLong": "7.2393,80.2857"
    },
    {
     "Name": "Yattogoda",
     "PostCode": "71029",
     "Accuracy": 4,
     "LatLong": "7.2393,80.2857"
    },
    {
     "Name": "Damunupola",
     "PostCode": "71034",
     "Accuracy": 4,
     "LatLong": "7.1813,80.3339"
    },
    {
     "Name": "Watura",
     "PostCode": "71035",
     "Accuracy": 4,
     "LatLong": "7.1845,80.3794"
    },
    {
     "Name": "Debathgama",
     "PostCode": "71037",
     "Accuracy": 4,
     "LatLong": "7.1807,80.4251"
    },
    {
     "Name": "Pothukoladeniya",
     "PostCode": "71039",
     "Accuracy": 1,
     "LatLong": "7.1822,80.3795"
    },
    {
     "Name": "Aruggammana",
     "PostCode": "71041",
     "Accuracy": 4,
     "LatLong": "7.1305,80.2991"
    },
    {
     "Name": "Beligala(Sab)",
     "PostCode": "71044",
     "Accuracy": 1,
     "LatLong": "7.2189,80.3017"
    },
    {
     "Name": "Helamada",
     "PostCode": "71046",
     "Accuracy": 4,
     "LatLong": "7.3073,80.3043"
    },
    {
     "Name": "Dewalegama",
     "PostCode": "71050",
     "Accuracy": 4,
     "LatLong": "7.2801,80.3186"
    },
    {
     "Name": "Imbulgasdeniya",
     "PostCode": "71055",
     "Accuracy": 4,
     "LatLong": "7.3101,80.3161"
    },
    {
     "Name": "Nelundeniya",
     "PostCode": "71060",
     "Accuracy": 4,
     "LatLong": "7.2267,80.2728"
    },
    {
     "Name": "Tuntota",
     "PostCode": "71062",
     "Accuracy": 4,
     "LatLong": "7.4944,79.9094"
    },
    {
     "Name": "Mahapallegama",
     "PostCode": "71063",
     "Accuracy": 1,
     "LatLong": "7.3605,80.0911"
    },
    {
     "Name": "Rambukkana",
     "PostCode": "71100",
     "Accuracy": 4,
     "LatLong": "7.3164,80.3906"
    },
    {
     "Name": "Parape",
     "PostCode": "71105",
     "Accuracy": 4,
     "LatLong": "7.3667,80.4167"
    },
    {
     "Name": "Thotawella",
     "PostCode": "71106",
     "Accuracy": 1,
     "LatLong": "7.3563,80.3983"
    },
    {
     "Name": "Hewadiwela",
     "PostCode": "71108",
     "Accuracy": 4,
     "LatLong": "7.3858,80.3878"
    },
    {
     "Name": "Udagaldeniya",
     "PostCode": "71113",
     "Accuracy": 1,
     "LatLong": "7.3511,80.3511"
    },
    {
     "Name": "Dombemada",
     "PostCode": "71115",
     "Accuracy": 4,
     "LatLong": "7.3798,80.3469"
    },
    {
     "Name": "Yatagama",
     "PostCode": "71116",
     "Accuracy": 4,
     "LatLong": "7.3224,80.3552"
    },
    {
     "Name": "Pattampitiya",
     "PostCode": "71130",
     "Accuracy": 4,
     "LatLong": "7.3124,80.4339"
    },
    {
     "Name": "Undugoda",
     "PostCode": "71200",
     "Accuracy": 4,
     "LatLong": "7.1456,80.3633"
    },
    {
     "Name": "Kabagamuwa",
     "PostCode": "71202",
     "Accuracy": 4,
     "LatLong": "7.1335,80.3389"
    },
    {
     "Name": "Alawatura",
     "PostCode": "71204",
     "Accuracy": 4,
     "LatLong": "7.1259,80.3246"
    },
    {
     "Name": "Bossella",
     "PostCode": "71208",
     "Accuracy": 4,
     "LatLong": "7.1471,80.3992"
    },
    {
     "Name": "Hettimulla",
     "PostCode": "71210",
     "Accuracy": 4,
     "LatLong": "7.2094,80.358"
    },
    {
     "Name": "Maharangalla",
     "PostCode": "71211",
     "Accuracy": 1,
     "LatLong": "7.2094,80.358"
    },
    {
     "Name": "Morontota",
     "PostCode": "71220",
     "Accuracy": 4,
     "LatLong": "7.173,80.3612"
    },
    {
     "Name": "Gantuna",
     "PostCode": "71222",
     "Accuracy": 1,
     "LatLong": "7.173,80.3612"
    },
    {
     "Name": "Bulathkohupitiya",
     "PostCode": "71230",
     "Accuracy": 4,
     "LatLong": "7.1032,80.3344"
    },
    {
     "Name": "Ampagala",
     "PostCode": "71232",
     "Accuracy": 4,
     "LatLong": "7.0673,80.2955"
    },
    {
     "Name": "Wegalla",
     "PostCode": "71234",
     "Accuracy": 4,
     "LatLong": "7.0967,80.3041"
    },
    {
     "Name": "Udapotha",
     "PostCode": "71236",
     "Accuracy": 4,
     "LatLong": "7.0821,80.3759"
    },
    {
     "Name": "Dedugala",
     "PostCode": "71237",
     "Accuracy": 4,
     "LatLong": "7.0991,80.4016"
    },
    {
     "Name": "Ruwanwella",
     "PostCode": "71300",
     "Accuracy": 4,
     "LatLong": "7.0427,80.2517"
    },
    {
     "Name": "Wahakula",
     "PostCode": "71303",
     "Accuracy": 4,
     "LatLong": "7.0593,80.2084"
    },
    {
     "Name": "Waharaka",
     "PostCode": "71304",
     "Accuracy": 4,
     "LatLong": "7.096,80.1878"
    },
    {
     "Name": "Galpatha(Sab)",
     "PostCode": "71312",
     "Accuracy": 1,
     "LatLong": "7.0494,80.2324"
    },
    {
     "Name": "Imbulana",
     "PostCode": "71313",
     "Accuracy": 4,
     "LatLong": "7.0632,80.2544"
    },
    {
     "Name": "Lewangama",
     "PostCode": "71315",
     "Accuracy": 1,
     "LatLong": "7.0494,80.2324"
    },
    {
     "Name": "Gonagala",
     "PostCode": "71318",
     "Accuracy": 4,
     "LatLong": "7.0356,80.2104"
    },
    {
     "Name": "Amitirigala",
     "PostCode": "71320",
     "Accuracy": 4,
     "LatLong": "7.0273,80.1836"
    },
    {
     "Name": "Batuwita",
     "PostCode": "71321",
     "Accuracy": 4,
     "LatLong": "7.0537,80.1701"
    },
    {
     "Name": "Malmaduwa",
     "PostCode": "71325",
     "Accuracy": 4,
     "LatLong": "7.1364,80.2738"
    },
    {
     "Name": "Yatapana",
     "PostCode": "71326",
     "Accuracy": 4,
     "LatLong": "7.1369,80.3068"
    },
    {
     "Name": "Galigamuwa Town",
     "PostCode": "71350",
     "Accuracy": 1,
     "LatLong": "7.2032,80.2956"
    },
    {
     "Name": "Hakahinna",
     "PostCode": "71352",
     "Accuracy": 4,
     "LatLong": "7.2032,80.2956"
    },
    {
     "Name": "Pitagaldeniya",
     "PostCode": "71360",
     "Accuracy": 1,
     "LatLong": "7.1453,80.2839"
    },
    {
     "Name": "Atale",
     "PostCode": "71363",
     "Accuracy": 4,
     "LatLong": "7.1453,80.2839"
    },
    {
     "Name": "Kotiyakumbura",
     "PostCode": "71370",
     "Accuracy": 4,
     "LatLong": "7.1238,80.2864"
    },
    {
     "Name": "Kannattota",
     "PostCode": "71372",
     "Accuracy": 4,
     "LatLong": "7.0805,80.2794"
    },
    {
     "Name": "Dehiowita",
     "PostCode": "71400",
     "Accuracy": 4,
     "LatLong": "6.9776,80.2624"
    },
    {
     "Name": "Deloluwa",
     "PostCode": "71401",
     "Accuracy": 4,
     "LatLong": "6.9582,80.3174"
    },
    {
     "Name": "Anhettigama",
     "PostCode": "71403",
     "Accuracy": 4,
     "LatLong": "6.9221,80.374"
    },
    {
     "Name": "Noori",
     "PostCode": "71407",
     "Accuracy": 4,
     "LatLong": "6.9558,80.396"
    },
    {
     "Name": "Maliboda",
     "PostCode": "71411",
     "Accuracy": 4,
     "LatLong": "6.8886,80.4285"
    },
    {
     "Name": "Hinguralakanda",
     "PostCode": "71417",
     "Accuracy": 4,
     "LatLong": "6.9154,80.2972"
    },
    {
     "Name": "Boralankada",
     "PostCode": "71418",
     "Accuracy": 4,
     "LatLong": "6.9721,80.3285"
    },
    {
     "Name": "Deraniyagala",
     "PostCode": "71430",
     "Accuracy": 4,
     "LatLong": "6.9314,80.3352"
    },
    {
     "Name": "Miyanawita",
     "PostCode": "71432",
     "Accuracy": 4,
     "LatLong": "6.9037,80.35"
    },
    {
     "Name": "Mawanella",
     "PostCode": "71500",
     "Accuracy": 4,
     "LatLong": "7.2519,80.4453"
    },
    {
     "Name": "Kondeniya",
     "PostCode": "71501",
     "Accuracy": 4,
     "LatLong": "7.265,80.433"
    },
    {
     "Name": "Ambulugala",
     "PostCode": "71503",
     "Accuracy": 4,
     "LatLong": "7.2376,80.4168"
    },
    {
     "Name": "Galatara",
     "PostCode": "71505",
     "Accuracy": 4,
     "LatLong": "7.2167,80.4167"
    },
    {
     "Name": "Makehelwala",
     "PostCode": "71507",
     "Accuracy": 4,
     "LatLong": "7.2825,80.4736"
    },
    {
     "Name": "Alutnuwara",
     "PostCode": "71508",
     "Accuracy": 4,
     "LatLong": "7.2333,80.4667"
    },
    {
     "Name": "Ussapitiya",
     "PostCode": "71510",
     "Accuracy": 4,
     "LatLong": "7.2162,80.4483"
    },
    {
     "Name": "Hingula",
     "PostCode": "71520",
     "Accuracy": 4,
     "LatLong": "7.2457,80.4664"
    },
    {
     "Name": "Udumulla",
     "PostCode": "71521",
     "Accuracy": 4,
     "LatLong": "7.454,80.3993"
    },
    {
     "Name": "Dewanagala",
     "PostCode": "71527",
     "Accuracy": 4,
     "LatLong": "7.2159,80.4704"
    },
    {
     "Name": "Hemmatagama",
     "PostCode": "71530",
     "Accuracy": 4,
     "LatLong": "7.1736,80.5002"
    },
    {
     "Name": "Kehelpannala",
     "PostCode": "71533",
     "Accuracy": 4,
     "LatLong": "7.1664,80.5187"
    },
    {
     "Name": "Aranayaka",
     "PostCode": "71540",
     "Accuracy": 4,
     "LatLong": "7.1509,80.4614"
    },
    {
     "Name": "Talgaspitiya",
     "PostCode": "71541",
     "Accuracy": 4,
     "LatLong": "7.1647,80.4793"
    },
    {
     "Name": "Ambalakanda",
     "PostCode": "71546",
     "Accuracy": 4,
     "LatLong": "7.1366,80.4524"
    },
    {
     "Name": "Warakapola",
     "PostCode": "71600",
     "Accuracy": 4,
     "LatLong": "7.2226,80.1887"
    },
    {
     "Name": "Dorawaka",
     "PostCode": "71601",
     "Accuracy": 4,
     "LatLong": "7.1839,80.2198"
    },
    {
     "Name": "Niyadurupola",
     "PostCode": "71602",
     "Accuracy": 4,
     "LatLong": "7.1665,80.2189"
    },
    {
     "Name": "Galapitamada",
     "PostCode": "71603",
     "Accuracy": 4,
     "LatLong": "7.1374,80.2333"
    },
    {
     "Name": "Dunumala",
     "PostCode": "71605",
     "Accuracy": 1,
     "LatLong": "7.1746,80.2058"
    },
    {
     "Name": "Algama",
     "PostCode": "71607",
     "Accuracy": 4,
     "LatLong": "7.1627,80.1681"
    },
    {
     "Name": "Tulhiriya",
     "PostCode": "71610",
     "Accuracy": 4,
     "LatLong": "7.2699,80.2256"
    },
    {
     "Name": "Bopitiya (SAB)",
     "PostCode": "71612",
     "Accuracy": 1,
     "LatLong": "7.2523,80.2248"
    },
    {
     "Name": "Tholangamuwa",
     "PostCode": "71619",
     "Accuracy": 4,
     "LatLong": "7.2347,80.2239"
    },
    {
     "Name": "Weragala",
     "PostCode": "71622",
     "Accuracy": 4,
     "LatLong": "7.138,80.2568"
    },
    {
     "Name": "Yatiyantota",
     "PostCode": "71700",
     "Accuracy": 4,
     "LatLong": "7.0279,80.2946"
    },
    {
     "Name": "Weeoya",
     "PostCode": "71702",
     "Accuracy": 1,
     "LatLong": "7.0549,80.3693"
    },
    {
     "Name": "Malalpola",
     "PostCode": "71704",
     "Accuracy": 4,
     "LatLong": "7.0579,80.3419"
    },
    {
     "Name": "Berannawa",
     "PostCode": "71706",
     "Accuracy": 4,
     "LatLong": "7.0676,80.4123"
    },
    {
     "Name": "Seaforth Colony",
     "PostCode": "71708",
     "Accuracy": 4,
     "LatLong": "7.0663,80.4283"
    },
    {
     "Name": "Welihelatenna",
     "PostCode": "71712",
     "Accuracy": 4,
     "LatLong": "7.0281,80.3348"
    },
    {
     "Name": "Hakbellawaka",
     "PostCode": "71715",
     "Accuracy": 1,
     "LatLong": "7.0281,80.3348"
    },
    {
     "Name": "Migastenna Sabara",
     "PostCode": "71716",
     "Accuracy": 1,
     "LatLong": "7.0281,80.3348"
    },
    {
     "Name": "Kitulgala",
     "PostCode": "71720",
     "Accuracy": 4,
     "LatLong": "6.9966,80.4068"
    },
    {
     "Name": "Mahabage",
     "PostCode": "71722",
     "Accuracy": 4,
     "LatLong": "7.0225,80.4333"
    },
    {
     "Name": "Teligama",
     "PostCode": "71724",
     "Accuracy": 4,
     "LatLong": "7.0079,80.3798"
    }
   ]
  },
  {
   "Name": "Kurunegala",
   "Places": [
    {
     "PostCode": "60000",
     "Accuracy": 4,
     "LatLong": "7.4863,80.3623"
    },
    {
     "Name": "Kudagalgamuwa",
     "PostCode": "60003",
     "Accuracy": 1,
     "LatLong": "7.5351,80.3321"
    },
    {
     "Name": "Minhettiya",
     "PostCode": "60004",
     "Accuracy": 4,
     "LatLong": "7.584,80.3018"
    },
    {
     "Name": "Doratiyawa",
     "PostCode": "60013",
     "Accuracy": 4,
     "LatLong": "7.4578,80.383"
    },
    {
     "Name": "Indulgodakanda",
     "PostCode": "60016",
     "Accuracy": 4,
     "LatLong": "7.4253,80.4084"
    },
    {
     "Name": "Demataluwa",
     "PostCode": "60024",
     "Accuracy": 4,
     "LatLong": "7.5219,80.2898"
    },
    {
     "Name": "Ithanawatta",
     "PostCode": "60025",
     "Accuracy": 1,
     "LatLong": "7.4478,80.3475"
    },
    {
     "Name": "Boyagane",
     "PostCode": "60027",
     "Accuracy": 4,
     "LatLong": "7.4501,80.3415"
    },
    {
     "Name": "Kohilagedara",
     "PostCode": "60028",
     "Accuracy": 4,
     "LatLong": "7.4141,80.3659"
    },
    {
     "Name": "Kosgolla",
     "PostCode": "60029",
     "Accuracy": 4,
     "LatLong": "7.4052,80.3927"
    },
    {
     "Name": "Hindagolla",
     "PostCode": "60034",
     "Accuracy": 4,
     "LatLong": "7.484,80.4118"
    },
    {
     "Name": "Ambakote",
     "PostCode": "60036",
     "Accuracy": 4,
     "LatLong": "7.492,80.4532"
    },
    {
     "Name": "Morathiha",
     "PostCode": "60038",
     "Accuracy": 4,
     "LatLong": "7.5073,80.4875"
    },
    {
     "Name": "Ridigama",
     "PostCode": "60040",
     "Accuracy": 4,
     "LatLong": "7.5473,80.4963"
    },
    {
     "Name": "Delwite",
     "PostCode": "60044",
     "Accuracy": 1,
     "LatLong": "7.5102,80.5211"
    },
    {
     "Name": "Iriyagolla",
     "PostCode": "60045",
     "Accuracy": 4,
     "LatLong": "7.4731,80.5458"
    },
    {
     "Name": "Alawatuwala",
     "PostCode": "60047",
     "Accuracy": 1,
     "LatLong": "7.5102,80.5211"
    },
    {
     "Name": "Panagamuwa",
     "PostCode": "60052",
     "Accuracy": 4,
     "LatLong": "7.5551,80.4577"
    },
    {
     "Name": "Pihimbuwa",
     "PostCode": "60053",
     "Accuracy": 4,
     "LatLong": "7.4607,80.5171"
    },
    {
     "Name": "Kanadeniyawala",
     "PostCode": "60054",
     "Accuracy": 4,
     "LatLong": "7.4382,80.541"
    },
    {
     "Name": "Pilessa",
     "PostCode": "60058",
     "Accuracy": 4,
     "LatLong": "7.4546,80.4141"
    },
    {
     "Name": "Mawathagama",
     "PostCode": "60060",
     "Accuracy": 4,
     "LatLong": "7.4086,80.3091"
    },
    {
     "Name": "Kahapathwala",
     "PostCode": "60062",
     "Accuracy": 1,
     "LatLong": "7.2934,80.4557"
    },
    {
     "Name": "Inguruwatta",
     "PostCode": "60064",
     "Accuracy": 4,
     "LatLong": "7.1783,80.6023"
    },
    {
     "Name": "Meetanwala",
     "PostCode": "60066",
     "Accuracy": 1,
     "LatLong": "7.2934,80.4557"
    },
    {
     "Name": "Puswelitenna",
     "PostCode": "60072",
     "Accuracy": 1,
     "LatLong": "7.3746,80.3664"
    },