{
 "Places": [
  {
   "Name": "Майкоп",
   "Accuracy": 1,
   "LatLong": "44.8802,40.2166"
  },
  {
   "Name": "Майкоп 1",
   "Accuracy": 1,
   "LatLong": "44.8802,40.2166"
  },
  {
   "Name": "Майкоп 2",
   "Accuracy": 1,
   "LatLong": "44.8802,40.2166"
  },
  {
   "Name": "Майкоп 3",
   "Accuracy": 1,
   "LatLong": "44.8802,40.2166"
  },
  {
   "Name": "Майкоп 6",
   "Accuracy": 1,
   "LatLong": "44.8802,40.2166"
  },
  {
   "Name": "Майкоп 7",
   "Accuracy": 1,
   "LatLong": "44.8802,40.2166"
  },
  {
   "Name": "Майкоп 8",
   "Accuracy": 1,
   "LatLong": "44.8802,40.2166"
  },
  {
   "Name": "Майкоп 9",
   "Accuracy": 1,
   "LatLong": "44.8802,40.2166"
  },
  {
   "Name": "Майкоп 11",
   "Accuracy": 1,
   "LatLong": "44.8802,40.2166"
  },
  {
   "Name": "Майкоп 12",
   "Accuracy": 1,
   "LatLong": "44.8802,40.2166"
  },
  {
   "Name": "Майкоп 13",
   "Accuracy": 1,
   "LatLong": "44.8802,40.2166"
  },
  {
   "Name": "Майкоп 16",
   "Accuracy": 1,
   "LatLong": "44.8802,40.2166"
  },
  {
   "Name": "Майкоп 17",
   "Accuracy": 1,
   "LatLong": "44.8802,40.2166"
  },
  {
   "Name": "Майкоп 18",
   "Accuracy": 1,
   "LatLong": "44.8802,40.2166"
  },
  {
   "Name": "Майкоп 19",
   "Accuracy": 1,
   "LatLong": "44.8802,40.2166"
  },
  {
   "Name": "Майкоп 20",
   "Accuracy": 1,
   "LatLong": "44.8802,40.2166"
  },
  {
   "Name": "Майкоп 21",
   "Accuracy": 1,
   "LatLong": "44.8802,40.2166"
  },
  {
   "Name": "Ханская",
   "Accuracy": 1,
   "LatLong": "44.8802,40.2166"
  },
  {
   "Name": "Ханская 1",
   "Accuracy": 1,
   "LatLong": "44.8802,40.2166"
  },
  {
   "Name": "Подгорный",
   "Accuracy": 1,
   "LatLong": "44.8802,40.2166"
  },
  {
   "Name": "Родниковый",
   "Accuracy": 1,
   "LatLong": "44.8802,40.2166"
  },
  {
   "Name": "Северный",
   "Accuracy": 1,
   "LatLong": "44.8802,40.2166"
  },
  {
   "Name": "Гавердовский",
   "Accuracy": 1,
   "LatLong": "44.8802,40.2166"
  },
  {
   "Name": "Тахтамукай",
   "Accuracy": 4,
   "LatLong": "44.9217,38.9914"
  },
  {
   "Name": "Прикубанский",
   "Accuracy": 4,
   "LatLong": "45.1139,38.4886"
  },
  {
   "Name": "Псейтук",
   "Accuracy": 1,
   "LatLong": "45.0494,38.5994"
  },
  {
   "Name": "Старобжегокай",
   "Accuracy": 1,
   "LatLong": "45.0494,38.5994"
  },
  {
   "Name": "Панахес",
   "Accuracy": 4,
   "LatLong": "44.985,38.7103"
  },
  {
   "Name": "Новый Сад",
   "Accuracy": 1,
   "LatLong": "44.955,38.9478"
  },
  {
   "Name": "Афипсип",
   "Accuracy": 4,
   "LatLong": "44.99,38.77"
  },
  {
   "Name": "Шенджий",
   "Accuracy": 4,
   "LatLong": "44.8817,39.0678"
  },
  {
   "Name": "Отрадный",
   "Accuracy": 1,
   "LatLong": "44.955,38.9478"
  },
  {
   "Name": "Козет",
   "Accuracy": 4,
   "LatLong": "44.9933,39.0056"
  },
  {
   "Name": "Энем",
   "Accuracy": 4,
   "LatLong": "44.9319,38.9025"
  },
  {
   "Name": "Энем 1",
   "Accuracy": 1,
   "LatLong": "44.9319,38.9025"
  },
  {
   "Name": "Энем 2",
   "Accuracy": 1,
   "LatLong": "44.9319,38.9025"
  },
  {
   "Name": "Яблоновский",
   "Accuracy": 4,
   "LatLong": "44.9856,38.9431"
  },
  {
   "Name": "Яблоновский 1",
   "Accuracy": 1,
   "LatLong": "44.9856,38.9431"
  },
  {
   "Name": "Адыгейск",
   "Accuracy": 4,
   "LatLong": "44.88,39.19"
  },
  {
   "Name": "Адыгейск 2",
   "Accuracy": 1,
   "LatLong": "44.88,39.19"
  },
  {
   "Name": "Пчегатлукай",
   "Accuracy": 4,
   "LatLong": "44.8839,39.2683"
  },
  {
   "Name": "Тлюстенхабль",
   "Accuracy": 4,
   "LatLong": "44.98,39.0972"
  },
  {
   "Name": "Понежукай",
   "Accuracy": 4,
   "LatLong": "44.8875,39.3864"
  },
  {
   "Name": "Ассоколай",
   "Accuracy": 4,
   "LatLong": "44.84,39.46"
  },
  {
   "Name": "Красное",
   "Accuracy": 4,
   "LatLong": "46.7347,39.5658"
  },
  {
   "Name": "Шевченко",
   "Accuracy": 4,
   "LatLong": "45.28,39.4458"
  },
  {
   "Name": "Габукай",
   "Accuracy": 1,
   "LatLong": "45.216,39.4162"
  },
  {
   "Name": "Джиджихабль",
   "Accuracy": 4,
   "LatLong": "44.9461,39.4103"
  },
  {
   "Name": "Городской",
   "Accuracy": 4,
   "LatLong": "44.9925,39.4339"
  },
  {
   "Name": "Нешукай",
   "Accuracy": 1,
   "LatLong": "45.216,39.4162"
  },
  {
   "Name": "Псекупс",
   "Accuracy": 4,
   "LatLong": "44.8314,39.2114"
  },
  {
   "Name": "Гатлукай",
   "Accuracy": 1,
   "LatLong": "45.1256,39.3469"
  },
  {
   "Name": "Кунчукохабль",
   "Accuracy": 1,
   "LatLong": "45.1256,39.3469"
  },
  {
   "Name": "Вочепший",
   "Accuracy": 1,
   "LatLong": "45.1256,39.3469"
  },
  {
   "Name": "Красногвардейское",
   "Accuracy": 4,
   "LatLong": "45.8456,41.5186"
  },
  {
   "Name": "Красногвардейское 1",
   "Accuracy": 1,
   "LatLong": "45.8456,41.5186"
  },
  {
   "Name": "Хатукай",
   "Accuracy": 4,
   "LatLong": "45.1889,39.6664"
  },
  {
   "Name": "Еленовское",
   "Accuracy": 4,
   "LatLong": "45.105,39.6967"
  },
  {
   "Name": "Саратовский",
   "Accuracy": 1,
   "LatLong": "45.0987,39.8171"
  },
  {
   "Name": "Большесидоровское",
   "Accuracy": 1,
   "LatLong": "45.0987,39.8171"
  },
  {
   "Name": "Штурбино",
   "Accuracy": 4,
   "LatLong": "45.0608,39.9108"
  },
  {
   "Name": "Уляп",
   "Accuracy": 4,
   "LatLong": "45.0533,39.9519"
  },
  {
   "Name": "Бжедугхабль",
   "Accuracy": 1,
   "LatLong": "45.0987,39.8171"
  },
  {
   "Name": "Джамбичи",
   "Accuracy": 4,
   "LatLong": "45.0856,39.8597"
  },
  {
   "Name": "Преображенское",
   "Accuracy": 4,
   "LatLong": "44.6814,43.9753"
  },
  {
   "Name": "Белое",
   "Accuracy": 4,
   "LatLong": "45.04,39.65"
  },
  {
   "Name": "Новосевастопольское",
   "Accuracy": 1,
   "LatLong": "44.7773,41.2885"
  },
  {
   "Name": "Садовое",
   "Accuracy": 4,
   "LatLong": "44.3278,42.0389"
  },
  {
   "Name": "Верхненазаровское",
   "Accuracy": 1,
   "LatLong": "44.7773,41.2885"
  },
  {
   "Name": "Адамий",
   "Accuracy": 4,
   "LatLong": "45.06,39.49"
  },
  {
   "Name": "Кошехабль",
   "Accuracy": 4,
   "LatLong": "44.8972,40.5119"
  },
  {
   "Name": "Егерухай",
   "Accuracy": 4,
   "LatLong": "44.9975,40.3922"
  },
  {
   "Name": "Плодопитомник",
   "Accuracy": 4,
   "LatLong": "44.9303,40.3592"
  },
  {
   "Name": "Хачемзий",
   "Accuracy": 1,
   "LatLong": "44.9511,40.3761"
  },
  {
   "Name": "Дружба",
   "Accuracy": 4,
   "LatLong": "44.9256,40.3769"
  },
  {
   "Name": "Игнатьевский",
   "Accuracy": 1,
   "LatLong": "45.2145,40.6443"
  },
  {
   "Name": "Блечепсин",
   "Accuracy": 4,
   "LatLong": "44.8203,40.5003"
  },
  {
   "Name": "Майский",
   "Accuracy": 4,
   "LatLong": "47.6931,40.1025"
  },
  {
   "Name": "Натырбово",
   "Accuracy": 4,
   "LatLong": "44.73,40.6264"
  },
  {
   "Name": "Казенно-Кужорский",
   "Accuracy": 1,
   "LatLong": "45.2145,40.6443"
  },
  {
   "Name": "Вольное",
   "Accuracy": 4,
   "LatLong": "44.9547,41.2064"
  },
  {
   "Name": "Шелковников",
   "Accuracy": 4,
   "LatLong": "44.5769,40.7178"
  },
  {
   "Name": "Ходзь",
   "Accuracy": 4,
   "LatLong": "44.5119,40.7125"
  },
  {
   "Name": "Хакуринохабль",
   "Accuracy": 1,
   "LatLong": "45.0343,40.056"
  },
  {
   "Name": "Хапачев",
   "Accuracy": 4,
   "LatLong": "45.0892,40.2369"
  },
  {
   "Name": "Пшизов",
   "Accuracy": 4,
   "LatLong": "45.09,40.1108"
  },
  {
   "Name": "Зарево",
   "Accuracy": 4,
   "LatLong": "45.0069,40.075"
  },
  {
   "Name": "Чернышев",
   "Accuracy": 4,
   "LatLong": "45.0456,40.045"
  },
  {
   "Name": "Дукмасов",
   "Accuracy": 4,
   "LatLong": "45.0061,39.9181"
  },
  {
   "Name": "Мамацев",
   "Accuracy": 1,
   "LatLong": "45.0343,40.056"
  },
  {
   "Name": "Тихонов",
   "Accuracy": 4,
   "LatLong": "44.9681,39.9503"
  },
  {
   "Name": "Михайлов",
   "Accuracy": 1,
   "LatLong": "45.0777,40.3651"
  },
  {
   "Name": "Семено-Макаренский",
   "Accuracy": 1,
   "LatLong": "45.0777,40.3651"
  },
  {
   "Name": "Свободный Труд",
   "Accuracy": 1,
   "LatLong": "45.0777,40.3651"
  },
  {
   "Name": "Кабехабль",
   "Accuracy": 1,
   "LatLong": "45.0777,40.3651"
  },
  {
   "Name": "Джерокай",
   "Accuracy": 1,
   "LatLong": "45.0777,40.3651"
  },
  {
   "Name": "Хатажукай",
   "Accuracy": 1,
   "LatLong": "45.0777,40.3651"
  },
  {
   "Name": "Гиагинская",
   "Accuracy": 4,
   "LatLong": "44.8686,40.0669"
  },
  {
   "Name": "Гиагинская 1",
   "Accuracy": 1,
   "LatLong": "44.8686,40.0669"
  },
  {
   "Name": "Гончарка",
   "Accuracy": 4,
   "LatLong": "44.8025,39.9578"
  },
  {
   "Name": "Келермесская",
   "Accuracy": 4,
   "LatLong": "44.7853,40.1347"
  },
  {
   "Name": "Нижний Айрюм",
   "Accuracy": 1,
   "LatLong": "44.8547,40.7901"
  },
  {
   "Name": "Прогресс",
   "Accuracy": 1,
   "LatLong": "44.8547,40.7901"
  },
  {
   "Name": "Дондуковская",
   "Accuracy": 4,
   "LatLong": "44.8797,40.3614"
  },
  {
   "Name": "Смольчев-Малиновский",
   "Accuracy": 1,
   "LatLong": "44.8547,40.7901"
  },
  {
   "Name": "Сергиевское",
   "Accuracy": 4,
   "LatLong": "44.9514,42.7067"
  },
  {
   "Name": "Тамбовский",
   "Accuracy": 1,
   "LatLong": "44.8547,40.7901"
  },
  {
   "Name": "Уфпс Республики Адыгея",
   "Accuracy": 1,
   "LatLong": "44.4848,40.7885"
  },
  {
   "Name": "Тульский",
   "Accuracy": 4,
   "LatLong": "44.5136,40.1789"
  },
  {
   "Name": "Краснооктябрьский",
   "Accuracy": 4,
   "LatLong": "44.9333,38.3658"
  },
  {
   "Name": "Краснооктябрьский 1",
   "Accuracy": 1,
   "LatLong": "45.0371,39.1911"
  },
  {
   "Name": "Победа",
   "Accuracy": 4,
   "LatLong": "45.7267,39.0367"
  },
  {
   "Name": "Шунтук",
   "Accuracy": 4,
   "LatLong": "44.4514,40.1708"
  },
  {
   "Name": "Каменномостский",
   "Accuracy": 4,
   "LatLong": "44.2983,40.1856"
  },
  {
   "Name": "Каменномостский 1",
   "Accuracy": 1,
   "LatLong": "44.2983,40.1856"
  },
  {
   "Name": "Каменномостский 2",
   "Accuracy": 1,
   "LatLong": "44.2983,40.1856"
  },
  {
   "Name": "Первомайский",
   "Accuracy": 4,
   "LatLong": "45.4828,42.5256"
  },
  {
   "Name": "Красная Улька",
   "Accuracy": 1,
   "LatLong": "45.0793,41.4199"
  },
  {
   "Name": "Кужорская",
   "Accuracy": 4,
   "LatLong": "44.6758,40.3142"
  },
  {
   "Name": "Трехречный",
   "Accuracy": 1,
   "LatLong": "45.0793,41.4199"
  },
  {
   "Name": "Северо-Восточные Сады",
   "Accuracy": 1,
   "LatLong": "45.0793,41.4199"
  },
  {
   "Name": "Совхозный",
   "Accuracy": 4,
   "LatLong": "44.1011,45.2406"
  },
  {
   "Name": "Абадзехская",
   "Accuracy": 4,
   "LatLong": "44.36,40.23"
  },
  {
   "Name": "Севастопольская",
   "Accuracy": 4,
   "LatLong": "44.3528,40.3106"
  },
  {
   "Name": "Новосвободная",
   "Accuracy": 4,
   "LatLong": "44.355,40.415"
  },
  {
   "Name": "Цветочный",
   "Accuracy": 1,
   "LatLong": "44.2922,41.549"
  },
  {
   "Name": "Табачный",
   "Accuracy": 1,
   "LatLong": "44.4033,39.9994"
  },
  {
   "Name": "Курджипская",
   "Accuracy": 4,
   "LatLong": "44.4636,40.0572"
  },
  {
   "Name": "Дагестанская",
   "Accuracy": 4,
   "LatLong": "44.3764,40.0208"
  },
  {
   "Name": "Безводная",
   "Accuracy": 4,
   "LatLong": "44.37,39.92"
  },
  {
   "Name": "Веселый",
   "Accuracy": 4,
   "LatLong": "45.6294,42.2728"
  },
  {
   "Name": "Даховская",
   "Accuracy": 4,
   "LatLong": "44.23,40.2031"
  },
  {
   "Name": "Усть-Сахрай",
   "Accuracy": 1,
   "LatLong": "44.2057,41.4663"
  },
  {
   "Name": "Новопрохладное",
   "Accuracy": 4,
   "LatLong": "44.1386,40.2875"
  },
  {
   "Name": "Хамышки",
   "Accuracy": 4,
   "LatLong": "44.0947,40.1339"
  },
  {
   "Name": "Гузерипль",
   "Accuracy": 4,
   "LatLong": "43.8333,40.2"
  },
  {
   "Name": "Грозный",
   "Accuracy": 4,
   "LatLong": "43.3083,45.7003"
  },
  {
   "Name": "Майкоп Почтамт Уч. Тары",
   "Accuracy": 1,
   "LatLong": "44.8802,40.2166"
  },
  {
   "Name": "Горно-Алтайск",
   "Accuracy": 4,
   "LatLong": "51.9561,85.955"
  },
  {
   "Name": "Горно-Алтайск 2",
   "Accuracy": 1,
   "LatLong": "51.9561,85.955"
  },
  {
   "Name": "Горно-Алтайск 6",
   "Accuracy": 1,
   "LatLong": "51.9561,85.955"
  },
  {
   "Name": "Горно-Алтайск 7",
   "Accuracy": 1,
   "LatLong": "51.9561,85.955"
  },
  {
   "Name": "Майма",
   "Accuracy": 4,
   "LatLong": "52.05,85.9167"
  },
  {
   "Name": "Усть-Муны",
   "Accuracy": 4,
   "LatLong": "51.7211,85.7517"
  },
  {
   "Name": "Кызыл-Озек",
   "Accuracy": 1,
   "LatLong": "51.9237,85.4577"
  },
  {
   "Name": "Карасук",
   "Accuracy": 4,
   "LatLong": "52.3856,85.5917"
  },
  {
   "Name": "Бирюля",
   "Accuracy": 4,
   "LatLong": "51.7872,86.0611"
  },
  {
   "Name": "Александровка",
   "Accuracy": 4,
   "LatLong": "51.6746,83.9675"
  },
  {
   "Name": "Урлу-Аспак",
   "Accuracy": 1,
   "LatLong": "51.9237,85.4577"
  },
  {
   "Name": "Верх-Карагуж",
   "Accuracy": 4,
   "LatLong": "52.0544,86.0491"
  },
  {
   "Name": "Манжерок",
   "Accuracy": 4,
   "LatLong": "51.8286,85.7672"
  },
  {
   "Name": "Соузга",
   "Accuracy": 4,
   "LatLong": "51.8872,85.8494"
  },
  {
   "Name": "Турочак",
   "Accuracy": 4,
   "LatLong": "52.2667,87.1333"
  },
  {
   "Name": "Каяшкан",
   "Accuracy": 4,
   "LatLong": "52.3833,87.35"
  },
  {
   "Name": "Удаловка",
   "Accuracy": 4,
   "LatLong": "52.356,86.943"
  },
  {
   "Name": "Тондошка",
   "Accuracy": 4,
   "LatLong": "52.1333,87.1333"
  },
  {
   "Name": "Верх-Бийск",
   "Accuracy": 1,
   "LatLong": "51.9209,87.2521"
  },
  {
   "Name": "Кебезень",
   "Accuracy": 4,
   "LatLong": "51.9078,87.1244"
  },
  {
   "Name": "Усть-Пыжа",
   "Accuracy": 4,
   "LatLong": "51.8564,87.0878"
  },
  {
   "Name": "Иогач",
   "Accuracy": 4,
   "LatLong": "51.7817,87.2631"
  },
  {
   "Name": "Бийка",
   "Accuracy": 4,
   "LatLong": "51.9253,87.6519"
  },
  {
   "Name": "Курмач-Байгол",
   "Accuracy": 4,
   "LatLong": "52.1167,87.65"
  },
  {
   "Name": "Суранаш",
   "Accuracy": 4,
   "LatLong": "52.3,87.75"
  },
  {
   "Name": "Майский",
   "Accuracy": 4,
   "LatLong": "53.5811,90.0542"
  },
  {
   "Name": "Яйлю",
   "Accuracy": 4,
   "LatLong": "51.7753,87.6098"
  },
  {
   "Name": "Чуйка",
   "Accuracy": 4,
   "LatLong": "51.9672,87.4917"
  },
  {
   "Name": "Талон",
   "Accuracy": 4,
   "LatLong": "52.3333,88.3667"
  },
  {
   "Name": "Дмитриевка",
   "Accuracy": 4,
   "LatLong": "54.4694,85.3242"
  },
  {
   "Name": "Озеро-Куреево",
   "Accuracy": 4,
   "LatLong": "52.4661,86.7502"
  },
  {
   "Name": "Чоя",
   "Accuracy": 4,
   "LatLong": "52.0167,86.55"
  },
  {
   "Name": "Ускуч",
   "Accuracy": 4,
   "LatLong": "52.0378,86.91"
  },
  {
   "Name": "Каракокша",
   "Accuracy": 4,
   "LatLong": "51.7658,86.6939"
  },
  {
   "Name": "Ынырга",
   "Accuracy": 4,
   "LatLong": "51.8219,86.7931"
  },
  {
   "Name": "Уймень",
   "Accuracy": 4,
   "LatLong": "51.6594,86.9225"
  },
  {
   "Name": "Сейка",
   "Accuracy": 4,
   "LatLong": "51.8789,86.735"
  },
  {
   "Name": "Паспаул",
   "Accuracy": 4,
   "LatLong": "51.9361,86.3578"
  },
  {
   "Name": "Киска",
   "Accuracy": 4,
   "LatLong": "52.0602,86.4886"
  },
  {
   "Name": "Туньжа",
   "Accuracy": 4,
   "LatLong": "52.0102,86.4725"
  },
  {
   "Name": "Улус-Черга",
   "Accuracy": 1,
   "LatLong": "52.8271,87.0846"
  },
  {
   "Name": "Ильинка",
   "Accuracy": 4,
   "LatLong": "55.2892,90.0314"
  },
  {
   "Name": "Камлак",
   "Accuracy": 4,
   "LatLong": "51.6233,85.66"
  },
  {
   "Name": "Черга",
   "Accuracy": 4,
   "LatLong": "51.5689,85.5625"
  },
  {
   "Name": "Шебалино",
   "Accuracy": 4,
   "LatLong": "51.2917,85.6772"
  },
  {
   "Name": "Барагаш",
   "Accuracy": 4,
   "LatLong": "51.27,85.2"
  },
  {
   "Name": "Беш-Озек",
   "Accuracy": 4,
   "LatLong": "51.62,85.98"
  },
  {
   "Name": "Дъектиек",
   "Accuracy": 1,
   "LatLong": "51.4079,85.6226"
  },
  {
   "Name": "Малая Черга",
   "Accuracy": 1,
   "LatLong": "51.4079,85.6226"
  },
  {
   "Name": "Верх-Апшуяхта",
   "Accuracy": 1,
   "LatLong": "51.4079,85.6226"
  },
  {
   "Name": "Мыюта",
   "Accuracy": 4,
   "LatLong": "51.45,85.6333"
  },
  {
   "Name": "Анос",
   "Accuracy": 4,
   "LatLong": "51.5,85.94"
  },
  {
   "Name": "Чепош",
   "Accuracy": 4,
   "LatLong": "51.5867,85.8289"
  },
  {
   "Name": "Узнезя",
   "Accuracy": 4,
   "LatLong": "51.5261,85.9378"
  },
  {
   "Name": "Бешпельтир",
   "Accuracy": 4,
   "LatLong": "51.62,85.98"
  },
  {
   "Name": "Элекмонар",
   "Accuracy": 4,
   "LatLong": "51.4608,86.0219"
  },
  {
   "Name": "Эдиган",
   "Accuracy": 4,
   "LatLong": "51.1131,86.2533"
  },
  {
   "Name": "Ороктой",
   "Accuracy": 4,
   "LatLong": "51.055,86.1003"
  },
  {
   "Name": "Чемал",
   "Accuracy": 4,
   "LatLong": "51.4111,86.005"
  },
  {
   "Name": "Усть-Сема",
   "Accuracy": 4,
   "LatLong": "51.6386,85.7544"
  },
  {
   "Name": "Куюс",
   "Accuracy": 4,
   "LatLong": "51.0239,86.2325"
  },
  {
   "Name": "Каракол",
   "Accuracy": 4,
   "LatLong": "50.8147,85.9454"
  },
  {
   "Name": "Теньга",
   "Accuracy": 4,
   "LatLong": "50.8389,85.6575"
  },
  {
   "Name": "Ело",
   "Accuracy": 4,
   "LatLong": "50.7693,85.5602"
  },
  {
   "Name": "Кулада",
   "Accuracy": 4,
   "LatLong": "50.6883,85.7861"
  },
  {
   "Name": "Онгудай",
   "Accuracy": 4,
   "LatLong": "50.75,86.15"
  },
  {
   "Name": "Хабаровка",
   "Accuracy": 4,
   "LatLong": "50.7167,86.3167"
  },
  {
   "Name": "Купчегень",
   "Accuracy": 4,
   "LatLong": "50.65,86.4167"
  },
  {
   "Name": "Иня",
   "Accuracy": 1,
   "LatLong": "50.7512,86.1664"
  },
  {
   "Name": "Туекта",
   "Accuracy": 4,
   "LatLong": "50.8391,85.882"
  },
  {
   "Name": "Шашикман",
   "Accuracy": 4,
   "LatLong": "50.8,86.0667"
  },
  {
   "Name": "Усть-Кан",
   "Accuracy": 4,
   "LatLong": "50.95,84.75"
  },
  {
   "Name": "Черный Ануй",
   "Accuracy": 4,
   "LatLong": "51.3601,84.7246"
  },
  {
   "Name": "Белый Ануй",
   "Accuracy": 4,
   "LatLong": "51.23,84.88"
  },
  {
   "Name": "Ябоган",
   "Accuracy": 4,
   "LatLong": "50.9093,85.0708"
  },
  {
   "Name": "Кырлык",
   "Accuracy": 4,
   "LatLong": "50.8067,84.9509"
  },
  {
   "Name": "Мендур-Соккон",
   "Accuracy": 4,
   "LatLong": "50.795,84.8113"
  },
  {
   "Name": "Усть-Кумир",
   "Accuracy": 4,
   "LatLong": "51.0316,84.2836"
  },
  {
   "Name": "Коргон",
   "Accuracy": 4,
   "LatLong": "51.0968,84.0422"
  },
  {
   "Name": "Яконур",
   "Accuracy": 4,
   "LatLong": "51.0355,84.8744"
  },
  {
   "Name": "Усть-Мута",
   "Accuracy": 4,
   "LatLong": "51.2321,84.7549"
  },
  {
   "Name": "Козуль",
   "Accuracy": 4,
   "LatLong": "50.9754,84.6852"
  },
  {
   "Name": "Тюдрала",
   "Accuracy": 4,
   "LatLong": "50.9932,84.487"
  },
  {
   "Name": "Чендек",
   "Accuracy": 4,
   "LatLong": "50.2656,85.9605"
  },
  {
   "Name": "Катанда",
   "Accuracy": 4,
   "LatLong": "50.1833,86.1667"
  },
  {
   "Name": "Тюнгур",
   "Accuracy": 4,
   "LatLong": "50.2,86.3333"
  },
  {
   "Name": "Курунда",
   "Accuracy": 4,
   "LatLong": "50.3251,85.7668"
  },
  {
   "Name": "Верх-Уймон",
   "Accuracy": 1,
   "LatLong": "50.227,85.8683"
  },
  {
   "Name": "Кайтанак",
   "Accuracy": 4,
   "LatLong": "50.1553,85.463"
  },
  {
   "Name": "Огневка",
   "Accuracy": 4,
   "LatLong": "50.2325,85.5194"
  },
  {
   "Name": "Амур",
   "Accuracy": 1,
   "LatLong": "52.3002,86.0609"
  },
  {
   "Name": "Абай",
   "Accuracy": 4,
   "LatLong": "50.4337,85.0551"
  },
  {
   "Name": "Талда",
   "Accuracy": 4,
   "LatLong": "54.1667,87.0667"
  },
  {
   "Name": "Усть-Кокса",
   "Accuracy": 4,
   "LatLong": "50.3,85.6"
  },
  {
   "Name": "Горбуново",
   "Accuracy": 4,
   "LatLong": "50.2247,85.8329"
  },
  {
   "Name": "Мульта",
   "Accuracy": 4,
   "LatLong": "50.1723,85.9582"
  },
  {
   "Name": "Сугаш",
   "Accuracy": 4,
   "LatLong": "50.5653,84.9594"
  },
  {
   "Name": "Карагай",
   "Accuracy": 4,
   "LatLong": "50.3942,84.6217"
  },
  {
   "Name": "Уфпс Республики Алтай",
   "Accuracy": 1,
   "LatLong": "50.2382,88.3104"
  },
  {
   "Name": "Чибиля",
   "Accuracy": 1,
   "LatLong": "50.6692,87.7517"
  },
  {
   "Name": "Балыктуюль",
   "Accuracy": 4,
   "LatLong": "50.78,88.05"
  },
  {
   "Name": "Балыкча",
   "Accuracy": 4,
   "LatLong": "51.28,87.71"
  },
  {
   "Name": "Акташ",
   "Accuracy": 4,
   "LatLong": "50.3,87.73"
  },
  {
   "Name": "Чибит",
   "Accuracy": 4,
   "LatLong": "50.3167,87.5167"
  },
  {
   "Name": "Усть-Улаган",
   "Accuracy": 4,
   "LatLong": "50.6333,87.9667"
  },
  {
   "Name": "Саратан",
   "Accuracy": 4,
   "LatLong": "50.5333,88.3"
  },
  {
   "Name": "Язула",
   "Accuracy": 4,
   "LatLong": "50.6333,88.7667"
  },
  {
   "Name": "Ортолык",
   "Accuracy": 4,
   "LatLong": "50.05,88.5"
  },
  {
   "Name": "Беляши",
   "Accuracy": 4,
   "LatLong": "49.73,87.41"
  },
  {
   "Name": "Тебелер",
   "Accuracy": 4,
   "LatLong": "49.9167,88.7833"
  },
  {
   "Name": "Мухор-Тархата",
   "Accuracy": 4,
   "LatLong": "49.9833,88.55"
  },
  {
   "Name": "Кош-Агач",
   "Accuracy": 4,
   "LatLong": "50,88.6667"
  },
  {
   "Name": "Актал",
   "Accuracy": 4,
   "LatLong": "49.91,88.86"
  },
  {
   "Name": "Кокоря",
   "Accuracy": 4,
   "LatLong": "49.9167,89.0167"
  },
  {
   "Name": "Ташанта",
   "Accuracy": 4,
   "LatLong": "49.7167,89.1833"
  },
  {
   "Name": "Бельтир",
   "Accuracy": 1,
   "LatLong": "49.8858,88.9317"
  },
  {
   "Name": "Чаган-Узун",
   "Accuracy": 4,
   "LatLong": "50.1,88.35"
  },
  {
   "Name": "Курай",
   "Accuracy": 4,
   "LatLong": "50.25,87.9167"
  },
  {
   "Name": "Барнаул",
   "Accuracy": 4,
   "LatLong": "53.36,83.76"
  },
  {
   "Name": "Барнаул 2",
   "Accuracy": 1,
   "LatLong": "53.36,83.76"
  },
  {
   "Name": "Барнаул 3",
   "Accuracy": 1,
   "LatLong": "53.36,83.76"
  },
  {
   "Name": "Барнаул 4",
   "Accuracy": 1,
   "LatLong": "53.36,83.76"
  },
  {
   "Name": "Барнаул 6",
   "Accuracy": 1,
   "LatLong": "53.36,83.76"
  },
  {
   "Name": "Барнаул 8",
   "Accuracy": 1,
   "LatLong": "53.36,83.76"
  },
  {
   "Name": "Барнаул 10",
   "Accuracy": 1,
   "LatLong": "54.27,80.6233"
  },
  {
   "Name": "Барнаул 11",
   "Accuracy": 1,
   "LatLong": "54.27,80.6233"
  },
  {
   "Name": "Барнаул 12",
   "Accuracy": 1,
   "LatLong": "54.27,80.6233"
  },
  {
   "Name": "Барнаул 15",
   "Accuracy": 1,
   "LatLong": "54.27,80.6233"
  },
  {
   "Name": "Барнаул 16",
   "Accuracy": 1,
   "LatLong": "54.27,80.6233"
  },
  {
   "Name": "Барнаул 18",
   "Accuracy": 1,
   "LatLong": "54.27,80.6233"
  },
  {
   "Name": "Барнаул 19",
   "Accuracy": 1,
   "LatLong": "54.27,80.6233"
  },
  {
   "Name": "Барнаул 21",
   "Accuracy": 1,
   "LatLong": "54.27,80.6233"
  },
  {
   "Name": "Барнаул 23",
   "Accuracy": 1,
   "LatLong": "54.27,80.6233"
  },
  {
   "Name": "Барнаул 24",
   "Accuracy": 1,
   "LatLong": "54.27,80.6233"
  },
  {
   "Name": "Барнаул 25",
   "Accuracy": 1,
   "LatLong": "54.27,80.6233"
  },
  {
   "Name": "Барнаул 31",
   "Accuracy": 1,
   "LatLong": "53.8,91.86"
  },
  {
   "Name": "Барнаул 33",
   "Accuracy": 1,
   "LatLong": "53.8,91.86"
  },
  {
   "Name": "Барнаул 35",
   "Accuracy": 1,
   "LatLong": "53.8,91.86"
  },
  {
   "Name": "Барнаул 36",
   "Accuracy": 1,
   "LatLong": "53.8,91.86"
  },
  {
   "Name": "Барнаул 37",
   "Accuracy": 1,
   "LatLong": "53.8,91.86"
  },
  {
   "Name": "Барнаул 38",
   "Accuracy": 1,
   "LatLong": "53.8,91.86"
  },
  {
   "Name": "Барнаул 39",
   "Accuracy": 4,
   "LatLong": "53.8,91.86"
  },
  {
   "Name": "Барнаул 40",
   "Accuracy": 4,
   "LatLong": "55.65,66.25"
  },
  {
   "Name": "Барнаул 43",
   "Accuracy": 1,
   "LatLong": "55.65,66.25"
  },
  {
   "Name": "Барнаул 44",
   "Accuracy": 1,
   "LatLong": "55.65,66.25"
  },
  {
   "Name": "Барнаул 45",
   "Accuracy": 1,
   "LatLong": "55.65,66.25"
  },
  {
   "Name": "Барнаул 47",
   "Accuracy": 1,
   "LatLong": "55.65,66.25"
  },
  {
   "Name": "Барнаул 48",
   "Accuracy": 1,
   "LatLong": "55.65,66.25"
  },
  {
   "Name": "Барнаул 49",
   "Accuracy": 1,
   "LatLong": "55.65,66.25"
  },
  {
   "Name": "Барнаул 50",
   "Accuracy": 1,
   "LatLong": "54.27,80.6233"
  },
  {
   "Name": "Барнаул 52",
   "Accuracy": 1,
   "LatLong": "54.27,80.6233"
  },
  {
   "Name": "Барнаул 53",
   "Accuracy": 1,
   "LatLong": "54.27,80.6233"
  },
  {
   "Name": "Барнаул 54",
   "Accuracy": 1,
   "LatLong": "54.27,80.6233"
  },
  {
   "Name": "Барнаул 55",
   "Accuracy": 1,
   "LatLong": "54.27,80.6233"
  },
  {
   "Name": "Барнаул 56",
   "Accuracy": 1,
   "LatLong": "54.27,80.6233"
  },
  {
   "Name": "Барнаул 57",
   "Accuracy": 1,
   "LatLong": "54.27,80.6233"
  },
  {
   "Name": "Барнаул 58",
   "Accuracy": 1,
   "LatLong": "54.27,80.6233"
  },
  {
   "Name": "Барнаул 59",
   "Accuracy": 1,
   "LatLong": "54.27,80.6233"
  },
  {
   "Name": "Барнаул 60",
   "Accuracy": 1,
   "LatLong": "54.27,80.6233"
  },
  {
   "Name": "Барнаул 62",
   "Accuracy": 1,
   "LatLong": "54.27,80.6233"
  },
  {
   "Name": "Барнаул 63",
   "Accuracy": 1,
   "LatLong": "54.27,80.6233"
  },
  {
   "Name": "Барнаул 64",
   "Accuracy": 1,
   "LatLong": "54.27,80.6233"
  },
  {
   "Name": "Барнаул 65",
   "Accuracy": 1,
   "LatLong": "54.27,80.6233"
  },
  {
   "Name": "Барнаул 66",
   "Accuracy": 1,
   "LatLong": "54.27,80.6233"
  },
  {
   "Name": "Барнаул 67",
   "Accuracy": 1,
   "LatLong": "54.27,80.6233"
  },
  {
   "Name": "Уфпс Алтайского Края",
   "Accuracy": 1,
   "LatLong": "53.5997,83.1285"
  },
  {
   "Name": "Бельмесево",
   "Accuracy": 4,
   "LatLong": "53.2,83.71"
  },
  {
   "Name": "Власиха",
   "Accuracy": 4,
   "LatLong": "53.2972,83.5742"
  },
  {
   "Name": "Гоньба",
   "Accuracy": 4,
   "LatLong": "53.4172,83.5747"
  },
  {
   "Name": "Лебяжье",
   "Accuracy": 4,
   "LatLong": "53.2436,83.6533"
  },
  {
   "Name": "Куета",
   "Accuracy": 1,
   "LatLong": "53.3795,84.076"
  },
  {
   "Name": "Южный",
   "Accuracy": 4,
   "LatLong": "53.2542,83.6936"
  },
  {
   "Name": "Центральный",
   "Accuracy": 4,
   "LatLong": "53.9504,86.5191"
  },
  {
   "Name": "Затон",
   "Accuracy": 4,
   "LatLong": "53.2936,83.8072"
  },
  {
   "Name": "Научный Городок",
   "Accuracy": 4,
   "LatLong": "53.42,83.5156"
  },
  {
   "Name": "Новосиликатный",
   "Accuracy": 4,
   "LatLong": "53.3097,83.6239"
  },
  {
   "Name": "Барнаул Мсц",
   "Accuracy": 1,
   "LatLong": "53.3762,83.9635"
  },
  {
   "Name": "Барнаул Мсц-1",
   "Accuracy": 1,
   "LatLong": "53.3762,83.9635"
  },
  {
   "Name": "Ларичиха",
   "Accuracy": 4,
   "LatLong": "53.7764,83.0386"
  },
  {
   "Name": "Новоперуново",
   "Accuracy": 4,
   "LatLong": "53.8769,83.5086"
  },
  {
   "Name": "Курочкино",
   "Accuracy": 4,
   "LatLong": "53.8725,83.3258"
  },
  {
   "Name": "Новоеловка",
   "Accuracy": 4,
   "LatLong": "55.9406,82.6567"
  },
  {
   "Name": "Казанцево",
   "Accuracy": 4,
   "LatLong": "55.0775,77.6764"
  },
  {
   "Name": "Староперуново",
   "Accuracy": 4,
   "LatLong": "53.7742,83.4633"
  },
  {
   "Name": "Наумово",
   "Accuracy": 1,
   "LatLong": "54.3863,82.2782"
  },
  {
   "Name": "Среднесибирский",
   "Accuracy": 1,
   "LatLong": "54.3863,82.2782"
  },
  {
   "Name": "Анисимово",
   "Accuracy": 4,
   "LatLong": "54.02,83.61"
  },
  {
   "Name": "Лушниково",
   "Accuracy": 4,
   "LatLong": "54.0181,83.5194"
  },
  {
   "Name": "Загайново",
   "Accuracy": 4,
   "LatLong": "54.0639,83.8131"
  },
  {
   "Name": "Новотроицк",
   "Accuracy": 4,
   "LatLong": "53.9036,83.7411"
  },
  {
   "Name": "Шадринцево",
   "Accuracy": 4,
   "LatLong": "53.9442,83.9664"
  },
  {
   "Name": "Озерки-Село",
   "Accuracy": 1,
   "LatLong": "53.9899,83.73"
  },
  {
   "Name": "Озерки-Станция",
   "Accuracy": 1,
   "LatLong": "53.9899,83.73"
  },
  {
   "Name": "Луговое",
   "Accuracy": 4,
   "LatLong": "53.7969,83.6208"
  },
  {
   "Name": "Выползово",
   "Accuracy": 4,
   "LatLong": "53.8469,83.7419"
  },
  {
   "Name": "Кашкарагаиха",
   "Accuracy": 4,
   "LatLong": "53.7311,83.4869"
  },
  {
   "Name": "Зайцево",
   "Accuracy": 4,
   "LatLong": "53.6939,83.3261"
  },
  {
   "Name": "Шишкино",
   "Accuracy": 4,
   "LatLong": "53.6361,83.2192"
  },
  {
   "Name": "Шипицино",
   "Accuracy": 1,
   "LatLong": "53.684,83.4152"
  },
  {
   "Name": "Язово",
   "Accuracy": 4,
   "LatLong": "53.5878,83.1731"
  },
  {
   "Name": "Речкуново",
   "Accuracy": 4,
   "LatLong": "53.4953,83.3386"
  },
  {
   "Name": "Тальменка",
   "Accuracy": 4,
   "LatLong": "53.8186,83.5681"
  },
  {
   "Name": "Тальменка 1",
   "Accuracy": 1,
   "LatLong": "53.8186,83.5681"
  },
  {
   "Name": "Тальменка 2",
   "Accuracy": 1,
   "LatLong": "53.8186,83.5681"
  },
  {
   "Name": "Тальменка 3",
   "Accuracy": 1,
   "LatLong": "53.8186,83.5681"
  },
  {
   "Name": "Белоярск",
   "Accuracy": 4,
   "LatLong": "53.44,83.9"
  },
  {
   "Name": "Зудилово",
   "Accuracy": 4,
   "LatLong": "53.4931,83.8939"
  },
  {
   "Name": "Боровиха",
   "Accuracy": 4,
   "LatLong": "53.5083,83.8408"
  },
  {
   "Name": "Казачий",
   "Accuracy": 1,
   "LatLong": "53.2316,83.6821"
  },
  {
   "Name": "Санниково",
   "Accuracy": 4,
   "LatLong": "53.3444,83.9753"
  },
  {
   "Name": "Бобровка",
   "Accuracy": 4,
   "LatLong": "52.4333,82.15"
  },
  {
   "Name": "Рассказиха",
   "Accuracy": 4,
   "LatLong": "53.0822,83.8347"
  },
  {
   "Name": "Баюновские Ключи",
   "Accuracy": 4,
   "LatLong": "53.32,84.18"
  },
  {
   "Name": "Первомайское",
   "Accuracy": 4,
   "LatLong": "53.7211,84.0183"
  },
  {
   "Name": "Новокраюшкино",
   "Accuracy": 4,
   "LatLong": "53.7722,83.9364"
  },
  {
   "Name": "Акулово",
   "Accuracy": 4,
   "LatLong": "53.91,84.02"
  },
  {
   "Name": "Журавлиха",
   "Accuracy": 4,
   "LatLong": "53.7806,84.2356"
  },
  {
   "Name": "Сорочий Лог",
   "Accuracy": 4,
   "LatLong": "53.5731,84.1467"
  },
  {
   "Name": "Фирсово",
   "Accuracy": 4,
   "LatLong": "53.3175,83.9536"
  },
  {
   "Name": "Березовка",
   "Accuracy": 4,
   "LatLong": "54.89,79.07"
  },
  {
   "Name": "Березовка 1",
   "Accuracy": 1,
   "LatLong": "54.248,80.7153"
  },
  {
   "Name": "Нижняя Петровка",
   "Accuracy": 1,
   "LatLong": "54.248,80.7153"
  },
  {
   "Name": "Повалиха",
   "Accuracy": 4,
   "LatLong": "53.5122,83.7722"
  },
  {
   "Name": "Лесной",
   "Accuracy": 4,
   "LatLong": "54.9378,76.2611"
  },
  {
   "Name": "Рогуличный",
   "Accuracy": 4,
   "LatLong": "53.6519,83.7578"
  },
  {
   "Name": "Логовское",
   "Accuracy": 1,
   "LatLong": "53.551,84.2698"
  },
  {
   "Name": "Жилино",
   "Accuracy": 4,
   "LatLong": "53.4044,84.3083"
  },
  {
   "Name": "Новокопылово",
   "Accuracy": 4,
   "LatLong": "53.6708,84.7433"
  },
  {
   "Name": "Северный",
   "Accuracy": 1,
   "LatLong": "53.551,84.2698"
  },
  {
   "Name": "Сибирский",
   "Accuracy": 4,
   "LatLong": "53.5778,83.7578"
  },
  {
   "Name": "Сибирский 1",
   "Accuracy": 1,
   "LatLong": "53.551,84.2698"
  },
  {
   "Name": "Новоалтайск",
   "Accuracy": 4,
   "LatLong": "53.3917,83.9367"
  },
  {
   "Name": "Новоалтайск 1",
   "Accuracy": 1,
   "LatLong": "53.3917,83.9367"
  },
  {
   "Name": "Новоалтайск 2",
   "Accuracy": 1,
   "LatLong": "53.3917,83.9367"
  },
  {
   "Name": "Новоалтайск 3",
   "Accuracy": 1,
   "LatLong": "53.3917,83.9367"
  },
  {
   "Name": "Новоалтайск 4",
   "Accuracy": 1,
   "LatLong": "53.3917,83.9367"
  },
  {
   "Name": "Новоалтайск 7",
   "Accuracy": 1,
   "LatLong": "53.3917,83.9367"
  },
  {
   "Name": "Новоалтайск 9",
   "Accuracy": 1,
   "LatLong": "53.3917,83.9367"
  },
  {
   "Name": "Новоалтайск 10",
   "Accuracy": 1,
   "LatLong": "53.7902,83.2372"
  },
  {
   "Name": "Новоалтайск 11",
   "Accuracy": 1,
   "LatLong": "53.7902,83.2372"
  },
  {
   "Name": "Новоалтайск 15",
   "Accuracy": 1,
   "LatLong": "53.7902,83.2372"
  },
  {
   "Name": "Большепанюшево",
   "Accuracy": 4,
   "LatLong": "52.5167,82.8667"
  },
  {
   "Name": "Безголосово",
   "Accuracy": 4,
   "LatLong": "52.48,82.98"
  },
  {
   "Name": "Александровский",
   "Accuracy": 4,
   "LatLong": "52.4,82.93"
  },
  {
   "Name": "Уржум",
   "Accuracy": 4,
   "LatLong": "52.2333,83.0333"
  },
  {
   "Name": "Осколково",
   "Accuracy": 4,
   "LatLong": "52.3167,83.1833"
  },
  {
   "Name": "Приятельский",
   "Accuracy": 1,
   "LatLong": "52.4257,82.9705"
  },
  {
   "Name": "Вавилон",
   "Accuracy": 4,
   "LatLong": "52.4667,82.8333"
  },
  {
   "Name": "Новоколпаково",
   "Accuracy": 4,
   "LatLong": "52.5667,82.9667"
  },
  {
   "Name": "Алейский",
   "Accuracy": 1,
   "LatLong": "52.4257,82.9705"
  },
  {
   "Name": "Заветы Ильича",
   "Accuracy": 1,
   "LatLong": "53.6723,76.9064"
  },
  {
   "Name": "Дружба",
   "Accuracy": 4,
   "LatLong": "52.5833,82.4667"
  },
  {
   "Name": "Моховское",
   "Accuracy": 4,
   "LatLong": "52.6333,82.5"
  },
  {
   "Name": "Кировское",
   "Accuracy": 1,
   "LatLong": "53.6723,76.9064"
  },
  {
   "Name": "Боровское",
   "Accuracy": 4,
   "LatLong": "55.8003,65.7525"
  },
  {
   "Name": "Савинка",
   "Accuracy": 1,
   "LatLong": "53.6723,76.9064"
  },
  {
   "Name": "Красный Яр",
   "Accuracy": 1,
   "LatLong": "53.6723,76.9064"
  },
  {
   "Name": "Толстая Дуброва",
   "Accuracy": 1,
   "LatLong": "53.6723,76.9064"
  },
  {
   "Name": "Урюпино",
   "Accuracy": 4,
   "LatLong": "54.1328,78.9953"
  },
  {
   "Name": "Кашино",
   "Accuracy": 4,
   "LatLong": "52.3833,82.5833"
  },
  {
   "Name": "Кабаково",
   "Accuracy": 4,
   "LatLong": "52.3167,82.5"
  },
  {
   "Name": "Малиновка",
   "Accuracy": 4,
   "LatLong": "54.6281,76.1733"
  },
  {
   "Name": "Плотава",
   "Accuracy": 4,
   "LatLong": "53.45,80.7333"
  },
  {
   "Name": "Бориха",
   "Accuracy": 1,
   "LatLong": "53.1879,80.6448"
  },
  {
   "Name": "Ветелки",
   "Accuracy": 4,
   "LatLong": "52.2167,82.8833"
  },
  {
   "Name": "Совхозный",
   "Accuracy": 1,
   "LatLong": "53.1879,80.6448"
  },
  {
   "Name": "Алейск",
   "Accuracy": 4,
   "LatLong": "52.49,82.77"
  },
  {
   "Name": "Алейск 1",
   "Accuracy": 1,
   "LatLong": "52.49,82.77"
  },
  {
   "Name": "Алейск 3",
   "Accuracy": 1,
   "LatLong": "52.49,82.77"
  },
  {
   "Name": "Алейск 5",
   "Accuracy": 1,
   "LatLong": "52.49,82.77"
  },
  {
   "Name": "Алейск 6",
   "Accuracy": 1,
   "LatLong": "52.49,82.77"
  },
  {
   "Name": "Алейск 7",
   "Accuracy": 1,
   "LatLong": "52.49,82.77"
  },
  {
   "Name": "Алейск 8",
   "Accuracy": 1,
   "LatLong": "52.49,82.77"
  },
  {
   "Name": "Усть-Калманка",
   "Accuracy": 4,
   "LatLong": "52.1167,83.3167"
  },
  {
   "Name": "Новобураново",
   "Accuracy": 4,
   "LatLong": "51.944,83.0401"
  },
  {
   "Name": "Бураново",
   "Accuracy": 4,
   "LatLong": "52.0167,82.9333"
  },
  {
   "Name": "Пономарево",
   "Accuracy": 4,
   "LatLong": "52.0833,83.2"
  },
  {
   "Name": "Чарышское",
   "Accuracy": 4,
   "LatLong": "51.4,83.5833"
  },
  {
   "Name": "Приозерный",
   "Accuracy": 1,
   "LatLong": "51.9349,83.0962"
  },
  {
   "Name": "Ельцовка",
   "Accuracy": 4,
   "LatLong": "51.9167,82.4167"
  },
  {
   "Name": "Усть-Камышенка",
   "Accuracy": 4,
   "LatLong": "52.0667,83.1833"
  },
  {
   "Name": "Новокалманка",
   "Accuracy": 4,
   "LatLong": "51.9509,83.365"
  },
  {
   "Name": "Новотроенка",
   "Accuracy": 4,
   "LatLong": "51.8406,83.3215"
  },
  {
   "Name": "Огни",
   "Accuracy": 4,
   "LatLong": "51.9094,83.5412"
  },
  {
   "Name": "Михайловка",
   "Accuracy": 4,
   "LatLong": "54.5669,78.5556"
  },
  {
   "Name": "Верх-Слюдянка",
   "Accuracy": 1,
   "LatLong": "52.4636,82.3767"
  },
  {
   "Name": "Кабаново",
   "Accuracy": 4,
   "LatLong": "52.05,83.1"
  },
  {
   "Name": "Чарышское",
   "Accuracy": 4,
   "LatLong": "51.4,83.5833"
  },
  {
   "Name": "Маральи Рожки",
   "Accuracy": 4,
   "LatLong": "51.7318,83.4997"
  },
  {
   "Name": "Маяк",
   "Accuracy": 4,
   "LatLong": "51.6147,83.4363"
  },
  {
   "Name": "Алексеевка",
   "Accuracy": 4,
   "LatLong": "52.5,79.55"
  },
  {
   "Name": "Щебнюха",
   "Accuracy": 4,
   "LatLong": "51.4709,83.4177"
  },
  {
   "Name": "Маралиха",
   "Accuracy": 4,
   "LatLong": "51.6167,82.95"
  },
  {
   "Name": "Тулата",
   "Accuracy": 4,
   "LatLong": "51.3103,83.4246"
  },
  {
   "Name": "Усть-Тулатинка",
   "Accuracy": 4,
   "LatLong": "51.4107,83.3988"
  },
  {
   "Name": "Красный Партизан",
   "Accuracy": 4,
   "LatLong": "51.3765,83.5808"
  },
  {
   "Name": "Березовка",
   "Accuracy": 4,
   "LatLong": "52.41,82.25"
  },
  {
   "Name": "Сентелек",
   "Accuracy": 4,
   "LatLong": "51.2023,83.752"
  },
  {
   "Name": "Сваловка",
   "Accuracy": 4,
   "LatLong": "51.4903,83.6774"
  },
  {
   "Name": "Малый Бащелак",
   "Accuracy": 4,
   "LatLong": "51.4903,83.8194"
  },
  {
   "Name": "Большой Бащелак",
   "Accuracy": 4,
   "LatLong": "51.5337,83.966"
  },
  {
   "Name": "Рубцовск",
   "Accuracy": 1,
   "LatLong": "51.9847,80.6627"
  },
  {
   "Name": "Рубцовск 1",
   "Accuracy": 1,
   "LatLong": "51.9847,80.6627"
  },
  {
   "Name": "Рубцовск 4",
   "Accuracy": 1,
   "LatLong": "51.9847,80.6627"
  },
  {
   "Name": "Рубцовск 6",
   "Accuracy": 1,
   "LatLong": "51.9847,80.6627"
  },
  {
   "Name": "Рубцовск 7",
   "Accuracy": 1,
   "LatLong": "51.9847,80.6627"
  },
  {
   "Name": "Рубцовск 8",
   "Accuracy": 1,
   "LatLong": "51.9847,80.6627"
  },
  {
   "Name": "Рубцовск 9",
   "Accuracy": 1,
   "LatLong": "51.9847,80.6627"
  },
  {
   "Name": "Рубцовск 10",
   "Accuracy": 1,
   "LatLong": "51.9847,80.6627"
  },
  {
   "Name": "Рубцовск 12",
   "Accuracy": 1,
   "LatLong": "51.9847,80.6627"
  },
  {
   "Name": "Рубцовск 13",
   "Accuracy": 1,
   "LatLong": "51.9847,80.6627"
  },
  {
   "Name": "Рубцовск 14",
   "Accuracy": 1,
   "LatLong": "51.9847,80.6627"
  },
  {
   "Name": "Рубцовск 18",
   "Accuracy": 1,
   "LatLong": "51.9847,80.6627"
  },
  {
   "Name": "Рубцовск 19",
   "Accuracy": 1,
   "LatLong": "51.9847,80.6627"
  },
  {
   "Name": "Рубцовск 20",
   "Accuracy": 1,
   "LatLong": "51.9847,80.6627"
  },
  {
   "Name": "Рубцовск 22",
   "Accuracy": 1,
   "LatLong": "51.9847,80.6627"
  },
  {
   "Name": "Рубцовск 23",
   "Accuracy": 1,
   "LatLong": "51.9847,80.6627"
  },
  {
   "Name": "Рубцовск 24",
   "Accuracy": 1,
   "LatLong": "51.9847,80.6627"
  },
  {
   "Name": "Рубцовск 25",
   "Accuracy": 1,
   "LatLong": "51.9847,80.6627"
  },
  {
   "Name": "Рубцовск 27",
   "Accuracy": 1,
   "LatLong": "51.9847,80.6627"
  },
  {
   "Name": "Приозерный",
   "Accuracy": 1,
   "LatLong": "55.5094,74.421"
  },
  {
   "Name": "Самарка",
   "Accuracy": 4,
   "LatLong": "54.9,73.3"
  },
  {
   "Name": "Ракиты",
   "Accuracy": 4,
   "LatLong": "54.55,74.0167"
  },
  {
   "Name": "Саратовка",
   "Accuracy": 4,
   "LatLong": "57.0781,75.9464"
  },
  {
   "Name": "Безрукавка",
   "Accuracy": 4,
   "LatLong": "51.58,81.3"
  },
  {
   "Name": "Новороссийский",
   "Accuracy": 4,
   "LatLong": "51.85,81.4"
  },
  {
   "Name": "Бобково",
   "Accuracy": 4,
   "LatLong": "51.6667,81.4167"
  },
  {
   "Name": "Тишинка",
   "Accuracy": 4,
   "LatLong": "51.8,81.3333"
  },
  {
   "Name": "Мамонтово",
   "Accuracy": 4,
   "LatLong": "51.7667,81.4167"
  },
  {
   "Name": "Новоалександровка",
   "Accuracy": 4,
   "LatLong": "51.3833,81.1833"
  },
  {
   "Name": "Веселоярск",
   "Accuracy": 4,
   "LatLong": "51.2836,81.1056"
  },
  {
   "Name": "Пушкино",
   "Accuracy": 4,
   "LatLong": "54.7833,85.5"
  },
  {
   "Name": "Новосклюиха",
   "Accuracy": 4,
   "LatLong": "51.55,81.4"
  },
  {
   "Name": "Дальний",
   "Accuracy": 4,
   "LatLong": "51.4667,81.7"
  },
  {
   "Name": "Новониколаевка",
   "Accuracy": 4,
   "LatLong": "51.35,81.4833"
  },
  {
   "Name": "Половинкино",
   "Accuracy": 4,
   "LatLong": "51.65,81.3667"
  },
  {
   "Name": "Зеленая Дубрава",
   "Accuracy": 4,
   "LatLong": "51.4167,81.2"
  },
  {
   "Name": "Куйбышево",
   "Accuracy": 4,
   "LatLong": "51.5667,81.1333"
  },
  {
   "Name": "Большая Шелковка",
   "Accuracy": 4,
   "LatLong": "51.4207,80.6521"
  },
  {
   "Name": "Вишневка",
   "Accuracy": 4,
   "LatLong": "51.35,81.5167"
  },
  {
   "Name": "Круглое",
   "Accuracy": 1,
   "LatLong": "51.4722,80.1646"
  },
  {
   "Name": "Валовой Кордон",
   "Accuracy": 4,
   "LatLong": "51.7796,80.3634"
  },
  {
   "Name": "Шадруха",
   "Accuracy": 4,
   "LatLong": "51.1647,79.9658"
  },
  {
   "Name": "Угловское",
   "Accuracy": 4,
   "LatLong": "51.3833,80.2"
  },
  {
   "Name": "Озерно-Кузнецово",
   "Accuracy": 4,
   "LatLong": "51.5128,80.3572"
  },
  {
   "Name": "Симоново",
   "Accuracy": 4,
   "LatLong": "51.6863,80.3801"
  },
  {
   "Name": "Лаптев Лог",
   "Accuracy": 4,
   "LatLong": "51.06,80.1851"
  },
  {
   "Name": "Наумовка",
   "Accuracy": 4,
   "LatLong": "51.0301,80.4483"
  },
  {
   "Name": "Топольное",
   "Accuracy": 4,
   "LatLong": "50.9369,80.1053"
  },
  {
   "Name": "Мирный",
   "Accuracy": 4,
   "LatLong": "51.4214,79.9625"
  },
  {
   "Name": "Павловка",
   "Accuracy": 4,
   "LatLong": "51.3947,79.7919"
  },
  {
   "Name": "Новоегорьевское",
   "Accuracy": 4,
   "LatLong": "51.7611,80.8997"
  },
  {
   "Name": "Шубинка",
   "Accuracy": 4,
   "LatLong": "51.6058,80.798"
  },
  {
   "Name": "Борисовка",
   "Accuracy": 4,
   "LatLong": "51.5583,80.7789"
  },
  {
   "Name": "Малая Шелковка",
   "Accuracy": 4,
   "LatLong": "51.4949,80.7533"
  },
  {
   "Name": "Сросты",
   "Accuracy": 4,
   "LatLong": "51.9,81.0333"
  },
  {
   "Name": "Титовка",
   "Accuracy": 4,
   "LatLong": "52.0106,81.1541"
  },
  {
   "Name": "Кругло-Семенцы",
   "Accuracy": 4,
   "LatLong": "51.5334,80.9"
  },
  {
   "Name": "Первомайское",
   "Accuracy": 4,
   "LatLong": "53.7211,84.0183"
  },
  {
   "Name": "Перешеечный",
   "Accuracy": 4,
   "LatLong": "51.7179,80.838"
  },
  {
   "Name": "Лебяжье",
   "Accuracy": 4,
   "LatLong": "53.2436,83.6533"
  },
  {
   "Name": "Мирный",
   "Accuracy": 4,
   "LatLong": "51.0583,81.5519"
  },
  {
   "Name": "Курья",
   "Accuracy": 4,
   "LatLong": "51.6,82.3167"
  },
  {
   "Name": "Краснознаменский",
   "Accuracy": 4,
   "LatLong": "51.6833,82.2667"
  },
  {
   "Name": "Кузнецово",
   "Accuracy": 4,
   "LatLong": "55.9881,78.1181"
  },
  {
   "Name": "Трусово",
   "Accuracy": 4,
   "LatLong": "51.7167,82.4667"
  },
  {
   "Name": "Новофирсово",
   "Accuracy": 4,
   "LatLong": "51.75,82.2333"
  },
  {
   "Name": "Усть-Таловка",
   "Accuracy": 4,
   "LatLong": "51.5,82.2833"
  },
  {
   "Name": "Казанцево",
   "Accuracy": 4,
   "LatLong": "51.4,82.3667"
  },
  {
   "Name": "Колывань",
   "Accuracy": 4,
   "LatLong": "51.3139,82.5703"
  },
  {
   "Name": "Бугрышиха",
   "Accuracy": 4,
   "LatLong": "51.2778,82.7897"
  },
  {
   "Name": "Ивановка",
   "Accuracy": 4,
   "LatLong": "50.9228,82.4019"
  },
  {
   "Name": "Горновка",
   "Accuracy": 1,
   "LatLong": "51.2829,82.4824"
  },
  {
   "Name": "Краснощеково",
   "Accuracy": 4,
   "LatLong": "51.6708,82.7289"
  },
  {
   "Name": "Акимовка",
   "Accuracy": 4,
   "LatLong": "51.6,82.58"
  },
  {
   "Name": "Карпово-Второе",
   "Accuracy": 1,
   "LatLong": "51.719,82.6654"
  },
  {
   "Name": "Суетка",
   "Accuracy": 4,
   "LatLong": "51.4667,82.6833"
  },
  {
   "Name": "Березовка",
   "Accuracy": 4,
   "LatLong": "52.41,82.25"
  },
  {
   "Name": "Харлово",
   "Accuracy": 4,
   "LatLong": "51.7,82.8333"
  },
  {
   "Name": "Усть-Белое",
   "Accuracy": 4,
   "LatLong": "51.4667,82.9167"
  },
  {
   "Name": "Маралиха",
   "Accuracy": 4,
   "LatLong": "51.7012,83.3665"
  },
  {
   "Name": "Куйбышево",
   "Accuracy": 4,
   "LatLong": "51.5667,81.1333"
  },
  {
   "Name": "Чинета",
   "Accuracy": 4,
   "LatLong": "51.3295,83.0543"
  },
  {
   "Name": "Усть-Чагырка",
   "Accuracy": 4,
   "LatLong": "51.4297,83.1194"
  },
  {
   "Name": "Усть-Пустынка",
   "Accuracy": 4,
   "LatLong": "51.4694,83.1968"
  },
  {
   "Name": "Усть-Козлуха",
   "Accuracy": 4,
   "LatLong": "51.6241,83.1237"
  },
  {
   "Name": "Новошипуново",
   "Accuracy": 4,
   "LatLong": "51.6931,83.2634"
  },
  {
   "Name": "Верх-Камышенка",
   "Accuracy": 4,
   "LatLong": "53.595,84.8056"
  },
  {
   "Name": "Верх-Камышенка 1",
   "Accuracy": 1,
   "LatLong": "51.8011,83.1329"
  },
  {
   "Name": "Быково",
   "Accuracy": 4,
   "LatLong": "52.1333,82.1833"
  },
  {
   "Name": "Хлопуново",
   "Accuracy": 4,
   "LatLong": "52.0833,82.0333"
  },
  {
   "Name": "Горьковское",
   "Accuracy": 4,
   "LatLong": "52.0667,82.1167"
  },
  {
   "Name": "Красный Яр",
   "Accuracy": 4,
   "LatLong": "52.1833,82.35"
  },
  {
   "Name": "Нечунаево",
   "Accuracy": 4,
   "LatLong": "52.2667,82.4167"
  },
  {
   "Name": "Белоглазово",
   "Accuracy": 4,
   "LatLong": "52.13,82.56"
  },
  {
   "Name": "Бестужево",
   "Accuracy": 4,
   "LatLong": "52.05,82.45"
  },
  {
   "Name": "Тугозвоново",
   "Accuracy": 4,
   "LatLong": "52.0833,82.5833"
  },
  {
   "Name": "Кузнечиха",
   "Accuracy": 4,
   "LatLong": "51.9833,82.5"
  },
  {
   "Name": "Ельцовка",
   "Accuracy": 4,
   "LatLong": "51.9167,82.4167"
  },
  {
   "Name": "Комариха",
   "Accuracy": 4,
   "LatLong": "51.9333,82.7"
  },
  {
   "Name": "Самсоново",
   "Accuracy": 4,
   "LatLong": "52.13,82.56"
  },
  {
   "Name": "Усть-Порозиха",
   "Accuracy": 1,
   "LatLong": "52.0346,82.5775"
  },
  {
   "Name": "Кособоково",
   "Accuracy": 4,
   "LatLong": "52.05,82.85"
  },
  {
   "Name": "Первомайское",
   "Accuracy": 4,
   "LatLong": "53.7211,84.0183"
  },
  {
   "Name": "Новоивановка",
   "Accuracy": 4,
   "LatLong": "53.4586,77.8972"
  },
  {
   "Name": "Родино",
   "Accuracy": 4,
   "LatLong": "52.3728,81.9973"
  },
  {
   "Name": "Порожнее",
   "Accuracy": 4,
   "LatLong": "52.2716,81.9269"
  },
  {
   "Name": "Баталово",
   "Accuracy": 4,
   "LatLong": "52.2167,81.8691"
  },
  {
   "Name": "Бобровка",
   "Accuracy": 4,
   "LatLong": "52.4333,82.15"
  },
  {
   "Name": "Зеркалы",
   "Accuracy": 4,
   "LatLong": "52.4852,81.8327"
  },
  {
   "Name": "Коробейниково",
   "Accuracy": 4,
   "LatLong": "52.4112,81.6955"
  },
  {
   "Name": "Урлапово",
   "Accuracy": 4,
   "LatLong": "52.5667,82.0167"
  },
  {
   "Name": "Ильинка",
   "Accuracy": 4,
   "LatLong": "55.5056,79.1742"
  },
  {
   "Name": "Шипуново",
   "Accuracy": 4,
   "LatLong": "52.2167,82.2833"
  },
  {
   "Name": "Шипуново 1",
   "Accuracy": 1,
   "LatLong": "52.2167,82.2833"
  },
  {
   "Name": "Шипуново 2",
   "Accuracy": 1,
   "LatLong": "52.2167,82.2833"
  },
  {
   "Name": "Ремовский",
   "Accuracy": 4,
   "LatLong": "51.1281,81.2269"
  },
  {
   "Name": "Локоть",
   "Accuracy": 4,
   "LatLong": "51.1847,81.1958"
  },
  {
   "Name": "Новенькое",
   "Accuracy": 4,
   "LatLong": "51.0522,81.1489"
  },
  {
   "Name": "Советский Путь",
   "Accuracy": 4,
   "LatLong": "51.1325,81.2728"
  },
  {
   "Name": "Устьянка",
   "Accuracy": 4,
   "LatLong": "51.1461,81.6056"
  },
  {
   "Name": "Покровка",
   "Accuracy": 4,
   "LatLong": "52.95,83.0167"
  },
  {
   "Name": "Самарка",
   "Accuracy": 4,
   "LatLong": "51.3833,81.2667"
  },
  {
   "Name": "Гилево",
   "Accuracy": 4,
   "LatLong": "51.1317,81.7878"
  },
  {
   "Name": "Александровка",
   "Accuracy": 4,
   "LatLong": "51.6746,83.9675"
  },
  {
   "Name": "Георгиевка",
   "Accuracy": 4,
   "LatLong": "51.1422,81.5031"
  },
  {
   "Name": "Николаевка",
   "Accuracy": 4,
   "LatLong": "51.8667,82.0667"
  },
  {
   "Name": "Кировский",
   "Accuracy": 4,
   "LatLong": "51.0106,81.5028"
  },
  {
   "Name": "Успенка",
   "Accuracy": 4,
   "LatLong": "50.9731,81.5322"
  },
  {
   "Name": "Золотуха",
   "Accuracy": 4,
   "LatLong": "50.8081,81.5292"
  },
  {
   "Name": "Горняк",
   "Accuracy": 4,
   "LatLong": "50.9942,81.4661"
  },
  {
   "Name": "Горняк 1",
   "Accuracy": 1,
   "LatLong": "50.9942,81.4661"
  },
  {
   "Name": "Горняк 2",
   "Accuracy": 1,
   "LatLong": "50.9942,81.4661"
  },
  {
   "Name": "Горняк 3",
   "Accuracy": 1,
   "LatLong": "50.9942,81.4661"
  },
  {
   "Name": "Горняк 4",
   "Accuracy": 1,
   "LatLong": "50.9942,81.4661"
  },
  {
   "Name": "Масальский",
   "Accuracy": 4,
   "LatLong": "50.9614,81.7944"
  },
  {
   "Name": "Вторая Каменка",
   "Accuracy": 1,
   "LatLong": "50.9614,81.7944"
  },
  {
   "Name": "Третьяково",
   "Accuracy": 4,
   "LatLong": "50.8667,81.8953"
  },
  {
   "Name": "Михайловка",
   "Accuracy": 4,
   "LatLong": "54.5669,78.5556"
  },
  {
   "Name": "Крючки",
   "Accuracy": 4,
   "LatLong": "50.8478,81.7989"
  },
  {
   "Name": "Садовый",
   "Accuracy": 4,
   "LatLong": "50.9828,81.9203"
  },
  {
   "Name": "Староалейское",
   "Accuracy": 4,
   "LatLong": "51.0061,82"
  },
  {
   "Name": "Корболиха",
   "Accuracy": 4,
   "LatLong": "51.0972,81.9642"
  },
  {
   "Name": "Первокаменка",
   "Accuracy": 4,
   "LatLong": "50.9672,82.2747"
  },
  {
   "Name": "Шипуниха",
   "Accuracy": 4,
   "LatLong": "50.9325,82.3781"
  },
  {
   "Name": "Семеновка",
   "Accuracy": 4,
   "LatLong": "50.9586,82.4692"
  },
  {
   "Name": "Новоалейское",
   "Accuracy": 4,
   "LatLong": "50.8475,82.4086"
  },
  {
   "Name": "Плоское",
   "Accuracy": 4,
   "LatLong": "50.8522,82.1511"
  },
  {
   "Name": "Екатерининское",
   "Accuracy": 4,
   "LatLong": "50.9097,82.0175"
  },
  {
   "Name": "Первомайский",
   "Accuracy": 4,
   "LatLong": "50.8778,81.9292"
  },
  {
   "Name": "Локоток",
   "Accuracy": 4,
   "LatLong": "51.2575,81.8244"
  },
  {
   "Name": "Октябрьский",
   "Accuracy": 1,
   "LatLong": "51.2791,81.9731"
  },
  {
   "Name": "Кузьминка",
   "Accuracy": 4,
   "LatLong": "51.3114,81.9467"
  },
  {
   "Name": "Никольск",
   "Accuracy": 4,
   "LatLong": "51.35,81.9167"
  },
  {
   "Name": "Саввушка",
   "Accuracy": 4,
   "LatLong": "51.35,82.1667"
  },
  {
   "Name": "Карамышево",
   "Accuracy": 4,
   "LatLong": "51.1739,82.085"
  },
  {
   "Name": "Предгорный",
   "Accuracy": 4,
   "LatLong": "51.2317,81.8989"
  },
  {
   "Name": "Беспаловский",
   "Accuracy": 4,
   "LatLong": "51.19,82.24"
  },
  {
   "Name": "Лазурка",
   "Accuracy": 4,
   "LatLong": "51.0892,82.3739"
  },
  {
   "Name": "Барановка",
   "Accuracy": 4,
   "LatLong": "51.05,82.2"
  },
  {
   "Name": "Таловка",
   "Accuracy": 4,
   "LatLong": "51.45,81.9"
  },
  {
   "Name": "Таловка 1",
   "Accuracy": 1,
   "LatLong": "51.1948,82.1785"
  },
  {
   "Name": "Змеиногорск",
   "Accuracy": 4,
   "LatLong": "51.1567,82.195"
  },
  {
   "Name": "Змеиногорск",
   "Accuracy": 4,
   "LatLong": "51.1567,82.195"
  },
  {
   "Name": "Нижнечуманка",
   "Accuracy": 4,
   "LatLong": "53.2333,80.6"
  },
  {
   "Name": "Павловка",
   "Accuracy": 4,
   "LatLong": "52.0795,81.5104"
  },
  {
   "Name": "Ситниково",
   "Accuracy": 4,
   "LatLong": "53.15,80.9667"
  },
  {
   "Name": "Верх-Чуманка",
   "Accuracy": 4,
   "LatLong": "53.4,80.6"
  },
  {
   "Name": "Верх-Пайва",
   "Accuracy": 4,
   "LatLong": "53.4,80.3"
  },
  {
   "Name": "Нижнепайва",
   "Accuracy": 1,
   "LatLong": "53.0526,80.7954"
  },
  {
   "Name": "Баево",
   "Accuracy": 4,
   "LatLong": "53.28,80.76"
  },
  {
   "Name": "Покровка",
   "Accuracy": 4,
   "LatLong": "53.1333,80.4667"
  },
  {
   "Name": "Паклино",
   "Accuracy": 4,
   "LatLong": "53.15,81.1193"
  },
  {
   "Name": "Сафроново",
   "Accuracy": 4,
   "LatLong": "53.1914,81.1102"
  },
  {
   "Name": "Плотава",
   "Accuracy": 4,
   "LatLong": "53.45,80.7333"
  },
  {
   "Name": "Чуманка",
   "Accuracy": 4,
   "LatLong": "53.5167,80.4333"
  },
  {
   "Name": "Прослауха",
   "Accuracy": 4,
   "LatLong": "53.35,80.9667"
  },
  {
   "Name": "Шумилиха",
   "Accuracy": 4,
   "LatLong": "53.1207,81.9429"
  },
  {
   "Name": "Ясная Поляна",
   "Accuracy": 4,
   "LatLong": "53.2219,82.2264"
  },
  {
   "Name": "Ребриха-Станция",
   "Accuracy": 1,
   "LatLong": "52.9208,82.2765"
  },
  {
   "Name": "Белово",
   "Accuracy": 4,
   "LatLong": "52.95,82.26"
  },
  {
   "Name": "Георгиевка",
   "Accuracy": 4,
   "LatLong": "52.8667,82.0667"
  },
  {
   "Name": "Ворониха",
   "Accuracy": 4,
   "LatLong": "52.75,82.2333"
  },
  {
   "Name": "Рожнев Лог",
   "Accuracy": 4,
   "LatLong": "52.8667,82.4167"
  },
  {
   "Name": "Паново",
   "Accuracy": 4,
   "LatLong": "52.9889,82.1556"
  },
  {
   "Name": "Молодежный",
   "Accuracy": 4,
   "LatLong": "53.0569,82.7364"
  },
  {
   "Name": "Подстепное",
   "Accuracy": 4,
   "LatLong": "52.9667,82.0667"
  },
  {
   "Name": "Ребриха",
   "Accuracy": 4,
   "LatLong": "53.0733,82.3408"
  },
  {
   "Name": "Куликово",
   "Accuracy": 4,
   "LatLong": "53.2007,81.8934"
  },
  {
   "Name": "Усть-Мосиха",
   "Accuracy": 4,
   "LatLong": "53.2556,82.0219"
  },
  {
   "Name": "Верх-Боровлянка",
   "Accuracy": 4,
   "LatLong": "53.1844,82.1992"
  },
  {
   "Name": "Клочки",
   "Accuracy": 4,
   "LatLong": "53.1811,82.5786"
  },
  {
   "Name": "Боровлянка",
   "Accuracy": 4,
   "LatLong": "53.1828,82.4572"
  },
  {
   "Name": "Плоскосеминский",
   "Accuracy": 4,
   "LatLong": "52.9961,82.4889"
  },
  {
   "Name": "Зимино",
   "Accuracy": 4,
   "LatLong": "52.9619,82.7039"
  },
  {
   "Name": "Зеленая Роща",
   "Accuracy": 4,
   "LatLong": "53.0622,82.5025"
  },
  {
   "Name": "Корчино-Станция",
   "Accuracy": 1,
   "LatLong": "52.1584,81.7525"
  },
  {
   "Name": "Корчино",
   "Accuracy": 4,
   "LatLong": "52.9861,81.6864"
  },
  {
   "Name": "Ермачиха",
   "Accuracy": 1,
   "LatLong": "52.1584,81.7525"
  },
  {
   "Name": "Гришенское",
   "Accuracy": 1,
   "LatLong": "52.1584,81.7525"
  },
  {
   "Name": "Первомайский",
   "Accuracy": 4,
   "LatLong": "50.8778,81.9292"
  },
  {
   "Name": "Суслово",
   "Accuracy": 4,
   "LatLong": "52.6113,81.642"
  },
  {
   "Name": "Мамонтово",
   "Accuracy": 4,
   "LatLong": "52.7167,81.6167"
  },
  {
   "Name": "Мамонтово 1",
   "Accuracy": 1,
   "LatLong": "52.8331,80.7545"
  },
  {
   "Name": "Черная Курья",
   "Accuracy": 4,
   "LatLong": "52.5529,81.508"
  },
  {
   "Name": "Крестьянка",
   "Accuracy": 4,
   "LatLong": "52.4293,81.5765"
  },
  {
   "Name": "Украинка",
   "Accuracy": 4,
   "LatLong": "53.6333,78.3167"
  },
  {
   "Name": "Островное",
   "Accuracy": 1,
   "LatLong": "52.8331,80.7545"
  },
  {
   "Name": "Малые Бутырки",
   "Accuracy": 4,
   "LatLong": "52.7296,81.6647"
  },
  {
   "Name": "Буканское",
   "Accuracy": 4,
   "LatLong": "52.7989,81.8059"
  },
  {
   "Name": "Кадниково",
   "Accuracy": 4,
   "LatLong": "52.8681,81.9278"
  },
  {
   "Name": "Покровка",
   "Accuracy": 4,
   "LatLong": "53.1333,80.4667"
  },
  {
   "Name": "Костин Лог",
   "Accuracy": 4,
   "LatLong": "52.6667,82.0167"
  },
  {
   "Name": "Травное",
   "Accuracy": 4,
   "LatLong": "54.2428,79.6136"
  },
  {
   "Name": "Тюменцево",
   "Accuracy": 4,
   "LatLong": "53.3333,81.5167"
  },
  {
   "Name": "Королевский",
   "Accuracy": 4,
   "LatLong": "53.1759,81.4565"
  },
  {
   "Name": "Вылково",
   "Accuracy": 4,
   "LatLong": "53.0813,81.4221"
  },
  {
   "Name": "Черемшанка",
   "Accuracy": 4,
   "LatLong": "53.2578,81.2531"
  },
  {
   "Name": "Андроново",
   "Accuracy": 4,
   "LatLong": "53.3191,81.1859"
  },
  {
   "Name": "Грязново",
   "Accuracy": 4,
   "LatLong": "53.3827,81.2681"
  },
  {
   "Name": "Шарчино",
   "Accuracy": 4,
   "LatLong": "53.1389,81.7508"
  },
  {
   "Name": "Урывка",
   "Accuracy": 4,
   "LatLong": "53.0425,81.7707"
  },
  {
   "Name": "Заводской",
   "Accuracy": 4,
   "LatLong": "53.3009,81.6515"
  },
  {
   "Name": "Вознесенский",
   "Accuracy": 4,
   "LatLong": "53.2133,81.7163"
  },
  {
   "Name": "Березовка",
   "Accuracy": 4,
   "LatLong": "52.41,82.25"
  },
  {
   "Name": "Мезенцево",
   "Accuracy": 4,
   "LatLong": "53.3586,81.6951"
  },
  {
   "Name": "Юдиха",
   "Accuracy": 4,
   "LatLong": "53.4308,81.9421"
  },
  {
   "Name": "Ключи",
   "Accuracy": 4,
   "LatLong": "52.6333,83.3667"
  },
  {
   "Name": "Карповский",
   "Accuracy": 4,
   "LatLong": "53.2097,81.6149"
  },
  {
   "Name": "Овечкино-Станция",
   "Accuracy": 1,
   "LatLong": "52.9934,81.2135"
  },
  {
   "Name": "Овечкино",
   "Accuracy": 4,
   "LatLong": "52.9934,81.2135"
  },
  {
   "Name": "Гилевка-Станция",
   "Accuracy": 1,
   "LatLong": "53.1648,80.5033"
  },
  {
   "Name": "Гилевка",
   "Accuracy": 4,
   "LatLong": "52.8623,81.1062"
  },
  {
   "Name": "Светлое",
   "Accuracy": 4,
   "LatLong": "54.1933,78.7136"
  },
  {
   "Name": "Краснодубровский",
   "Accuracy": 4,
   "LatLong": "52.9167,80.75"
  },
  {
   "Name": "Малиновский",
   "Accuracy": 4,
   "LatLong": "52.9667,80.8333"
  },
  {
   "Name": "Глубокое",
   "Accuracy": 4,
   "LatLong": "53,80.6667"
  },
  {
   "Name": "Харитоново",
   "Accuracy": 4,
   "LatLong": "53.05,80.95"
  },
  {
   "Name": "Завьялово",
   "Accuracy": 4,
   "LatLong": "52.8333,80.8667"
  },
  {
   "Name": "Гонохово",
   "Accuracy": 4,
   "LatLong": "52.9471,81.3012"
  },
  {
   "Name": "Чистоозерка",
   "Accuracy": 4,
   "LatLong": "52.7667,80.75"
  },
  {
   "Name": "Камышенка",
   "Accuracy": 4,
   "LatLong": "52.7167,80.5667"
  },
  {
   "Name": "Чернавка",
   "Accuracy": 4,
   "LatLong": "52.6667,80.6167"
  },
  {
   "Name": "Тумановский",
   "Accuracy": 4,
   "LatLong": "52.85,80.7333"
  },
  {
   "Name": "Гилев Лог",
   "Accuracy": 4,
   "LatLong": "52.771,81.0841"
  },
  {
   "Name": "Майский",
   "Accuracy": 4,
   "LatLong": "52.7667,81.3525"
  },
  {
   "Name": "Рассвет",
   "Accuracy": 4,
   "LatLong": "52.7361,81.4404"
  },
  {
   "Name": "Сидоровка",
   "Accuracy": 4,
   "LatLong": "52.55,80.75"
  },
  {
   "Name": "Тамбовский",
   "Accuracy": 4,
   "LatLong": "53.7167,80.8833"
  },
  {
   "Name": "Романово",
   "Accuracy": 4,
   "LatLong": "52.6167,81.2333"
  },
  {
   "Name": "Казанцево",
   "Accuracy": 4,
   "LatLong": "51.4,82.3667"
  },
  {
   "Name": "Гуселетово",
   "Accuracy": 4,
   "LatLong": "52.5574,81.3746"
  },
  {
   "Name": "Мормыши",
   "Accuracy": 4,
   "LatLong": "52.4547,81.2129"
  },
  {
   "Name": "Грановка",
   "Accuracy": 4,
   "LatLong": "52.4167,80.9667"
  },
  {
   "Name": "Закладное",
   "Accuracy": 4,
   "LatLong": "52.6,81"
  },
  {
   "Name": "Дубровино",
   "Accuracy": 4,
   "LatLong": "52.6833,80.9"
  },
  {
   "Name": "Леньки",
   "Accuracy": 4,
   "LatLong": "52.95,80.4333"
  },
  {
   "Name": "Леньки 1",
   "Accuracy": 1,
   "LatLong": "53.6,77.8222"
  },
  {
   "Name": "Алексеевка",
   "Accuracy": 4,
   "LatLong": "54.95,72.7"
  },
  {
   "Name": "Хорошавка",
   "Accuracy": 4,
   "LatLong": "52.9,80.3333"
  },
  {
   "Name": "Степное Озеро",
   "Accuracy": 1,
   "LatLong": "53.6,77.8222"
  },
  {
   "Name": "Яготино",
   "Accuracy": 4,
   "LatLong": "52.75,79.65"
  },
  {
   "Name": "Тельманский",
   "Accuracy": 4,
   "LatLong": "52.8167,79.5833"
  },
  {
   "Name": "Шимолино",
   "Accuracy": 4,
   "LatLong": "53,79.9833"
  },
  {
   "Name": "Нижний Кучук",
   "Accuracy": 1,
   "LatLong": "52.9147,80.9201"
  },
  {
   "Name": "Суворовка",
   "Accuracy": 4,
   "LatLong": "52.8167,80.1667"
  },
  {
   "Name": "Глядень-Первое",
   "Accuracy": 1,
   "LatLong": "52.9147,80.9201"
  },
  {
   "Name": "Орлеан",
   "Accuracy": 4,
   "LatLong": "52.6833,79.6667"
  },
  {
   "Name": "Дмитриевка",
   "Accuracy": 4,
   "LatLong": "54.4694,85.3242"
  },
  {
   "Name": "Николаевка",
   "Accuracy": 4,
   "LatLong": "51.8667,82.0667"
  },
  {
   "Name": "Благовещенка",
   "Accuracy": 4,
   "LatLong": "52.8333,79.8667"
  },
  {
   "Name": "Благовещенка 1",
   "Accuracy": 1,
   "LatLong": "53,79.9167"
  },
  {
   "Name": "Благовещенка 2",
   "Accuracy": 1,
   "LatLong": "53,79.9167"
  },
  {
   "Name": "Новокулундинка",
   "Accuracy": 1,
   "LatLong": "53,79.9167"
  },
  {
   "Name": "Мельниковка",
   "Accuracy": 4,
   "LatLong": "53.1667,79.9667"
  },
  {
   "Name": "Верх-Суетка",
   "Accuracy": 4,
   "LatLong": "53.3,80.0333"
  },
  {
   "Name": "Александровка",
   "Accuracy": 4,
   "LatLong": "52.71,78.7"
  },
  {
   "Name": "Боронск",
   "Accuracy": 1,
   "LatLong": "53.005,79.3667"
  },
  {
   "Name": "Им. Владимира Ильича",
   "Accuracy": 1,
   "LatLong": "53.005,79.3667"
  },
  {
   "Name": "Нижняя Суетка",
   "Accuracy": 1,
   "LatLong": "53.005,79.3667"
  },
  {
   "Name": "Камень-На-Оби",
   "Accuracy": 4,
   "LatLong": "53.7933,81.34"
  },
  {
   "Name": "Камень-На-Оби 1",
   "Accuracy": 1,
   "LatLong": "53.7933,81.34"
  },
  {
   "Name": "Камень-На-Оби 2",
   "Accuracy": 1,
   "LatLong": "53.7933,81.34"
  },
  {
   "Name": "Камень-На-Оби 3",
   "Accuracy": 1,
   "LatLong": "53.7933,81.34"
  },
  {
   "Name": "Камень-На-Оби 4",
   "Accuracy": 1,
   "LatLong": "53.7933,81.34"
  },
  {
   "Name": "Камень-На-Оби 5",
   "Accuracy": 1,
   "LatLong": "53.7933,81.34"
  },
  {
   "Name": "Камень-На-Оби 6",
   "Accuracy": 1,
   "LatLong": "53.7933,81.34"
  },
  {
   "Name": "Камень-На-Оби 7",
   "Accuracy": 1,
   "LatLong": "53.7933,81.34"
  },
  {
   "Name": "Камень-На-Оби 9",
   "Accuracy": 1,
   "LatLong": "53.7933,81.34"
  },
  {
   "Name": "Дресвянка",
   "Accuracy": 4,
   "LatLong": "53.8741,81.3391"
  },
  {
   "Name": "Столбово",
   "Accuracy": 4,
   "LatLong": "53.92,81.4708"
  },
  {
   "Name": "Верх-Аллак",
   "Accuracy": 4,
   "LatLong": "53.8921,81.663"
  },
  {
   "Name": "Аллак",
   "Accuracy": 4,
   "LatLong": "53.8015,81.5305"
  },
  {
   "Name": "Рыбное",
   "Accuracy": 1,
   "LatLong": "56.252,84.3486"
  },
  {
   "Name": "Гонохово",
   "Accuracy": 4,
   "LatLong": "53.6478,81.5497"
  },
  {
   "Name": "Обское",
   "Accuracy": 4,
   "LatLong": "57.7333,83.3833"
  },
  {
   "Name": "Луговое",
   "Accuracy": 4,
   "LatLong": "57.375,88.1128"
  },
  {
   "Name": "Октябрьский",
   "Accuracy": 4,
   "LatLong": "55.9392,76.1314"
  },
  {
   "Name": "Толстовский",
   "Accuracy": 4,
   "LatLong": "53.685,80.9308"
  },
  {
   "Name": "Новоярки",
   "Accuracy": 4,
   "LatLong": "53.5978,80.8708"
  },
  {
   "Name": "Филипповский",
   "Accuracy": 4,
   "LatLong": "53.6333,80.6667"
  },
  {
   "Name": "Поперечное",
   "Accuracy": 4,
   "LatLong": "53.5667,80.7833"
  },
  {
   "Name": "Корнилово",
   "Accuracy": 4,
   "LatLong": "53.525,81.0664"
  },
  {
   "Name": "Ветренотелеутское",
   "Accuracy": 4,
   "LatLong": "53.4614,81.1764"
  },
  {
   "Name": "Боровое",
   "Accuracy": 4,
   "LatLong": "54.0299,81.1839"
  },
  {
   "Name": "Долганка",
   "Accuracy": 4,
   "LatLong": "54.1316,81.0399"
  },
  {
   "Name": "Маловолчанка",
   "Accuracy": 4,
   "LatLong": "54.0769,80.9092"
  },
  {
   "Name": "Заковряшино",
   "Accuracy": 4,
   "LatLong": "53.8953,81.1948"
  },
  {
   "Name": "Подборный",
   "Accuracy": 4,
   "LatLong": "54.0049,81.0021"
  },
  {
   "Name": "Прыганка",
   "Accuracy": 4,
   "LatLong": "53.9647,80.7997"
  },
  {
   "Name": "Волчно-Бурлинское",
   "Accuracy": 4,
   "LatLong": "54.0586,80.7822"
  },
  {
   "Name": "Буян",
   "Accuracy": 4,
   "LatLong": "53.8201,81.011"
  },
  {
   "Name": "Крутиха",
   "Accuracy": 4,
   "LatLong": "53.9642,81.2014"
  },
  {
   "Name": "Панкрушиха",
   "Accuracy": 4,
   "LatLong": "53.8319,80.3406"
  },
  {
   "Name": "Романово",
   "Accuracy": 4,
   "LatLong": "53.9725,80.5019"
  },
  {
   "Name": "Подойниково",
   "Accuracy": 4,
   "LatLong": "53.8658,80.4686"
  },
  {
   "Name": "Высокая Грива",
   "Accuracy": 4,
   "LatLong": "53.9333,80.65"
  },
  {
   "Name": "Световская",
   "Accuracy": 1,
   "LatLong": "53.8725,80.4115"
  },
  {
   "Name": "Ленский",
   "Accuracy": 4,
   "LatLong": "54.0167,80.1333"
  },
  {
   "Name": "Ганенок",
   "Accuracy": 4,
   "LatLong": "53.5667,80.5167"
  },
  {
   "Name": "Луковка",
   "Accuracy": 4,
   "LatLong": "53.9206,80.2697"
  },
  {
   "Name": "Панкрушиха-Станция",
   "Accuracy": 1,
   "LatLong": "53.3877,80.2427"
  },
  {
   "Name": "Велижанка",
   "Accuracy": 4,
   "LatLong": "53.8694,80.1581"
  },
  {
   "Name": "Зыково",
   "Accuracy": 4,
   "LatLong": "53.8167,80.1"
  },
  {
   "Name": "Урываево",
   "Accuracy": 4,
   "LatLong": "53.7944,79.9389"
  },
  {
   "Name": "Кривое",
   "Accuracy": 4,
   "LatLong": "53.6875,80.1472"
  },
  {
   "Name": "Зятьково",
   "Accuracy": 4,
   "LatLong": "53.6,80.3333"
  },
  {
   "Name": "Борисовка",
   "Accuracy": 4,
   "LatLong": "51.5583,80.7789"
  },
  {
   "Name": "Хабары",
   "Accuracy": 4,
   "LatLong": "53.6378,79.5278"
  },
  {
   "Name": "Новоильинка",
   "Accuracy": 4,
   "LatLong": "53.5833,79.3167"
  },
  {
   "Name": "Пионер Труда",
   "Accuracy": 4,
   "LatLong": "53.55,79.1"
  },
  {
   "Name": "Топольное",
   "Accuracy": 4,
   "LatLong": "53.5667,78.8667"
  },
  {
   "Name": "Усть-Курья",
   "Accuracy": 4,
   "LatLong": "53.6667,79.7333"
  },
  {
   "Name": "Утянка",
   "Accuracy": 4,
   "LatLong": "53.6069,79.4622"
  },
  {
   "Name": "Мартовка",
   "Accuracy": 4,
   "LatLong": "53.4667,79.5167"
  },
  {
   "Name": "Свердловское",
   "Accuracy": 4,
   "LatLong": "53.3333,79.6667"
  },
  {
   "Name": "Новоплотава",
   "Accuracy": 4,
   "LatLong": "53.5167,79.75"
  },
  {
   "Name": "Мичуринское",
   "Accuracy": 4,
   "LatLong": "53.4833,79.75"
  },
  {
   "Name": "Зятькова Речка",
   "Accuracy": 1,
   "LatLong": "53.4217,79.8438"
  },
  {
   "Name": "Плесо-Курья",
   "Accuracy": 4,
   "LatLong": "53.6378,79.9097"
  },
  {
   "Name": "Богатское",
   "Accuracy": 4,
   "LatLong": "53.45,79.05"
  },
  {
   "Name": "Рассвет",
   "Accuracy": 4,
   "LatLong": "52.7361,81.4404"
  },
  {
   "Name": "Коротояк",
   "Accuracy": 4,
   "LatLong": "53.75,79.6667"
  },
  {
   "Name": "Новосельское",
   "Accuracy": 4,
   "LatLong": "52.0333,82.55"
  },
  {
   "Name": "Михайловка",
   "Accuracy": 4,
   "LatLong": "54.5669,78.5556"
  },
  {
   "Name": "Орехово",
   "Accuracy": 4,
   "LatLong": "53.15,78.2"
  },
  {
   "Name": "Бурла",
   "Accuracy": 4,
   "LatLong": "53.3333,78.3333"
  },
  {
   "Name": "Новоандреевка",
   "Accuracy": 4,
   "LatLong": "53.05,78.3833"
  },
  {
   "Name": "Новопесчаное",
   "Accuracy": 4,
   "LatLong": "53.4167,78.5167"
  },
  {
   "Name": "Устьянка",
   "Accuracy": 4,
   "LatLong": "53.45,78.7333"
  },
  {
   "Name": "Асямовка",
   "Accuracy": 4,
   "LatLong": "53.28,78.46"
  },
  {
   "Name": "Лесное",
   "Accuracy": 4,
   "LatLong": "53.35,79.1333"
  },
  {
   "Name": "Первомайское",
   "Accuracy": 4,
   "LatLong": "53.7211,84.0183"
  },
  {
   "Name": "Славгород",
   "Accuracy": 4,
   "LatLong": "53,78.6667"
  },
  {
   "Name": "Славгород 1",
   "Accuracy": 1,
   "LatLong": "53,78.6667"
  },
  {
   "Name": "Славгород 2",
   "Accuracy": 1,
   "LatLong": "53,78.6667"
  },
  {
   "Name": "Славгород 3",
   "Accuracy": 1,
   "LatLong": "53,78.6667"
  },
  {
   "Name": "Славгород 4",
   "Accuracy": 1,
   "LatLong": "53,78.6667"
  },
  {
   "Name": "Славгород 5",
   "Accuracy": 1,
   "LatLong": "53,78.6667"
  },
  {
   "Name": "Славгород 6",
   "Accuracy": 1,
   "LatLong": "53,78.6667"
  },
  {
   "Name": "Славгород 8",
   "Accuracy": 1,
   "LatLong": "53,78.6667"
  },
  {
   "Name": "Славгород 9",
   "Accuracy": 1,
   "LatLong": "53,78.6667"
  },
  {
   "Name": "Баласный Карьер",
   "Accuracy": 1,
   "LatLong": "53.0417,78.5167"
  },
  {
   "Name": "Бурсоль",
   "Accuracy": 4,
   "LatLong": "53.1833,78.45"
  },
  {
   "Name": "Яровое",
   "Accuracy": 4,
   "LatLong": "52.9,78.5833"
  },
  {
   "Name": "Яровое 2",
   "Accuracy": 1,
   "LatLong": "53.0417,78.5167"
  },
  {
   "Name": "Покровка",
   "Accuracy": 4,
   "LatLong": "53.1333,80.4667"
  },
  {
   "Name": "Семеновка",
   "Accuracy": 4,
   "LatLong": "53.1,79"
  },
  {
   "Name": "Нововознесенка",
   "Accuracy": 4,
   "LatLong": "53.15,79.2"
  },
  {
   "Name": "Им. Д. Бедного",
   "Accuracy": 1,
   "LatLong": "53.1528,79.4222"
  },
  {
   "Name": "Знаменка",
   "Accuracy": 4,
   "LatLong": "53.1667,79.5"
  },
  {
   "Name": "Пановка",
   "Accuracy": 4,
   "LatLong": "53.2833,79.6"
  },
  {
   "Name": "Селекционное",
   "Accuracy": 1,
   "LatLong": "53.1528,79.4222"
  },
  {
   "Name": "Максимовка",
   "Accuracy": 4,
   "LatLong": "53.0833,78.7667"
  },
  {
   "Name": "Алтайское",
   "Accuracy": 4,
   "LatLong": "52.8,78.76"
  },
  {
   "Name": "Лебедино",
   "Accuracy": 1,
   "LatLong": "52.8,78.76"
  },
  {
   "Name": "Табуны",
   "Accuracy": 4,
   "LatLong": "52.7667,78.75"
  },
  {
   "Name": "Новокиевка",
   "Accuracy": 4,
   "LatLong": "52.7333,78.7167"
  },
  {
   "Name": "Камышенка",
   "Accuracy": 4,
   "LatLong": "53.35,78.7667"
  },
  {
   "Name": "Сереброполь",
   "Accuracy": 4,
   "LatLong": "52.8833,79.2333"
  },
  {
   "Name": "Николаевка",
   "Accuracy": 4,
   "LatLong": "51.8667,82.0667"
  },
  {
   "Name": "Большеромановка",
   "Accuracy": 4,
   "LatLong": "53,78.8667"
  },
  {
   "Name": "Гальбштадт",
   "Accuracy": 1,
   "LatLong": "53.0722,79.4861"
  },
  {
   "Name": "Кусак",
   "Accuracy": 1,
   "LatLong": "53.0722,79.4861"
  },
  {
   "Name": "Редкая Дубрава",
   "Accuracy": 4,
   "LatLong": "53.3167,79.0333"
  },
  {
   "Name": "Шумановка",
   "Accuracy": 4,
   "LatLong": "53.2667,78.9333"
  },
  {
   "Name": "Подсосново",
   "Accuracy": 4,
   "LatLong": "53.3833,78.9167"
  },
  {
   "Name": "Камыши",
   "Accuracy": 4,
   "LatLong": "53.35,78.7667"
  },
  {
   "Name": "Николаевка",
   "Accuracy": 4,
   "LatLong": "51.8667,82.0667"
  },
  {
   "Name": "Красноармейский",
   "Accuracy": 4,
   "LatLong": "53.25,79.2"
  },
  {
   "Name": "Гришковка",
   "Accuracy": 4,
   "LatLong": "53.1333,78.75"
  },
  {
   "Name": "Дегтярка",
   "Accuracy": 4,
   "LatLong": "53.35,79.35"
  },
  {
   "Name": "Орлово",
   "Accuracy": 4,
   "LatLong": "53.3167,79.25"
  },
  {
   "Name": "Полевое",
   "Accuracy": 1,
   "LatLong": "53.3083,79.1292"
  },
  {
   "Name": "Протасово",
   "Accuracy": 4,
   "LatLong": "53.4333,79.1667"
  },
  {
   "Name": "Виноградовка",
   "Accuracy": 4,
   "LatLong": "55.2,73.9"
  },
  {
   "Name": "Курск",
   "Accuracy": 1,
   "LatLong": "55.2526,71.5721"
  },
  {
   "Name": "Попасное",
   "Accuracy": 1,
   "LatLong": "55.2526,71.5721"
  },
  {
   "Name": "Троицк",
   "Accuracy": 4,
   "LatLong": "56.4667,71.2333"
  },
  {
   "Name": "Константиновка",
   "Accuracy": 4,
   "LatLong": "55.2167,71.7"
  },
  {
   "Name": "Воздвиженка",
   "Accuracy": 4,
   "LatLong": "54.7628,66.5106"
  },
  {
   "Name": "Златополь",
   "Accuracy": 1,
   "LatLong": "55.2526,71.5721"
  },
  {
   "Name": "Ананьевка",
   "Accuracy": 1,
   "LatLong": "55.2526,71.5721"
  },
  {
   "Name": "Семеновка",
   "Accuracy": 4,
   "LatLong": "54.6167,74.5167"
  },
  {
   "Name": "Мирабилит",
   "Accuracy": 1,
   "LatLong": "55.9392,76.1314"
  },
  {
   "Name": "Октябрьский",
   "Accuracy": 4,
   "LatLong": "55.9392,76.1314"
  },
  {
   "Name": "Кулунда",
   "Accuracy": 4,
   "LatLong": "52.5833,78.95"
  },
  {
   "Name": "Кулунда 1",
   "Accuracy": 1,
   "LatLong": "52.5833,78.95"
  },
  {
   "Name": "Кулунда 2",
   "Accuracy": 1,
   "LatLong": "52.5833,78.95"
  },
  {
   "Name": "Кулунда 3",
   "Accuracy": 1,
   "LatLong": "52.5833,78.95"
  },
  {
   "Name": "Кулунда 4",
   "Accuracy": 1,
   "LatLong": "52.5833,78.95"
  },
  {
   "Name": "Волчиха",
   "Accuracy": 4,
   "LatLong": "52.0333,80.3833"
  },
  {
   "Name": "Волчиха 1",
   "Accuracy": 1,
   "LatLong": "52.0333,80.3833"
  },
  {
   "Name": "Волчиха 2",
   "Accuracy": 1,
   "LatLong": "52.0333,80.3833"
  },
  {
   "Name": "Волчиха 3",
   "Accuracy": 1,
   "LatLong": "52.0333,80.3833"
  },
  {
   "Name": "Березовский",
   "Accuracy": 4,
   "LatLong": "52.06,80.13"
  },
  {
   "Name": "Новокормиха",
   "Accuracy": 4,
   "LatLong": "52.1667,80.0833"
  },
  {
   "Name": "Коминтерн",
   "Accuracy": 4,
   "LatLong": "52.1667,80.2"
  },
  {
   "Name": "Пятков Лог",
   "Accuracy": 4,
   "LatLong": "52.2333,80.3167"
  },
  {
   "Name": "Усть-Волчиха",
   "Accuracy": 4,
   "LatLong": "51.8949,80.2541"
  },
  {
   "Name": "Усть-Кормиха",
   "Accuracy": 4,
   "LatLong": "51.8262,80.3563"
  },
  {
   "Name": "Бор-Форпост",
   "Accuracy": 4,
   "LatLong": "51.875,80.1137"
  },
  {
   "Name": "Правда",
   "Accuracy": 4,
   "LatLong": "52.0833,80.5"
  },
  {
   "Name": "Вострово",
   "Accuracy": 4,
   "LatLong": "52.15,80.6333"
  },
  {
   "Name": "Солоновка",
   "Accuracy": 4,
   "LatLong": "52.2333,80.7667"
  },
  {
   "Name": "Малышев Лог",
   "Accuracy": 4,
   "LatLong": "52.1667,80.9167"
  },
  {
   "Name": "Селиверстово",
   "Accuracy": 4,
   "LatLong": "52.3,80.9667"
  },
  {
   "Name": "Приборовое",
   "Accuracy": 1,
   "LatLong": "52.1867,80.7567"
  },
  {
   "Name": "Михайловское",
   "Accuracy": 1,
   "LatLong": "52.9244,77.3398"
  },
  {
   "Name": "Михайловское 1",
   "Accuracy": 1,
   "LatLong": "52.9244,77.3398"
  },
  {
   "Name": "Михайловское 2",
   "Accuracy": 1,
   "LatLong": "52.9244,77.3398"
  },
  {
   "Name": "Назаровка",
   "Accuracy": 4,
   "LatLong": "54.1833,73.4333"
  },
  {
   "Name": "Полуямки",
   "Accuracy": 4,
   "LatLong": "52.0833,79.6667"
  },
  {
   "Name": "Ащегуль",
   "Accuracy": 4,
   "LatLong": "52.13,79.8"
  },
  {
   "Name": "Ракиты",
   "Accuracy": 4,
   "LatLong": "54.55,74.0167"
  },
  {
   "Name": "Малиновое Озеро",
   "Accuracy": 4,
   "LatLong": "51.6753,79.7825"
  },
  {
   "Name": "Бастан",
   "Accuracy": 4,
   "LatLong": "51.85,79.47"
  },
  {
   "Name": "Николаевка",
   "Accuracy": 4,
   "LatLong": "51.8667,82.0667"
  },
  {
   "Name": "Неводное",
   "Accuracy": 4,
   "LatLong": "51.9594,79.2275"
  },
  {
   "Name": "Ключи",
   "Accuracy": 4,
   "LatLong": "52.2667,79.1667"
  },
  {
   "Name": "Покровка",
   "Accuracy": 4,
   "LatLong": "53.1333,80.4667"
  },
  {
   "Name": "Васильчуки",
   "Accuracy": 4,
   "LatLong": "52.2833,78.9667"
  },
  {
   "Name": "Платовка",
   "Accuracy": 4,
   "LatLong": "52.35,79.0667"
  },
  {
   "Name": "Северка",
   "Accuracy": 4,
   "LatLong": "52.1333,79.2833"
  },
  {
   "Name": "Истимис",
   "Accuracy": 4,
   "LatLong": "52.3667,79.2833"
  },
  {
   "Name": "Новополтава",
   "Accuracy": 4,
   "LatLong": "52.4167,79.3333"
  },
  {
   "Name": "Зеленая Поляна",
   "Accuracy": 4,
   "LatLong": "52.4,79.6167"
  },
  {
   "Name": "Целинный",
   "Accuracy": 4,
   "LatLong": "52.2333,79.2167"
  },
  {
   "Name": "Петухи",
   "Accuracy": 4,
   "LatLong": "52.2333,79.5333"
  },
  {
   "Name": "Каип",
   "Accuracy": 4,
   "LatLong": "52.25,79.7667"
  },
  {
   "Name": "Западный Угол",
   "Accuracy": 1,
   "LatLong": "52.331,79.5024"
  },
  {
   "Name": "Марковка",
   "Accuracy": 4,
   "LatLong": "52.4167,79.7667"
  },
  {
   "Name": "Павловск",
   "Accuracy": 4,
   "LatLong": "53.3186,82.9822"
  },
  {
   "Name": "Павловск 1",
   "Accuracy": 1,
   "LatLong": "53.5753,82.2087"
  },
  {
   "Name": "Комсомольский",
   "Accuracy": 4,
   "LatLong": "55.5447,78.3433"
  },
  {
   "Name": "Стуково",
   "Accuracy": 4,
   "LatLong": "53.2128,83.3378"
  },
  {
   "Name": "Арбузовка",
   "Accuracy": 4,
   "LatLong": "53.09,82.91"
  },
  {
   "Name": "Колыванское",
   "Accuracy": 4,
   "LatLong": "53.0325,82.8936"
  },
  {
   "Name": "Рогозиха",
   "Accuracy": 4,
   "LatLong": "53.2531,82.785"
  },
  {
   "Name": "Новые Зори",
   "Accuracy": 4,
   "LatLong": "53.2478,83.425"
  },
  {
   "Name": "Лебяжье",
   "Accuracy": 4,
   "LatLong": "53.2436,83.6533"
  },
  {
   "Name": "Жуковка",
   "Accuracy": 4,
   "LatLong": "53.2069,82.9833"
  },
  {
   "Name": "Чернопятово",
   "Accuracy": 4,
   "LatLong": "53.3919,83.1714"
  },
  {
   "Name": "Прутской",
   "Accuracy": 1,
   "LatLong": "53.3137,83.1468"
  },
  {
   "Name": "Шахи",
   "Accuracy": 4,
   "LatLong": "53.3344,83.3631"
  },
  {
   "Name": "Боровиково",
   "Accuracy": 4,
   "LatLong": "53.4097,82.8489"
  },
  {
   "Name": "Елунино",
   "Accuracy": 4,
   "LatLong": "53.4381,82.9961"
  },
  {
   "Name": "Бурановка",
   "Accuracy": 4,
   "LatLong": "53.2369,82.7331"
  },
  {
   "Name": "Черемное",
   "Accuracy": 4,
   "LatLong": "53.1697,83.2133"
  },
  {
   "Name": "Черемное 1",
   "Accuracy": 1,
   "LatLong": "53.1697,83.2133"
  },
  {
   "Name": "Сибирские Огни",
   "Accuracy": 1,
   "LatLong": "53.1697,83.2133"
  },
  {
   "Name": "Новороманово",
   "Accuracy": 4,
   "LatLong": "53.0886,83.3633"
  },
  {
   "Name": "Калистратиха",
   "Accuracy": 4,
   "LatLong": "52.9833,83.5867"
  },
  {
   "Name": "Бураново",
   "Accuracy": 4,
   "LatLong": "53.0481,83.6086"
  },
  {
   "Name": "Шадрино",
   "Accuracy": 4,
   "LatLong": "53.1164,83.6314"
  },
  {
   "Name": "Усть-Алейка",
   "Accuracy": 1,
   "LatLong": "53.0551,83.4791"
  },
  {
   "Name": "Кубанка",
   "Accuracy": 4,
   "LatLong": "52.8167,83.35"
  },
  {
   "Name": "Зимари",
   "Accuracy": 4,
   "LatLong": "53.1844,83.4575"
  },
  {
   "Name": "Панфилово",
   "Accuracy": 4,
   "LatLong": "53.1483,83.3564"
  },
  {
   "Name": "Калманка",
   "Accuracy": 4,
   "LatLong": "52.8992,83.5433"
  },
  {
   "Name": "Калманка 1",
   "Accuracy": 1,
   "LatLong": "53.076,85.4217"
  },
  {
   "Name": "Алтай",
   "Accuracy": 4,
   "LatLong": "53.45,91.8"
  },
  {
   "Name": "Шилово",
   "Accuracy": 4,
   "LatLong": "52.9167,83.2667"
  },
  {
   "Name": "Новобарнаулка",
   "Accuracy": 4,
   "LatLong": "53.0383,83.0767"
  },
  {
   "Name": "Шелаболиха",
   "Accuracy": 4,
   "LatLong": "53.4108,82.6139"
  },
  {
   "Name": "Иня",
   "Accuracy": 1,
   "LatLong": "53.7052,83.4331"
  },
  {
   "Name": "Кучук",
   "Accuracy": 4,
   "LatLong": "53.4481,82.4653"
  },
  {
   "Name": "Батурово",
   "Accuracy": 4,
   "LatLong": "53.42,82.39"
  },
  {
   "Name": "Верх-Кучук",
   "Accuracy": 4,
   "LatLong": "53.3531,82.2356"
  },
  {
   "Name": "Ильинка",
   "Accuracy": 4,
   "LatLong": "55.2892,90.0314"
  },
  {
   "Name": "Омутское",
   "Accuracy": 4,
   "LatLong": "53.4853,82.2208"
  },
  {
   "Name": "Киприно",
   "Accuracy": 4,
   "LatLong": "53.5303,82.0744"
  },
  {
   "Name": "Новообинцево",
   "Accuracy": 4,
   "LatLong": "53.4128,82.6983"
  },
  {
   "Name": "Макарово",
   "Accuracy": 4,
   "LatLong": "53.2923,81.9917"
  },
  {
   "Name": "Крутишка",
   "Accuracy": 4,
   "LatLong": "53.464,81.8296"
  },
  {
   "Name": "Топчиха",
   "Accuracy": 4,
   "LatLong": "52.8211,83.1197"
  },
  {
   "Name": "Сидоровка",
   "Accuracy": 4,
   "LatLong": "52.55,80.75"
  },
  {
   "Name": "Фунтики",
   "Accuracy": 4,
   "LatLong": "52.7839,83.0261"
  },
  {
   "Name": "Парфеново",
   "Accuracy": 4,
   "LatLong": "52.81,82.7331"
  },
  {
   "Name": "Песчаное",
   "Accuracy": 4,
   "LatLong": "52.7833,82.5167"
  },
  {
   "Name": "Победим",
   "Accuracy": 4,
   "LatLong": "52.6644,82.9978"
  },
  {
   "Name": "Дружба",
   "Accuracy": 4,
   "LatLong": "52.5833,82.4667"
  },
  {
   "Name": "Лаврентьевка",
   "Accuracy": 4,
   "LatLong": "52.8667,82.9167"
  },
  {
   "Name": "Хабазино",
   "Accuracy": 4,
   "LatLong": "52.75,83.3833"
  },
  {
   "Name": "Красноярка",
   "Accuracy": 4,
   "LatLong": "52.75,83.4333"
  },
  {
   "Name": "Володарка",
   "Accuracy": 4,
   "LatLong": "52.7158,83.6242"
  },
  {
   "Name": "Листвянка",
   "Accuracy": 4,
   "LatLong": "52.75,83.9667"
  },
  {
   "Name": "Покровка",
   "Accuracy": 4,
   "LatLong": "52.95,83.0167"
  },
  {
   "Name": "Ключи",
   "Accuracy": 4,
   "LatLong": "52.6333,83.3667"
  },
  {
   "Name": "Кировский",
   "Accuracy": 4,
   "LatLong": "52.6,83.2"
  },
  {
   "Name": "Зимино",
   "Accuracy": 4,
   "LatLong": "52.9619,82.7039"
  },
  {
   "Name": "Чистюнька",
   "Accuracy": 4,
   "LatLong": "52.6778,83.2061"
  },
  {
   "Name": "Белояровка",
   "Accuracy": 1,
   "LatLong": "52.7543,83.3223"
  },
  {
   "Name": "Переяславка",
   "Accuracy": 1,
   "LatLong": "52.8648,85.155"
  },
  {
   "Name": "Макарьевка",
   "Accuracy": 4,
   "LatLong": "52.9922,86.5438"
  },
  {
   "Name": "Чаузово",
   "Accuracy": 4,
   "LatLong": "52.7375,83.7661"
  },
  {
   "Name": "Заринск",
   "Accuracy": 4,
   "LatLong": "53.7275,84.93"
  },
  {
   "Name": "Заринск 1",
   "Accuracy": 1,
   "LatLong": "53.7275,84.93"
  },
  {
   "Name": "Заринск 2",
   "Accuracy": 1,
   "LatLong": "53.7275,84.93"
  },
  {
   "Name": "Заринск 3",
   "Accuracy": 1,
   "LatLong": "53.7275,84.93"
  },
  {
   "Name": "Заринск 4",
   "Accuracy": 1,
   "LatLong": "53.7275,84.93"
  },
  {
   "Name": "Заринск 6",
   "Accuracy": 1,
   "LatLong": "53.7275,84.93"
  },
  {
   "Name": "Заринск 7",
   "Accuracy": 1,
   "LatLong": "53.7275,84.93"
  },
  {
   "Name": "Новозыряново",
   "Accuracy": 4,
   "LatLong": "53.8103,84.9028"
  },
  {
   "Name": "Воскресенка",
   "Accuracy": 4,
   "LatLong": "53.9131,85.0028"
  },
  {
   "Name": "Шпагино-Станция",
   "Accuracy": 1,
   "LatLong": "53.7026,84.8202"
  },
  {
   "Name": "Новоманошкино",
   "Accuracy": 4,
   "LatLong": "53.6192,84.4897"
  },
  {
   "Name": "Стародраченино",
   "Accuracy": 4,
   "LatLong": "53.7,85.0833"
  },
  {
   "Name": "Комарское",
   "Accuracy": 4,
   "LatLong": "53.6333,85.1167"
  },
  {
   "Name": "Гоношиха",
   "Accuracy": 4,
   "LatLong": "53.7683,84.8056"
  },
  {
   "Name": "Среднекрасилово",
   "Accuracy": 4,
   "LatLong": "53.7922,84.6056"
  },
  {
   "Name": "Верх-Камышенка",
   "Accuracy": 4,
   "LatLong": "53.595,84.8056"
  },
  {
   "Name": "Гришино",
   "Accuracy": 4,
   "LatLong": "53.585,84.9136"
  },
  {
   "Name": "Новокопылово",
   "Accuracy": 4,
   "LatLong": "53.6708,84.7433"
  },
  {
   "Name": "Тягун-Станция",
   "Accuracy": 1,
   "LatLong": "53.6169,84.8208"
  },
  {
   "Name": "Смазнево",
   "Accuracy": 4,
   "LatLong": "53.8333,85.2"
  },
  {
   "Name": "Яново",
   "Accuracy": 4,
   "LatLong": "53.9,85.25"
  },
  {
   "Name": "Хмелевка",
   "Accuracy": 4,
   "LatLong": "53.95,85.2"
  },
  {
   "Name": "Новодраченино",
   "Accuracy": 4,
   "LatLong": "53.8,85.15"
  },
  {
   "Name": "Голуха",
   "Accuracy": 1,
   "LatLong": "53.8208,85.8567"
  },
  {
   "Name": "Сосновка",
   "Accuracy": 4,
   "LatLong": "53.6667,87.15"
  },
  {
   "Name": "Зыряновка",
   "Accuracy": 4,
   "LatLong": "53.7833,85.4167"
  },
  {
   "Name": "Жуланиха",
   "Accuracy": 4,
   "LatLong": "53.7833,85.5"
  },
  {
   "Name": "Аламбай",
   "Accuracy": 4,
   "LatLong": "54.05,85.36"
  },
  {
   "Name": "Залесово",
   "Accuracy": 4,
   "LatLong": "53.9939,84.7431"
  },
  {
   "Name": "Залесово 1",
   "Accuracy": 1,
   "LatLong": "53.9776,84.4159"
  },
  {
   "Name": "Думчево",
   "Accuracy": 4,
   "LatLong": "53.955,84.2978"
  },
  {
   "Name": "Тундриха",
   "Accuracy": 4,
   "LatLong": "53.9917,84.5411"
  },
  {
   "Name": "Черемушкино",
   "Accuracy": 4,
   "LatLong": "54.0106,84.2858"
  },
  {
   "Name": "Видоново",
   "Accuracy": 4,
   "LatLong": "53.9783,84.0564"
  },
  {
   "Name": "Большой Калтай",
   "Accuracy": 1,
   "LatLong": "53.9776,84.4159"
  },
  {
   "Name": "Заплывино",
   "Accuracy": 4,
   "LatLong": "53.9361,84.5714"
  },
  {
   "Name": "Пещерка",
   "Accuracy": 4,
   "LatLong": "54.0947,84.7733"
  },
  {
   "Name": "Гуниха",
   "Accuracy": 4,
   "LatLong": "54.2003,84.6489"
  },
  {
   "Name": "Шатуново",
   "Accuracy": 4,
   "LatLong": "53.9003,84.5356"
  },
  {
   "Name": "Муравей",
   "Accuracy": 4,
   "LatLong": "53.8947,84.7269"
  },
  {
   "Name": "Кордон",
   "Accuracy": 4,
   "LatLong": "54.1847,84.9642"
  },
  {
   "Name": "Борисово",
   "Accuracy": 4,
   "LatLong": "54.0333,85"
  },
  {
   "Name": "Кытманово",
   "Accuracy": 4,
   "LatLong": "53.4667,85.4667"
  },
  {
   "Name": "Дмитро-Титово",
   "Accuracy": 4,
   "LatLong": "53.5833,85.2667"
  },
  {
   "Name": "Червово",
   "Accuracy": 4,
   "LatLong": "53.5,85.0167"
  },
  {
   "Name": "Заречное",
   "Accuracy": 4,
   "LatLong": "53.5833,85.3333"
  },
  {
   "Name": "Октябрьский",
   "Accuracy": 1,
   "LatLong": "53.5556,85.3472"
  },
  {
   "Name": "Отрадное",
   "Accuracy": 4,
   "LatLong": "53.6833,85.65"
  },
  {
   "Name": "Новоозерное",
   "Accuracy": 1,
   "LatLong": "53.5556,85.3472"
  },
  {
   "Name": "Петрушиха",
   "Accuracy": 4,
   "LatLong": "53.5167,85.35"
  },
  {
   "Name": "Тяхта",
   "Accuracy": 4,
   "LatLong": "53.55,85.4667"
  },
  {
   "Name": "Сунгай",
   "Accuracy": 4,
   "LatLong": "53.6667,85.55"
  },
  {
   "Name": "Семено-Красилово",
   "Accuracy": 4,
   "LatLong": "53.5667,85.5833"
  },
  {
   "Name": "Новохмелевка",
   "Accuracy": 4,
   "LatLong": "53.6167,85.6833"
  },
  {
   "Name": "Сосновый Лог",
   "Accuracy": 4,
   "LatLong": "53.3333,85.45"
  },
  {
   "Name": "Порошино",
   "Accuracy": 4,
   "LatLong": "53.2333,85.1667"
  },
  {
   "Name": "Старая Тараба",
   "Accuracy": 1,
   "LatLong": "53.4619,85.4548"
  },
  {
   "Name": "Черкасово",
   "Accuracy": 4,
   "LatLong": "53.2667,85.2833"
  },
  {
   "Name": "Новая Тараба",
   "Accuracy": 1,
   "LatLong": "53.7496,85.0164"
  },
  {
   "Name": "Бийск",
   "Accuracy": 4,
   "LatLong": "52.5667,85.25"
  },
  {
   "Name": "Бийск 1",
   "Accuracy": 1,
   "LatLong": "52.5667,85.25"
  },
  {
   "Name": "Бийск 2",
   "Accuracy": 1,
   "LatLong": "52.5667,85.25"
  },
  {
   "Name": "Бийск 3",
   "Accuracy": 1,
   "LatLong": "52.5667,85.25"
  },
  {
   "Name": "Бийск 4",
   "Accuracy": 1,
   "LatLong": "52.5667,85.25"
  },
  {
   "Name": "Бийск 5",
   "Accuracy": 1,
   "LatLong": "52.5667,85.25"
  },
  {
   "Name": "Бийск 6",
   "Accuracy": 1,
   "LatLong": "52.5667,85.25"
  },
  {
   "Name": "Бийск 8",
   "Accuracy": 1,
   "LatLong": "52.5667,85.25"
  },
  {
   "Name": "Бийск 9",
   "Accuracy": 1,
   "LatLong": "52.5667,85.25"
  },
  {
   "Name": "Бийск 11",
   "Accuracy": 1,
   "LatLong": "52.8882,85.4962"
  },
  {
   "Name": "Бийск 14",
   "Accuracy": 1,
   "LatLong": "52.8882,85.4962"
  },
  {
   "Name": "Бийск 15",
   "Accuracy": 1,
   "LatLong": "52.8882,85.4962"
  },
  {
   "Name": "Бийск 16",
   "Accuracy": 1,
   "LatLong": "52.8882,85.4962"
  },
  {
   "Name": "Бийск 18",
   "Accuracy": 1,
   "LatLong": "52.8882,85.4962"
  },
  {
   "Name": "Бийск 19",
   "Accuracy": 1,
   "LatLong": "52.8882,85.4962"
  },
  {
   "Name": "Бийск 20",
   "Accuracy": 1,
   "LatLong": "52.8882,85.4962"
  },
  {
   "Name": "Бийск 21",
   "Accuracy": 1,
   "LatLong": "52.8882,85.4962"
  },
  {
   "Name": "Бийск 22",
   "Accuracy": 1,
   "LatLong": "52.8882,85.4962"
  },
  {
   "Name": "Бийск 23",
   "Accuracy": 1,
   "LatLong": "52.8882,85.4962"
  },
  {
   "Name": "Бийск 25",
   "Accuracy": 1,
   "LatLong": "52.8882,85.4962"
  },
  {
   "Name": "Бийск 26",
   "Accuracy": 1,
   "LatLong": "52.8882,85.4962"
  },
  {
   "Name": "Бийск 28",
   "Accuracy": 1,
   "LatLong": "52.8882,85.4962"
  },
  {
   "Name": "Бийск 29",
   "Accuracy": 1,
   "LatLong": "52.8882,85.4962"
  },
  {
   "Name": "Бийск 30",
   "Accuracy": 1,
   "LatLong": "52.8882,85.4962"
  },
  {
   "Name": "Бийск 32",
   "Accuracy": 1,
   "LatLong": "52.8882,85.4962"
  },
  {
   "Name": "Бийск 33",
   "Accuracy": 1,
   "LatLong": "52.8882,85.4962"
  },
  {
   "Name": "Бийск 34",
   "Accuracy": 1,
   "LatLong": "52.8882,85.4962"
  },
  {
   "Name": "Бийск 35",
   "Accuracy": 1,
   "LatLong": "52.8882,85.4962"
  },
  {
   "Name": "Бийск 36",
   "Accuracy": 1,
   "LatLong": "52.8882,85.4962"
  },
  {
   "Name": "Нагорный",
   "Accuracy": 4,
   "LatLong": "52.8,83.55"
  },
  {
   "Name": "Енисейское",
   "Accuracy": 4,
   "LatLong": "52.58,85.5206"
  },
  {
   "Name": "Старая Чемровка",
   "Accuracy": 1,
   "LatLong": "52.6229,85.685"
  },
  {
   "Name": "Стан-Бехтемир",
   "Accuracy": 4,
   "LatLong": "52.6092,85.6286"
  },
  {
   "Name": "Большеугренево",
   "Accuracy": 4,
   "LatLong": "52.6067,85.7533"
  },
  {
   "Name": "Малоугренево",
   "Accuracy": 4,
   "LatLong": "52.5564,85.3414"
  },
  {
   "Name": "Верх-Бехтемир",
   "Accuracy": 4,
   "LatLong": "52.7653,85.9064"
  },
  {
   "Name": "Новиково",
   "Accuracy": 4,
   "LatLong": "52.62,85.9594"
  },
  {
   "Name": "Шебалино",
   "Accuracy": 4,
   "LatLong": "52.7161,85.7872"
  },
  {
   "Name": "Шебалино 1",
   "Accuracy": 1,
   "LatLong": "53.7337,85.8221"
  },
  {
   "Name": "Первомайское",
   "Accuracy": 4,
   "LatLong": "53.7211,84.0183"
  },
  {
   "Name": "Усть-Катунь",
   "Accuracy": 4,
   "LatLong": "52.4564,85.1653"
  },
  {
   "Name": "Заря",
   "Accuracy": 4,
   "LatLong": "56.0411,88.3175"
  },
  {
   "Name": "Фоминское",
   "Accuracy": 1,
   "LatLong": "53.7337,85.8221"
  },
  {
   "Name": "Малоенисейское",
   "Accuracy": 4,
   "LatLong": "52.5761,85.5047"
  },
  {
   "Name": "Светлоозерское",
   "Accuracy": 1,
   "LatLong": "52.5145,85.5522"
  },
  {
   "Name": "Ключи",
   "Accuracy": 4,
   "LatLong": "52.5919,85.6469"
  },
  {
   "Name": "Усятское",
   "Accuracy": 4,
   "LatLong": "52.5672,85.7583"
  },
  {
   "Name": "Верх-Катунское",
   "Accuracy": 4,
   "LatLong": "52.4494,85.4317"
  },
  {
   "Name": "Сростки",
   "Accuracy": 4,
   "LatLong": "52.4333,85.7167"
  },
  {
   "Name": "Лесное",
   "Accuracy": 4,
   "LatLong": "52.4692,85.255"
  },
  {
   "Name": "Сорокино",
   "Accuracy": 4,
   "LatLong": "53.75,84.9167"
  },
  {
   "Name": "Зональное",
   "Accuracy": 1,
   "LatLong": "52.6093,85.864"
  },
  {
   "Name": "Буланиха",
   "Accuracy": 4,
   "LatLong": "52.7996,84.9314"
  },
  {
   "Name": "Буланиха 1",
   "Accuracy": 1,
   "LatLong": "52.6093,85.864"
  },
  {
   "Name": "Плешково",
   "Accuracy": 4,
   "LatLong": "52.4191,86.7967"
  },
  {
   "Name": "Шубенка",
   "Accuracy": 4,
   "LatLong": "52.6544,85.1006"
  },
  {
   "Name": "Октябрьский",
   "Accuracy": 1,
   "LatLong": "53.3081,84.4747"
  },
  {
   "Name": "Луговское",
   "Accuracy": 4,
   "LatLong": "52.7617,85.1692"
  },
  {
   "Name": "Мирный",
   "Accuracy": 4,
   "LatLong": "54.6167,85.9333"
  },
  {
   "Name": "Новая Чемровка",
   "Accuracy": 1,
   "LatLong": "53.3081,84.4747"
  },
  {
   "Name": "Савиново",
   "Accuracy": 4,
   "LatLong": "52.5138,84.8628"
  },
  {
   "Name": "Соколово",
   "Accuracy": 4,
   "LatLong": "53.994,81.3077"
  },
  {
   "Name": "Целинное",
   "Accuracy": 4,
   "LatLong": "53.0833,85.6667"
  },
  {
   "Name": "Сверчково",
   "Accuracy": 4,
   "LatLong": "52.7792,85.3597"
  },
  {
   "Name": "Верх-Яминское",
   "Accuracy": 4,
   "LatLong": "52.9928,85.8056"
  },
  {
   "Name": "Шалап",
   "Accuracy": 4,
   "LatLong": "53.1167,85.8167"
  },
  {
   "Name": "Степь-Чумыш",
   "Accuracy": 4,
   "LatLong": "53.1282,86.0155"
  },
  {
   "Name": "Овсянниково",
   "Accuracy": 1,
   "LatLong": "52.9765,85.759"
  },
  {
   "Name": "Поповичи",
   "Accuracy": 4,
   "LatLong": "53.0071,86.265"
  },
  {
   "Name": "Сухая Чемровка",
   "Accuracy": 4,
   "LatLong": "52.7283,85.3839"
  },
  {
   "Name": "Верх-Марушка",
   "Accuracy": 4,
   "LatLong": "52.9175,85.6311"
  },
  {
   "Name": "Марушка",
   "Accuracy": 4,
   "LatLong": "52.8742,85.4986"
  },
  {
   "Name": "Верх-Шубенка",
   "Accuracy": 4,
   "LatLong": "52.9489,85.3103"
  },
  {
   "Name": "Ложкино",
   "Accuracy": 4,
   "LatLong": "52.8328,85.4453"
  },
  {
   "Name": "Воеводское",
   "Accuracy": 4,
   "LatLong": "52.7883,85.6067"
  },
  {
   "Name": "Бочкари",
   "Accuracy": 4,
   "LatLong": "52.8883,85.7761"
  },
  {
   "Name": "Дружба",
   "Accuracy": 4,
   "LatLong": "52.5833,82.4667"
  },
  {
   "Name": "Хомутино",
   "Accuracy": 4,
   "LatLong": "53.1667,85.4167"
  },
  {
   "Name": "Еланда",
   "Accuracy": 4,
   "LatLong": "53.2,85.7"
  },
  {
   "Name": "Тогул",
   "Accuracy": 4,
   "LatLong": "53.4833,85.9167"
  },
  {
   "Name": "Шумиха",
   "Accuracy": 4,
   "LatLong": "53.6333,86"
  },
  {
   "Name": "Верх-Коптелка",
   "Accuracy": 4,
   "LatLong": "53.4446,86.1565"
  },
  {
   "Name": "Топтушка",
   "Accuracy": 4,
   "LatLong": "53.3757,86.098"
  },
  {
   "Name": "Старый Тогул",
   "Accuracy": 1,
   "LatLong": "53.4454,85.9737"
  },
  {
   "Name": "Уксунай",
   "Accuracy": 4,
   "LatLong": "53.4976,86.0147"
  },
  {
   "Name": "Антипино",
   "Accuracy": 4,
   "LatLong": "53.3,85.83"
  },
  {
   "Name": "Бураново",
   "Accuracy": 4,
   "LatLong": "53.3833,85.8"
  },
  {
   "Name": "Новоиушино",
   "Accuracy": 4,
   "LatLong": "53.6333,85.8333"
  },
  {
   "Name": "Титово",
   "Accuracy": 4,
   "LatLong": "53.4167,85.75"
  },
  {
   "Name": "Ельцовка",
   "Accuracy": 4,
   "LatLong": "53.0667,85.1167"
  },
  {
   "Name": "Пуштулим",
   "Accuracy": 4,
   "LatLong": "53.2034,86.4284"
  },
  {
   "Name": "Последниково",
   "Accuracy": 4,
   "LatLong": "53.1925,86.5686"
  },
  {
   "Name": "Верх-Неня",
   "Accuracy": 4,
   "LatLong": "53.0744,86.4262"
  },
  {
   "Name": "Мартыново",
   "Accuracy": 4,
   "LatLong": "53.2667,85.8833"
  },
  {
   "Name": "Новокаменка",
   "Accuracy": 4,
   "LatLong": "53.3588,86.3186"
  },
  {
   "Name": "Черемшанка",
   "Accuracy": 4,
   "LatLong": "53.1985,86.1527"
  },
  {
   "Name": "Красногорское",
   "Accuracy": 4,
   "LatLong": "52.3,86.2"
  },
  {
   "Name": "Красногорское 2",
   "Accuracy": 1,
   "LatLong": "52.2306,85.5045"
  },
  {
   "Name": "Карагуж",
   "Accuracy": 4,
   "LatLong": "52.1416,86.0788"
  },
  {
   "Name": "Тайна",
   "Accuracy": 4,
   "LatLong": "52.1902,86.3482"
  },
  {
   "Name": "Новозыково",
   "Accuracy": 4,
   "LatLong": "52.1603,86.1814"
  },
  {
   "Name": "Усть-Иша",
   "Accuracy": 4,
   "LatLong": "52.1814,85.9683"
  },
  {
   "Name": "Березовка",
   "Accuracy": 4,
   "LatLong": "52.41,82.25"
  },
  {
   "Name": "Новая Суртайка",
   "Accuracy": 1,
   "LatLong": "52.7561,87.0566"
  },
  {
   "Name": "Быстрянка",
   "Accuracy": 4,
   "LatLong": "52.2861,85.8283"
  },
  {
   "Name": "Кажа",
   "Accuracy": 4,
   "LatLong": "52.4601,86.3983"
  },
  {
   "Name": "Усть-Кажа",
   "Accuracy": 4,
   "LatLong": "52.5462,86.3386"
  },
  {
   "Name": "Макарьевское",
   "Accuracy": 1,
   "LatLong": "52.7561,87.0566"
  },
  {
   "Name": "Сосновка",
   "Accuracy": 1,
   "LatLong": "52.7561,87.0566"
  },
  {
   "Name": "Пильно",
   "Accuracy": 4,
   "LatLong": "52.4855,86.235"
  },
  {
   "Name": "Соусканиха",
   "Accuracy": 4,
   "LatLong": "52.5644,85.9622"
  },
  {
   "Name": "Лебяжье",
   "Accuracy": 4,
   "LatLong": "54.1942,91.5769"
  },
  {
   "Name": "Солтон",
   "Accuracy": 4,
   "LatLong": "52.8333,86.4667"
  },
  {
   "Name": "Карабинка",
   "Accuracy": 4,
   "LatLong": "52.6885,86.2517"
  },
  {
   "Name": "Ненинка",
   "Accuracy": 4,
   "LatLong": "52.6734,86.1983"
  },
  {
   "Name": "Березово",
   "Accuracy": 4,
   "LatLong": "53.6997,86.7894"
  },
  {
   "Name": "Макарьевка",
   "Accuracy": 4,
   "LatLong": "52.9922,86.5438"
  },
  {
   "Name": "Сузоп",
   "Accuracy": 4,
   "LatLong": "52.7777,86.6353"
  },
  {
   "Name": "Нижняя Ненинка",
   "Accuracy": 4,
   "LatLong": "52.7322,86.4035"
  },
  {
   "Name": "Советское",
   "Accuracy": 4,
   "LatLong": "52.3,85.4167"
  },
  {
   "Name": "Урожайное",
   "Accuracy": 4,
   "LatLong": "52.3056,85.6494"
  },
  {
   "Name": "Талица",
   "Accuracy": 4,
   "LatLong": "54.1006,84.3067"
  },
  {
   "Name": "Кокши",
   "Accuracy": 4,
   "LatLong": "52.3822,85.5375"
  },
  {
   "Name": "Красный Яр",
   "Accuracy": 4,
   "LatLong": "53.25,86.6"
  },
  {
   "Name": "Никольское",
   "Accuracy": 4,
   "LatLong": "57.195,84.3644"
  },
  {
   "Name": "Сетовка",
   "Accuracy": 4,
   "LatLong": "52.2003,85.4642"
  },
  {
   "Name": "Половинка",
   "Accuracy": 4,
   "LatLong": "52.9337,86.5194"
  },
  {
   "Name": "Колово",
   "Accuracy": 4,
   "LatLong": "52.0892,85.6256"
  },
  {
   "Name": "Шульгин Лог",
   "Accuracy": 4,
   "LatLong": "52.1689,85.8556"
  },
  {
   "Name": "Хуторки",
   "Accuracy": 4,
   "LatLong": "52.26,85.8094"
  },
  {
   "Name": "Шульгинка",
   "Accuracy": 1,
   "LatLong": "52.2882,85.863"
  },
  {
   "Name": "Платово",
   "Accuracy": 4,
   "LatLong": "52.0769,85.9036"
  },
  {
   "Name": "Быстрый Исток",
   "Accuracy": 4,
   "LatLong": "52.3479,84.4698"
  },
  {
   "Name": "Быстрый Исток 1",
   "Accuracy": 1,
   "LatLong": "52.3471,84.5795"
  },
  {
   "Name": "Акутиха",
   "Accuracy": 4,
   "LatLong": "52.4355,84.4713"
  },
  {
   "Name": "Усть-Ануй",
   "Accuracy": 4,
   "LatLong": "52.3883,84.7604"
  },
  {
   "Name": "Приобское",
   "Accuracy": 1,
   "LatLong": "52.3471,84.5795"
  },
  {
   "Name": "Хлеборобное",
   "Accuracy": 4,
   "LatLong": "52.2167,84.6167"
  },
  {
   "Name": "Верх-Ануйское",
   "Accuracy": 4,
   "LatLong": "52.2078,84.5921"
  },
  {
   "Name": "Новопокровка",
   "Accuracy": 4,
   "LatLong": "52.2221,84.4353"
  },
  {
   "Name": "Верх-Озерное",
   "Accuracy": 4,
   "LatLong": "52.3295,84.2746"
  },
  {
   "Name": "Усть-Чарышская Пристань",
   "Accuracy": 4,
   "LatLong": "52.4,83.65"
  },
  {
   "Name": "Нижняя Гусиха",
   "Accuracy": 4,
   "LatLong": "52.2833,83.3667"
  },
  {
   "Name": "Брусенцево",
   "Accuracy": 4,
   "LatLong": "52.4392,83.4494"
  },
  {
   "Name": "Вяткино",
   "Accuracy": 4,
   "LatLong": "52.5217,83.6183"
  },
  {
   "Name": "Белово",
   "Accuracy": 4,
   "LatLong": "52.6167,83.6167"
  },
  {
   "Name": "Клепиково",
   "Accuracy": 4,
   "LatLong": "52.5425,83.7547"
  },
  {
   "Name": "Романово",
   "Accuracy": 4,
   "LatLong": "52.4167,83.3667"
  },
  {
   "Name": "Елбанка",
   "Accuracy": 4,
   "LatLong": "52.2333,83.6333"
  },
  {
   "Name": "Красноярка",
   "Accuracy": 4,
   "LatLong": "52.2167,83.45"
  },
  {
   "Name": "Усть-Журавлиха",
   "Accuracy": 4,
   "LatLong": "52.2167,83.4"
  },
  {
   "Name": "Нижнеозерное",
   "Accuracy": 4,
   "LatLong": "52.2333,83.75"
  },
  {
   "Name": "Коробейниково",
   "Accuracy": 4,
   "LatLong": "52.2,83.7"
  },
  {
   "Name": "Краснодарское",
   "Accuracy": 1,
   "LatLong": "52.3499,83.7759"
  },
  {
   "Name": "Чеканиха",
   "Accuracy": 4,
   "LatLong": "52.3667,83.8333"
  },
  {
   "Name": "Троицкое",
   "Accuracy": 4,
   "LatLong": "52.9828,84.6647"
  },
  {
   "Name": "Смоленское",
   "Accuracy": 4,
   "LatLong": "52.3333,85.0833"
  },
  {
   "Name": "Новотырышкино",
   "Accuracy": 4,
   "LatLong": "55.2856,82.4"
  },
  {
   "Name": "Сычевка",
   "Accuracy": 4,
   "LatLong": "52.0512,84.7788"
  },
  {
   "Name": "Красный Городок",
   "Accuracy": 1,
   "LatLong": "53.1464,82.4823"
  },
  {
   "Name": "Черновая",
   "Accuracy": 4,
   "LatLong": "51.9703,84.7536"
  },
  {
   "Name": "Первомайское",
   "Accuracy": 4,
   "LatLong": "53.7211,84.0183"
  },
  {
   "Name": "Ленинское",
   "Accuracy": 4,
   "LatLong": "53.9533,77.6422"
  },
  {
   "Name": "Александровка",
   "Accuracy": 4,
   "LatLong": "52.71,78.7"
  },
  {
   "Name": "Кировский",
   "Accuracy": 4,
   "LatLong": "52.6,83.2"
  },
  {
   "Name": "Ануйское",
   "Accuracy": 1,
   "LatLong": "52.4473,84.4098"
  },
  {
   "Name": "Старотырышкино",
   "Accuracy": 4,
   "LatLong": "52.3523,84.8245"
  },
  {
   "Name": "Линевский",
   "Accuracy": 4,
   "LatLong": "52.3667,85"
  },
  {
   "Name": "Песчаное",
   "Accuracy": 4,
   "LatLong": "52.7833,82.5167"
  },
  {
   "Name": "Катунское",
   "Accuracy": 4,
   "LatLong": "52.4128,85.1183"
  },
  {
   "Name": "Усть-Катунь",
   "Accuracy": 4,
   "LatLong": "52.4564,85.1653"
  },
  {
   "Name": "Верх-Обский",
   "Accuracy": 1,
   "LatLong": "52.4473,84.4098"
  },
  {
   "Name": "Точильное",
   "Accuracy": 4,
   "LatLong": "52.1594,85.0436"
  },
  {
   "Name": "Солоновка",
   "Accuracy": 4,
   "LatLong": "52.5333,83.2833"
  },
  {
   "Name": "Нижнекаменка",
   "Accuracy": 4,
   "LatLong": "52.0428,85.3744"
  },
  {
   "Name": "Россоши",
   "Accuracy": 4,
   "LatLong": "52.0856,85.2411"
  },
  {
   "Name": "Старобелокуриха",
   "Accuracy": 4,
   "LatLong": "52.0522,85.0981"
  },
  {
   "Name": "Макарьевка",
   "Accuracy": 4,
   "LatLong": "51.9864,85.2256"
  },
  {
   "Name": "Ая",
   "Accuracy": 4,
   "LatLong": "51.94,85.79"
  },
  {
   "Name": "Нижнекаянча",
   "Accuracy": 4,
   "LatLong": "51.8689,85.7033"
  },
  {
   "Name": "Булатово",
   "Accuracy": 4,
   "LatLong": "51.7504,84.7521"
  },
  {
   "Name": "Сараса",
   "Accuracy": 4,
   "LatLong": "51.8767,85.3564"
  },
  {
   "Name": "Пролетарка",
   "Accuracy": 4,
   "LatLong": "51.7939,85.3617"
  },
  {
   "Name": "Комар",
   "Accuracy": 4,
   "LatLong": "51.7061,85.3869"
  },
  {
   "Name": "Белое",
   "Accuracy": 4,
   "LatLong": "51.62,85.33"
  },
  {
   "Name": "Никольское",
   "Accuracy": 1,
   "LatLong": "51.7058,85.2039"
  },
  {
   "Name": "Куяган",
   "Accuracy": 4,
   "LatLong": "51.7005,84.9085"
  },
  {
   "Name": "Куяча",
   "Accuracy": 4,
   "LatLong": "51.6703,85.0706"
  },
  {
   "Name": "Тоурак",
   "Accuracy": 4,
   "LatLong": "51.5731,85.0131"
  },
  {
   "Name": "Алтайское",
   "Accuracy": 4,
   "LatLong": "51.95,85.33"
  },
  {
   "Name": "Алтайское 1",
   "Accuracy": 1,
   "LatLong": "51.95,85.33"
  },
  {
   "Name": "Алтайское 2",
   "Accuracy": 1,
   "LatLong": "51.95,85.33"
  },
  {
   "Name": "Алтайское 3",
   "Accuracy": 1,
   "LatLong": "51.95,85.33"
  },
  {
   "Name": "Петропавловское",
   "Accuracy": 4,
   "LatLong": "52.0667,84.1333"
  },
  {
   "Name": "Паутово",
   "Accuracy": 4,
   "LatLong": "52.2162,84.2691"
  },
  {
   "Name": "Новообинка",
   "Accuracy": 4,
   "LatLong": "52.2323,84.0584"
  },
  {
   "Name": "Солдатово",
   "Accuracy": 4,
   "LatLong": "52.3401,84.0622"
  },
  {
   "Name": "Антоньевка",
   "Accuracy": 4,
   "LatLong": "51.9961,83.974"
  },
  {
   "Name": "Алексеевка",
   "Accuracy": 4,
   "LatLong": "52.5,79.55"
  },
  {
   "Name": "Соловьиха",
   "Accuracy": 4,
   "LatLong": "51.9724,84.1457"
  },