{
 "Structure": "Place",
 "Places": [
  {
   "Name": "Vallentuna",
   "Accuracy": 4,
   "LatLong": "59.5344,18.0776"
  },
  {
   "Name": "Vallentuna",
   "Accuracy": 4,
   "LatLong": "59.5344,18.0776"
  },
  {
   "Name": "Brottby",
   "Accuracy": 4,
   "LatLong": "59.5632,18.2403"
  },
  {
   "Name": "Vallentuna",
   "Accuracy": 4,
   "LatLong": "59.5344,18.0776"
  },
  {
   "Name": "Vallentuna",
   "Accuracy": 4,
   "LatLong": "59.5344,18.0776"
  },
  {
   "Name": "Vallentuna",
   "Accuracy": 4,
   "LatLong": "59.5344,18.0776"
  },
  {
   "Name": "Vallentuna",
   "Accuracy": 4,
   "LatLong": "59.5344,18.0776"
  },
  {
   "Name": "Vallentuna",
   "Accuracy": 4,
   "LatLong": "59.5344,18.0776"
  },
  {
   "Name": "Vallentuna",
   "Accuracy": 4,
   "LatLong": "59.5344,18.0776"
  },
  {
   "Name": "Vallentuna",
   "Accuracy": 4,
   "LatLong": "59.5344,18.0776"
  },
  {
   "Name": "Vallentuna",
   "Accuracy": 4,
   "LatLong": "59.5344,18.0776"
  },
  {
   "Name": "Vallentuna",
   "Accuracy": 4,
   "LatLong": "59.5344,18.0776"
  },
  {
   "Name": "Vallentuna",
   "Accuracy": 4,
   "LatLong": "59.5344,18.0776"
  },
  {
   "Name": "Vallentuna",
   "Accuracy": 4,
   "LatLong": "59.5344,18.0776"
  },
  {
   "Name": "Vallentuna",
   "Accuracy": 4,
   "LatLong": "59.5344,18.0776"
  },
  {
   "Name": "Vallentuna",
   "Accuracy": 4,
   "LatLong": "59.5344,18.0776"
  },
  {
   "Name": "Vallentuna",
   "Accuracy": 4,
   "LatLong": "59.5344,18.0776"
  },
  {
   "Name": "Vallentuna",
   "Accuracy": 4,
   "LatLong": "59.5344,18.0776"
  },
  {
   "Name": "Vallentuna",
   "Accuracy": 4,
   "LatLong": "59.5344,18.0776"
  },
  {
   "Name": "Vallentuna",
   "Accuracy": 4,
   "LatLong": "59.5344,18.0776"
  },
  {
   "Name": "Vallentuna",
   "Accuracy": 4,
   "LatLong": "59.5344,18.0776"
  },
  {
   "Name": "Vallentuna",
   "Accuracy": 4,
   "LatLong": "59.5344,18.0776"
  },
  {
   "Name": "Vallentuna",
   "Accuracy": 4,
   "LatLong": "59.5344,18.0776"
  },
  {
   "Name": "Vallentuna",
   "Accuracy": 4,
   "LatLong": "59.5344,18.0776"
  },
  {
   "Name": "Vallentuna",
   "Accuracy": 4,
   "LatLong": "59.5344,18.0776"
  },
  {
   "Name": "Vallentuna",
   "Accuracy": 4,
   "LatLong": "59.5344,18.0776"
  },
  {
   "Name": "Vallentuna",
   "Accuracy": 4,
   "LatLong": "59.5344,18.0776"
  },
  {
   "Name": "Vallentuna",
   "Accuracy": 4,
   "LatLong": "59.5344,18.0776"
  },
  {
   "Name": "Vallentuna",
   "Accuracy": 4,
   "LatLong": "59.5344,18.0776"
  },
  {
   "Name": "Vallentuna",
   "Accuracy": 4,
   "LatLong": "59.5344,18.0776"
  },
  {
   "Name": "Vallentuna",
   "Accuracy": 4,
   "LatLong": "59.5344,18.0776"
  },
  {
   "Name": "Vallentuna",
   "Accuracy": 4,
   "LatLong": "59.5344,18.0776"
  },
  {
   "Name": "Vallentuna",
   "Accuracy": 4,
   "LatLong": "59.5344,18.0776"
  },
  {
   "Name": "Vallentuna",
   "Accuracy": 4,
   "LatLong": "59.5344,18.0776"
  },
  {
   "Name": "Brottby",
   "Accuracy": 4,
   "LatLong": "59.5632,18.2403"
  },
  {
   "Name": "Vallentuna",
   "Accuracy": 4,
   "LatLong": "59.5344,18.0776"
  },
  {
   "Name": "Vallentuna",
   "Accuracy": 4,
   "LatLong": "59.5344,18.0776"
  },
  {
   "Name": "Vallentuna",
   "Accuracy": 4,
   "LatLong": "59.5344,18.0776"
  },
  {
   "Name": "Vallentuna",
   "Accuracy": 4,
   "LatLong": "59.5344,18.0776"
  },
  {
   "Name": "Vallentuna",
   "Accuracy": 4,
   "LatLong": "59.5344,18.0776"
  },
  {
   "Name": "Vallentuna",
   "Accuracy": 4,
   "LatLong": "59.5344,18.0776"
  },
  {
   "Name": "Vallentuna",
   "Accuracy": 4,
   "LatLong": "59.5344,18.0776"
  },
  {
   "Name": "Brottby",
   "Accuracy": 4,
   "LatLong": "59.5632,18.2403"
  },
  {
   "Name": "Ingmarsö",
   "Accuracy": 4,
   "LatLong": "59.4675,18.7494"
  },
  {
   "Name": "Åkersberga",
   "Accuracy": 4,
   "LatLong": "59.4794,18.2997"
  },
  {
   "Name": "Ljusterö",
   "Accuracy": 4,
   "LatLong": "59.5275,18.6211"
  },
  {
   "Name": "Åkersberga",
   "Accuracy": 4,
   "LatLong": "59.4794,18.2997"
  },
  {
   "Name": "Åkersberga",
   "Accuracy": 4,
   "LatLong": "59.4794,18.2997"
  },
  {
   "Name": "Åkersberga",
   "Accuracy": 4,
   "LatLong": "59.4794,18.2997"
  },
  {
   "Name": "Åkersberga",
   "Accuracy": 4,
   "LatLong": "59.4794,18.2997"
  },
  {
   "Name": "Åkersberga",
   "Accuracy": 4,
   "LatLong": "59.4794,18.2997"
  },
  {
   "Name": "Åkersberga",
   "Accuracy": 4,
   "LatLong": "59.4794,18.2997"
  },
  {
   "Name": "Åkersberga",
   "Accuracy": 4,
   "LatLong": "59.4794,18.2997"
  },
  {
   "Name": "Åkersberga",
   "Accuracy": 4,
   "LatLong": "59.4794,18.2997"
  },
  {
   "Name": "Åkersberga",
   "Accuracy": 4,
   "LatLong": "59.4794,18.2997"
  },
  {
   "Name": "Åkersberga",
   "Accuracy": 4,
   "LatLong": "59.4794,18.2997"
  },
  {
   "Name": "Åkersberga",
   "Accuracy": 4,
   "LatLong": "59.4794,18.2997"
  },
  {
   "Name": "Åkersberga",
   "Accuracy": 4,
   "LatLong": "59.4794,18.2997"
  },
  {
   "Name": "Åkersberga",
   "Accuracy": 4,
   "LatLong": "59.4794,18.2997"
  },
  {
   "Name": "Åkersberga",
   "Accuracy": 4,
   "LatLong": "59.4794,18.2997"
  },
  {
   "Name": "Åkersberga",
   "Accuracy": 4,
   "LatLong": "59.4794,18.2997"
  },
  {
   "Name": "Åkersberga",
   "Accuracy": 4,
   "LatLong": "59.4794,18.2997"
  },
  {
   "Name": "Åkersberga",
   "Accuracy": 4,
   "LatLong": "59.4794,18.2997"
  },
  {
   "Name": "Åkersberga",
   "Accuracy": 4,
   "LatLong": "59.4794,18.2997"
  },
  {
   "Name": "Åkersberga",
   "Accuracy": 4,
   "LatLong": "59.4794,18.2997"
  },
  {
   "Name": "Åkersberga",
   "Accuracy": 4,
   "LatLong": "59.4794,18.2997"
  },
  {
   "Name": "Åkersberga",
   "Accuracy": 4,
   "LatLong": "59.4794,18.2997"
  },
  {
   "Name": "Åkersberga",
   "Accuracy": 4,
   "LatLong": "59.4794,18.2997"
  },
  {
   "Name": "Åkersberga",
   "Accuracy": 4,
   "LatLong": "59.4794,18.2997"
  },
  {
   "Name": "Åkersberga",
   "Accuracy": 4,
   "LatLong": "59.4794,18.2997"
  },
  {
   "Name": "Österskär",
   "Accuracy": 4,
   "LatLong": "59.4671,18.3062"
  },
  {
   "Name": "Österskär",
   "Accuracy": 4,
   "LatLong": "59.4671,18.3062"
  },
  {
   "Name": "Åkersberga",
   "Accuracy": 4,
   "LatLong": "59.4794,18.2997"
  },
  {
   "Name": "Åkersberga",
   "Accuracy": 4,
   "LatLong": "59.4794,18.2997"
  },
  {
   "Name": "Åkersberga",
   "Accuracy": 4,
   "LatLong": "59.4794,18.2997"
  },
  {
   "Name": "Åkersberga",
   "Accuracy": 4,
   "LatLong": "59.4794,18.2997"
  },
  {
   "Name": "Åkersberga",
   "Accuracy": 4,
   "LatLong": "59.4794,18.2997"
  },
  {
   "Name": "Åkersberga",
   "Accuracy": 4,
   "LatLong": "59.4794,18.2997"
  },
  {
   "Name": "Åkersberga",
   "Accuracy": 4,
   "LatLong": "59.4794,18.2997"
  },
  {
   "Name": "Åkersberga",
   "Accuracy": 4,
   "LatLong": "59.4794,18.2997"
  },
  {
   "Name": "Åkersberga",
   "Accuracy": 4,
   "LatLong": "59.4794,18.2997"
  },
  {
   "Name": "Åkersberga",
   "Accuracy": 4,
   "LatLong": "59.4794,18.2997"
  },
  {
   "Name": "Åkersberga",
   "Accuracy": 4,
   "LatLong": "59.4794,18.2997"
  },
  {
   "Name": "Ljusterö",
   "Accuracy": 4,
   "LatLong": "59.5275,18.6211"
  },
  {
   "Name": "Ljusterö",
   "Accuracy": 4,
   "LatLong": "59.5275,18.6211"
  },
  {
   "Name": "Gällnöby",
   "Accuracy": 4,
   "LatLong": "59.4,18.6333"
  },
  {
   "Name": "Skälvik",
   "Accuracy": 4,
   "LatLong": "59.4481,18.69"
  },
  {
   "Name": "Nämdö",
   "Accuracy": 4,
   "LatLong": "59.1833,18.6833"
  },
  {
   "Name": "Stavsnäs",
   "Accuracy": 4,
   "LatLong": "59.2833,18.6833"
  },
  {
   "Name": "Runmarö",
   "Accuracy": 1,
   "LatLong": "59.3196,18.7213"
  },
  {
   "Name": "Sandhamn",
   "Accuracy": 4,
   "LatLong": "59.2833,18.9167"
  },
  {
   "Name": "Djurhamn",
   "Accuracy": 4,
   "LatLong": "59.3,18.6833"
  },
  {
   "Name": "Stavsudda",
   "Accuracy": 1,
   "LatLong": "59.3499,18.7582"
  },
  {
   "Name": "Möja",
   "Accuracy": 4,
   "LatLong": "59.3997,18.8331"
  },
  {
   "Name": "Gustavsberg",
   "Accuracy": 4,
   "LatLong": "59.3268,18.3898"
  },
  {
   "Name": "Gustavsberg",
   "Accuracy": 4,
   "LatLong": "59.3268,18.3898"
  },
  {
   "Name": "Ingarö",
   "Accuracy": 1,
   "LatLong": "59.3268,18.3898"
  },
  {
   "Name": "Ingarö",
   "Accuracy": 1,
   "LatLong": "59.3268,18.3898"
  },
  {
   "Name": "Ingarö",
   "Accuracy": 1,
   "LatLong": "59.3268,18.3898"
  },
  {
   "Name": "Gustavsberg",
   "Accuracy": 4,
   "LatLong": "59.3268,18.3898"
  },
  {
   "Name": "Gustavsberg",
   "Accuracy": 4,
   "LatLong": "59.3268,18.3898"
  },
  {
   "Name": "Gustavsberg",
   "Accuracy": 4,
   "LatLong": "59.3268,18.3898"
  },
  {
   "Name": "Gustavsberg",
   "Accuracy": 4,
   "LatLong": "59.3268,18.3898"
  },
  {
   "Name": "Gustavsberg",
   "Accuracy": 4,
   "LatLong": "59.3268,18.3898"
  },
  {
   "Name": "Gustavsberg",
   "Accuracy": 4,
   "LatLong": "59.3268,18.3898"
  },
  {
   "Name": "Gustavsberg",
   "Accuracy": 4,
   "LatLong": "59.3268,18.3898"
  },
  {
   "Name": "Gustavsberg",
   "Accuracy": 4,
   "LatLong": "59.3268,18.3898"
  },
  {
   "Name": "Gustavsberg",
   "Accuracy": 4,
   "LatLong": "59.3268,18.3898"
  },
  {
   "Name": "Gustavsberg",
   "Accuracy": 4,
   "LatLong": "59.3268,18.3898"
  },
  {
   "Name": "Gustavsberg",
   "Accuracy": 4,
   "LatLong": "59.3268,18.3898"
  },
  {
   "Name": "Gustavsberg",
   "Accuracy": 4,
   "LatLong": "59.3268,18.3898"
  },
  {
   "Name": "Gustavsberg",
   "Accuracy": 4,
   "LatLong": "59.3268,18.3898"
  },
  {
   "Name": "Gustavsberg",
   "Accuracy": 4,
   "LatLong": "59.3268,18.3898"
  },
  {
   "Name": "Gustavsberg",
   "Accuracy": 4,
   "LatLong": "59.3268,18.3898"
  },
  {
   "Name": "Gustavsberg",
   "Accuracy": 4,
   "LatLong": "59.3268,18.3898"
  },
  {
   "Name": "Gustavsberg",
   "Accuracy": 4,
   "LatLong": "59.3268,18.3898"
  },
  {
   "Name": "Gustavsberg",
   "Accuracy": 4,
   "LatLong": "59.3268,18.3898"
  },
  {
   "Name": "Gustavsberg",
   "Accuracy": 4,
   "LatLong": "59.3268,18.3898"
  },
  {
   "Name": "Gustavsberg",
   "Accuracy": 4,
   "LatLong": "59.3268,18.3898"
  },
  {
   "Name": "Gustavsberg",
   "Accuracy": 4,
   "LatLong": "59.3268,18.3898"
  },
  {
   "Name": "Gustavsberg",
   "Accuracy": 4,
   "LatLong": "59.3268,18.3898"
  },
  {
   "Name": "Ingarö",
   "Accuracy": 1,
   "LatLong": "59.3268,18.3898"
  },
  {
   "Name": "Ingarö",
   "Accuracy": 1,
   "LatLong": "59.3268,18.3898"
  },
  {
   "Name": "Ingarö",
   "Accuracy": 1,
   "LatLong": "59.3268,18.3898"
  },
  {
   "Name": "Ingarö",
   "Accuracy": 1,
   "LatLong": "59.3268,18.3898"
  },
  {
   "Name": "Ingarö",
   "Accuracy": 1,
   "LatLong": "59.3268,18.3898"
  },
  {
   "Name": "Ingarö",
   "Accuracy": 1,
   "LatLong": "59.3268,18.3898"
  },
  {
   "Name": "Ingarö",
   "Accuracy": 1,
   "LatLong": "59.3268,18.3898"
  },
  {
   "Name": "Ingarö",
   "Accuracy": 1,
   "LatLong": "59.3268,18.3898"
  },
  {
   "Name": "Ingarö",
   "Accuracy": 1,
   "LatLong": "59.3268,18.3898"
  },
  {
   "Name": "Gustavsberg",
   "Accuracy": 4,
   "LatLong": "59.3268,18.3898"
  },
  {
   "Name": "Gustavsberg",
   "Accuracy": 4,
   "LatLong": "59.3268,18.3898"
  },
  {
   "Name": "Värmdö",
   "Accuracy": 4,
   "LatLong": "59.35,18.5"
  },
  {
   "Name": "Värmdö",
   "Accuracy": 4,
   "LatLong": "59.35,18.5"
  },
  {
   "Name": "Värmdö",
   "Accuracy": 4,
   "LatLong": "59.35,18.5"
  },
  {
   "Name": "Värmdö",
   "Accuracy": 4,
   "LatLong": "59.35,18.5"
  },
  {
   "Name": "Värmdö",
   "Accuracy": 4,
   "LatLong": "59.35,18.5"
  },
  {
   "Name": "Värmdö",
   "Accuracy": 4,
   "LatLong": "59.35,18.5"
  },
  {
   "Name": "Värmdö",
   "Accuracy": 4,
   "LatLong": "59.35,18.5"
  },
  {
   "Name": "Värmdö",
   "Accuracy": 4,
   "LatLong": "59.35,18.5"
  },
  {
   "Name": "Värmdö",
   "Accuracy": 4,
   "LatLong": "59.35,18.5"
  },
  {
   "Name": "Värmdö",
   "Accuracy": 4,
   "LatLong": "59.35,18.5"
  },
  {
   "Name": "Värmdö",
   "Accuracy": 4,
   "LatLong": "59.35,18.5"
  },
  {
   "Name": "Värmdö",
   "Accuracy": 4,
   "LatLong": "59.35,18.5"
  },
  {
   "Name": "Värmdö",
   "Accuracy": 4,
   "LatLong": "59.35,18.5"
  },
  {
   "Name": "Värmdö",
   "Accuracy": 4,
   "LatLong": "59.35,18.5"
  },
  {
   "Name": "Värmdö",
   "Accuracy": 4,
   "LatLong": "59.35,18.5"
  },
  {
   "Name": "Värmdö",
   "Accuracy": 4,
   "LatLong": "59.35,18.5"
  },
  {
   "Name": "Värmdö",
   "Accuracy": 4,
   "LatLong": "59.35,18.5"
  },
  {
   "Name": "Värmdö",
   "Accuracy": 4,
   "LatLong": "59.35,18.5"
  },
  {
   "Name": "Värmdö",
   "Accuracy": 4,
   "LatLong": "59.35,18.5"
  },
  {
   "Name": "Värmdö",
   "Accuracy": 4,
   "LatLong": "59.35,18.5"
  },
  {
   "Name": "Värmdö",
   "Accuracy": 4,
   "LatLong": "59.35,18.5"
  },
  {
   "Name": "Värmdö",
   "Accuracy": 4,
   "LatLong": "59.35,18.5"
  },
  {
   "Name": "Järfälla",
   "Accuracy": 1,
   "LatLong": "59.3501,17.9658"
  },
  {
   "Name": "Järfälla",
   "Accuracy": 1,
   "LatLong": "59.3501,17.9658"
  },
  {
   "Name": "Järfälla",
   "Accuracy": 1,
   "LatLong": "59.3501,17.9658"
  },
  {
   "Name": "Järfälla",
   "Accuracy": 1,
   "LatLong": "59.3501,17.9658"
  },
  {
   "Name": "Järfälla",
   "Accuracy": 1,
   "LatLong": "59.3501,17.9658"
  },
  {
   "Name": "Järfälla",
   "Accuracy": 1,
   "LatLong": "59.3501,17.9658"
  },
  {
   "Name": "Järfälla",
   "Accuracy": 1,
   "LatLong": "59.3501,17.9658"
  },
  {
   "Name": "Järfälla",
   "Accuracy": 1,
   "LatLong": "59.3501,17.9658"
  },
  {
   "Name": "Järfälla",
   "Accuracy": 1,
   "LatLong": "59.3501,17.9658"
  },
  {
   "Name": "Järfälla",
   "Accuracy": 1,
   "LatLong": "59.3501,17.9658"
  },
  {
   "Name": "Järfälla",
   "Accuracy": 1,
   "LatLong": "59.3501,17.9658"
  },
  {
   "Name": "Järfälla",
   "Accuracy": 1,
   "LatLong": "59.3501,17.9658"
  },
  {
   "Name": "Järfälla",
   "Accuracy": 1,
   "LatLong": "59.3501,17.9658"
  },
  {
   "Name": "Järfälla",
   "Accuracy": 1,
   "LatLong": "59.3501,17.9658"
  },
  {
   "Name": "Järfälla",
   "Accuracy": 1,
   "LatLong": "59.3501,17.9658"
  },
  {
   "Name": "Järfälla",
   "Accuracy": 1,
   "LatLong": "59.3501,17.9658"
  },
  {
   "Name": "Järfälla",
   "Accuracy": 1,
   "LatLong": "59.3501,17.9658"
  },
  {
   "Name": "Järfälla",
   "Accuracy": 1,
   "LatLong": "59.3501,17.9658"
  },
  {
   "Name": "Järfälla",
   "Accuracy": 1,
   "LatLong": "59.3501,17.9658"
  },
  {
   "Name": "Järfälla",
   "Accuracy": 1,
   "LatLong": "59.3501,17.9658"
  },
  {
   "Name": "Järfälla",
   "Accuracy": 1,
   "LatLong": "59.3501,17.9658"
  },
  {
   "Name": "Järfälla",
   "Accuracy": 1,
   "LatLong": "59.3501,17.9658"
  },
  {
   "Name": "Järfälla",
   "Accuracy": 1,
   "LatLong": "59.3501,17.9658"
  },
  {
   "Name": "Järfälla",
   "Accuracy": 1,
   "LatLong": "59.3501,17.9658"
  },
  {
   "Name": "Järfälla",
   "Accuracy": 1,
   "LatLong": "59.3501,17.9658"
  },
  {
   "Name": "Järfälla",
   "Accuracy": 1,
   "LatLong": "59.3501,17.9658"
  },
  {
   "Name": "Järfälla",
   "Accuracy": 1,
   "LatLong": "59.3501,17.9658"
  },
  {
   "Name": "Järfälla",
   "Accuracy": 1,
   "LatLong": "59.3501,17.9658"
  },
  {
   "Name": "Järfälla",
   "Accuracy": 1,
   "LatLong": "59.3501,17.9658"
  },
  {
   "Name": "Järfälla",
   "Accuracy": 1,
   "LatLong": "59.3501,17.9658"
  },
  {
   "Name": "Järfälla",
   "Accuracy": 1,
   "LatLong": "59.3501,17.9658"
  },
  {
   "Name": "Järfälla",
   "Accuracy": 1,
   "LatLong": "59.3501,17.9658"
  },
  {
   "Name": "Järfälla",
   "Accuracy": 1,
   "LatLong": "59.3501,17.9658"
  },
  {
   "Name": "Järfälla",
   "Accuracy": 1,
   "LatLong": "59.3501,17.9658"
  },
  {
   "Name": "Järfälla",
   "Accuracy": 1,
   "LatLong": "59.3501,17.9658"
  },
  {
   "Name": "Järfälla",
   "Accuracy": 1,
   "LatLong": "59.3501,17.9658"
  },
  {
   "Name": "Järfälla",
   "Accuracy": 1,
   "LatLong": "59.3501,17.9658"
  },
  {
   "Name": "Järfälla",
   "Accuracy": 1,
   "LatLong": "59.3501,17.9658"
  },
  {
   "Name": "Järfälla",
   "Accuracy": 1,
   "LatLong": "59.3501,17.9658"
  },
  {
   "Name": "Järfälla",
   "Accuracy": 1,
   "LatLong": "59.3501,17.9658"
  },
  {
   "Name": "Järfälla",
   "Accuracy": 1,
   "LatLong": "59.3501,17.9658"
  },
  {
   "Name": "Järfälla",
   "Accuracy": 1,
   "LatLong": "59.3501,17.9658"
  },
  {
   "Name": "Järfälla",
   "Accuracy": 1,
   "LatLong": "59.3501,17.9658"
  },
  {
   "Name": "Järfälla",
   "Accuracy": 1,
   "LatLong": "59.3501,17.9658"
  },
  {
   "Name": "Järfälla",
   "Accuracy": 1,
   "LatLong": "59.3501,17.9658"
  },
  {
   "Name": "Järfälla",
   "Accuracy": 1,
   "LatLong": "59.3501,17.9658"
  },
  {
   "Name": "Järfälla",
   "Accuracy": 1,
   "LatLong": "59.3501,17.9658"
  },
  {
   "Name": "Järfälla",
   "Accuracy": 1,
   "LatLong": "59.3501,17.9658"
  },
  {
   "Name": "Järfälla",
   "Accuracy": 1,
   "LatLong": "59.3501,17.9658"
  },
  {
   "Name": "Järfälla",
   "Accuracy": 1,
   "LatLong": "59.3501,17.9658"
  },
  {
   "Name": "Järfälla",
   "Accuracy": 1,
   "LatLong": "59.3501,17.9658"
  },
  {
   "Name": "Järfälla",
   "Accuracy": 1,
   "LatLong": "59.3501,17.9658"
  },
  {
   "Name": "Järfälla",
   "Accuracy": 1,
   "LatLong": "59.3501,17.9658"
  },
  {
   "Name": "Järfälla",
   "Accuracy": 1,
   "LatLong": "59.3501,17.9658"
  },
  {
   "Name": "Järfälla",
   "Accuracy": 1,
   "LatLong": "59.3501,17.9658"
  },
  {
   "Name": "Järfälla",
   "Accuracy": 1,
   "LatLong": "59.3501,17.9658"
  },
  {
   "Name": "Järfälla",
   "Accuracy": 1,
   "LatLong": "59.3501,17.9658"
  },
  {
   "Name": "Järfälla",
   "Accuracy": 1,
   "LatLong": "59.3501,17.9658"
  },
  {
   "Name": "Järfälla",
   "Accuracy": 1,
   "LatLong": "59.3501,17.9658"
  },
  {
   "Name": "Järfälla",
   "Accuracy": 1,
   "LatLong": "59.3501,17.9658"
  },
  {
   "Name": "Järfälla",
   "Accuracy": 1,
   "LatLong": "59.3501,17.9658"
  },
  {
   "Name": "Järfälla",
   "Accuracy": 1,
   "LatLong": "59.3501,17.9658"
  },
  {
   "Name": "Järfälla",
   "Accuracy": 1,
   "LatLong": "59.3501,17.9658"
  },
  {
   "Name": "Järfälla",
   "Accuracy": 1,
   "LatLong": "59.3501,17.9658"
  },
  {
   "Name": "Järfälla",
   "Accuracy": 1,
   "LatLong": "59.3501,17.9658"
  },
  {
   "Name": "Järfälla",
   "Accuracy": 1,
   "LatLong": "59.3501,17.9658"
  },
  {
   "Name": "Järfälla",
   "Accuracy": 1,
   "LatLong": "59.3501,17.9658"
  },
  {
   "Name": "Järfälla",
   "Accuracy": 1,
   "LatLong": "59.3501,17.9658"
  },
  {
   "Name": "Järfälla",
   "Accuracy": 1,
   "LatLong": "59.3501,17.9658"
  },
  {
   "Name": "Järfälla",
   "Accuracy": 1,
   "LatLong": "59.3501,17.9658"
  },
  {
   "Name": "Järfälla",
   "Accuracy": 1,
   "LatLong": "59.3501,17.9658"
  },
  {
   "Name": "Järfälla",
   "Accuracy": 1,
   "LatLong": "59.3501,17.9658"
  },
  {
   "Name": "Järfälla",
   "Accuracy": 1,
   "LatLong": "59.3501,17.9658"
  },
  {
   "Name": "Järfälla",
   "Accuracy": 1,
   "LatLong": "59.3501,17.9658"
  },
  {
   "Name": "Järfälla",
   "Accuracy": 1,
   "LatLong": "59.3501,17.9658"
  },
  {
   "Name": "Järfälla",
   "Accuracy": 1,
   "LatLong": "59.3501,17.9658"
  },
  {
   "Name": "Järfälla",
   "Accuracy": 1,
   "LatLong": "59.3501,17.9658"
  },
  {
   "Name": "Järfälla",
   "Accuracy": 1,
   "LatLong": "59.3501,17.9658"
  },
  {
   "Name": "Järfälla",
   "Accuracy": 1,
   "LatLong": "59.3501,17.9658"
  },
  {
   "Name": "Järfälla",
   "Accuracy": 1,
   "LatLong": "59.3501,17.9658"
  },
  {
   "Name": "Järfälla",
   "Accuracy": 1,
   "LatLong": "59.3501,17.9658"
  },
  {
   "Name": "Järfälla",
   "Accuracy": 1,
   "LatLong": "59.3501,17.9658"
  },
  {
   "Name": "Järfälla",
   "Accuracy": 1,
   "LatLong": "59.3501,17.9658"
  },
  {
   "Name": "Järfälla",
   "Accuracy": 1,
   "LatLong": "59.3501,17.9658"
  },
  {
   "Name": "Järfälla",
   "Accuracy": 1,
   "LatLong": "59.3501,17.9658"
  },
  {
   "Name": "Järfälla",
   "Accuracy": 1,
   "LatLong": "59.3501,17.9658"
  },
  {
   "Name": "Järfälla",
   "Accuracy": 1,
   "LatLong": "59.3501,17.9658"
  },
  {
   "Name": "Järfälla",
   "Accuracy": 1,
   "LatLong": "59.3501,17.9658"
  },
  {
   "Name": "Järfälla",
   "Accuracy": 1,
   "LatLong": "59.3501,17.9658"
  },
  {
   "Name": "Järfälla",
   "Accuracy": 1,
   "LatLong": "59.3501,17.9658"
  },
  {
   "Name": "Järfälla",
   "Accuracy": 1,
   "LatLong": "59.3501,17.9658"
  },
  {
   "Name": "Ekerö",
   "Accuracy": 4,
   "LatLong": "59.291,17.8121"
  },
  {
   "Name": "Drottningholm",
   "Accuracy": 4,
   "LatLong": "59.3251,17.8878"
  },
  {
   "Name": "Ekerö",
   "Accuracy": 4,
   "LatLong": "59.291,17.8121"
  },
  {
   "Name": "Ekerö",
   "Accuracy": 4,
   "LatLong": "59.291,17.8121"
  },
  {
   "Name": "Ekerö",
   "Accuracy": 4,
   "LatLong": "59.291,17.8121"
  },
  {
   "Name": "Ekerö",
   "Accuracy": 4,
   "LatLong": "59.291,17.8121"
  },
  {
   "Name": "Ekerö",
   "Accuracy": 4,
   "LatLong": "59.291,17.8121"
  },
  {
   "Name": "Ekerö",
   "Accuracy": 4,
   "LatLong": "59.291,17.8121"
  },
  {
   "Name": "Ekerö",
   "Accuracy": 4,
   "LatLong": "59.291,17.8121"
  },
  {
   "Name": "Ekerö",
   "Accuracy": 4,
   "LatLong": "59.291,17.8121"
  },
  {
   "Name": "Ekerö",
   "Accuracy": 4,
   "LatLong": "59.291,17.8121"
  },
  {
   "Name": "Ekerö",
   "Accuracy": 4,
   "LatLong": "59.291,17.8121"
  },
  {
   "Name": "Ekerö",
   "Accuracy": 4,
   "LatLong": "59.291,17.8121"
  },
  {
   "Name": "Ekerö",
   "Accuracy": 4,
   "LatLong": "59.291,17.8121"
  },
  {
   "Name": "Ekerö",
   "Accuracy": 4,
   "LatLong": "59.291,17.8121"
  },
  {
   "Name": "Ekerö",
   "Accuracy": 4,
   "LatLong": "59.291,17.8121"
  },
  {
   "Name": "Ekerö",
   "Accuracy": 4,
   "LatLong": "59.291,17.8121"
  },
  {
   "Name": "Ekerö",
   "Accuracy": 4,
   "LatLong": "59.291,17.8121"
  },
  {
   "Name": "Ekerö",
   "Accuracy": 4,
   "LatLong": "59.291,17.8121"
  },
  {
   "Name": "Ekerö",
   "Accuracy": 4,
   "LatLong": "59.291,17.8121"
  },
  {
   "Name": "Ekerö",
   "Accuracy": 4,
   "LatLong": "59.291,17.8121"
  },
  {
   "Name": "Ekerö",
   "Accuracy": 4,
   "LatLong": "59.291,17.8121"
  },
  {
   "Name": "Munsö",
   "Accuracy": 1,
   "LatLong": "59.3081,17.85"
  },
  {
   "Name": "Adelsö",
   "Accuracy": 1,
   "LatLong": "59.3081,17.85"
  },
  {
   "Name": "Drottningholm",
   "Accuracy": 4,
   "LatLong": "59.3251,17.8878"
  },
  {
   "Name": "Stenhamra",
   "Accuracy": 4,
   "LatLong": "59.3333,17.6667"
  },
  {
   "Name": "Färentuna",
   "Accuracy": 1,
   "LatLong": "59.35,17.7"
  },
  {
   "Name": "Svartsjö",
   "Accuracy": 4,
   "LatLong": "59.3667,17.7333"
  },
  {
   "Name": "Stenhamra",
   "Accuracy": 4,
   "LatLong": "59.3333,17.6667"
  },
  {
   "Name": "Stenhamra",
   "Accuracy": 4,
   "LatLong": "59.3333,17.6667"
  },
  {
   "Name": "Stenhamra",
   "Accuracy": 4,
   "LatLong": "59.3333,17.6667"
  },
  {
   "Name": "Stenhamra",
   "Accuracy": 4,
   "LatLong": "59.3333,17.6667"
  },
  {
   "Name": "Stenhamra",
   "Accuracy": 4,
   "LatLong": "59.3333,17.6667"
  },
  {
   "Name": "Skå",
   "Accuracy": 4,
   "LatLong": "59.3333,17.7333"
  },
  {
   "Name": "Svartsjö",
   "Accuracy": 4,
   "LatLong": "59.3667,17.7333"
  },
  {
   "Name": "Svartsjö",
   "Accuracy": 4,
   "LatLong": "59.3667,17.7333"
  },
  {
   "Name": "Färentuna",
   "Accuracy": 1,
   "LatLong": "59.3667,17.7333"
  },
  {
   "Name": "Färentuna",
   "Accuracy": 1,
   "LatLong": "59.3667,17.7333"
  },
  {
   "Name": "Skärholmen",
   "Accuracy": 4,
   "LatLong": "59.2755,17.902"
  },
  {
   "Name": "Skärholmen",
   "Accuracy": 4,
   "LatLong": "59.2755,17.902"
  },
  {
   "Name": "Huddinge",
   "Accuracy": 4,
   "LatLong": "59.237,17.9819"
  },
  {
   "Name": "Huddinge",
   "Accuracy": 4,
   "LatLong": "59.237,17.9819"
  },
  {
   "Name": "Huddinge",
   "Accuracy": 4,
   "LatLong": "59.237,17.9819"
  },
  {
   "Name": "Huddinge",
   "Accuracy": 4,
   "LatLong": "59.237,17.9819"
  },
  {
   "Name": "Huddinge",
   "Accuracy": 4,
   "LatLong": "59.237,17.9819"
  },
  {
   "Name": "Kungens Kurva",
   "Accuracy": 1,
   "LatLong": "59.237,17.9819"
  },
  {
   "Name": "Huddinge",
   "Accuracy": 4,
   "LatLong": "59.237,17.9819"
  },
  {
   "Name": "Huddinge",
   "Accuracy": 4,
   "LatLong": "59.237,17.9819"
  },
  {
   "Name": "Huddinge",
   "Accuracy": 4,
   "LatLong": "59.237,17.9819"
  },
  {
   "Name": "Huddinge",
   "Accuracy": 4,
   "LatLong": "59.237,17.9819"
  },
  {
   "Name": "Huddinge",
   "Accuracy": 4,
   "LatLong": "59.237,17.9819"
  },
  {
   "Name": "Huddinge",
   "Accuracy": 4,
   "LatLong": "59.237,17.9819"
  },
  {
   "Name": "Huddinge",
   "Accuracy": 4,
   "LatLong": "59.237,17.9819"
  },
  {
   "Name": "Huddinge",
   "Accuracy": 4,
   "LatLong": "59.237,17.9819"
  },
  {
   "Name": "Huddinge",
   "Accuracy": 4,
   "LatLong": "59.237,17.9819"
  },
  {
   "Name": "Huddinge",
   "Accuracy": 4,
   "LatLong": "59.237,17.9819"
  },
  {
   "Name": "Huddinge",
   "Accuracy": 4,
   "LatLong": "59.237,17.9819"
  },
  {
   "Name": "Huddinge",
   "Accuracy": 4,
   "LatLong": "59.237,17.9819"
  },
  {
   "Name": "Huddinge",
   "Accuracy": 4,
   "LatLong": "59.237,17.9819"
  },
  {
   "Name": "Huddinge",
   "Accuracy": 4,
   "LatLong": "59.237,17.9819"
  },
  {
   "Name": "Huddinge",
   "Accuracy": 4,
   "LatLong": "59.237,17.9819"
  },
  {
   "Name": "Huddinge",
   "Accuracy": 4,
   "LatLong": "59.237,17.9819"
  },
  {
   "Name": "Huddinge",
   "Accuracy": 4,
   "LatLong": "59.237,17.9819"
  },
  {
   "Name": "Huddinge",
   "Accuracy": 4,
   "LatLong": "59.237,17.9819"
  },
  {
   "Name": "Huddinge",
   "Accuracy": 4,
   "LatLong": "59.237,17.9819"
  },
  {
   "Name": "Huddinge",
   "Accuracy": 4,
   "LatLong": "59.237,17.9819"
  },
  {
   "Name": "Huddinge",
   "Accuracy": 4,
   "LatLong": "59.237,17.9819"
  },
  {
   "Name": "Huddinge",
   "Accuracy": 4,
   "LatLong": "59.237,17.9819"
  },
  {
   "Name": "Huddinge",
   "Accuracy": 4,
   "LatLong": "59.237,17.9819"
  },
  {
   "Name": "Huddinge",
   "Accuracy": 4,
   "LatLong": "59.237,17.9819"
  },
  {
   "Name": "Huddinge",
   "Accuracy": 4,
   "LatLong": "59.237,17.9819"
  },
  {
   "Name": "Huddinge",
   "Accuracy": 4,
   "LatLong": "59.237,17.9819"
  },
  {
   "Name": "Huddinge",
   "Accuracy": 4,
   "LatLong": "59.237,17.9819"
  },
  {
   "Name": "Huddinge",
   "Accuracy": 4,
   "LatLong": "59.237,17.9819"
  },
  {
   "Name": "Huddinge",
   "Accuracy": 4,
   "LatLong": "59.237,17.9819"
  },
  {
   "Name": "Huddinge",
   "Accuracy": 4,
   "LatLong": "59.237,17.9819"
  },
  {
   "Name": "Huddinge",
   "Accuracy": 4,
   "LatLong": "59.237,17.9819"
  },
  {
   "Name": "Huddinge",
   "Accuracy": 4,
   "LatLong": "59.237,17.9819"
  },
  {
   "Name": "Huddinge",
   "Accuracy": 4,
   "LatLong": "59.237,17.9819"
  },
  {
   "Name": "Huddinge",
   "Accuracy": 4,
   "LatLong": "59.237,17.9819"
  },
  {
   "Name": "Huddinge",
   "Accuracy": 4,
   "LatLong": "59.237,17.9819"
  },
  {
   "Name": "Huddinge",
   "Accuracy": 4,
   "LatLong": "59.237,17.9819"
  },
  {
   "Name": "Huddinge",
   "Accuracy": 4,
   "LatLong": "59.237,17.9819"
  },
  {
   "Name": "Huddinge",
   "Accuracy": 4,
   "LatLong": "59.237,17.9819"
  },
  {
   "Name": "Huddinge",
   "Accuracy": 4,
   "LatLong": "59.237,17.9819"
  },
  {
   "Name": "Huddinge",
   "Accuracy": 4,
   "LatLong": "59.237,17.9819"
  },
  {
   "Name": "Huddinge",
   "Accuracy": 4,
   "LatLong": "59.237,17.9819"
  },
  {
   "Name": "Huddinge",
   "Accuracy": 4,
   "LatLong": "59.237,17.9819"
  },
  {
   "Name": "Huddinge",
   "Accuracy": 4,
   "LatLong": "59.237,17.9819"
  },
  {
   "Name": "Segeltorp",
   "Accuracy": 4,
   "LatLong": "59.2833,17.9333"
  },
  {
   "Name": "Segeltorp",
   "Accuracy": 4,
   "LatLong": "59.2833,17.9333"
  },
  {
   "Name": "Segeltorp",
   "Accuracy": 4,
   "LatLong": "59.2833,17.9333"
  },
  {
   "Name": "Segeltorp",
   "Accuracy": 4,
   "LatLong": "59.2833,17.9333"
  },
  {
   "Name": "Kungens Kurva",
   "Accuracy": 1,
   "LatLong": "59.2833,17.9333"
  },
  {
   "Name": "Huddinge",
   "Accuracy": 4,
   "LatLong": "59.237,17.9819"
  },
  {
   "Name": "Huddinge",
   "Accuracy": 4,
   "LatLong": "59.237,17.9819"
  },
  {
   "Name": "Huddinge",
   "Accuracy": 4,
   "LatLong": "59.237,17.9819"
  },
  {
   "Name": "Huddinge",
   "Accuracy": 4,
   "LatLong": "59.237,17.9819"
  },
  {
   "Name": "Huddinge",
   "Accuracy": 4,
   "LatLong": "59.237,17.9819"
  },
  {
   "Name": "Huddinge",
   "Accuracy": 4,
   "LatLong": "59.237,17.9819"
  },
  {
   "Name": "Huddinge",
   "Accuracy": 4,
   "LatLong": "59.237,17.9819"
  },
  {
   "Name": "Huddinge",
   "Accuracy": 4,
   "LatLong": "59.237,17.9819"
  },
  {
   "Name": "Skogås",
   "Accuracy": 4,
   "LatLong": "59.2167,18.15"
  },
  {
   "Name": "Trångsund",
   "Accuracy": 4,
   "LatLong": "59.2333,18.1333"
  },
  {
   "Name": "Skogås",
   "Accuracy": 4,
   "LatLong": "59.2167,18.15"
  },
  {
   "Name": "Skogås",
   "Accuracy": 4,
   "LatLong": "59.2167,18.15"
  },
  {
   "Name": "Skogås",
   "Accuracy": 4,
   "LatLong": "59.2167,18.15"
  },
  {
   "Name": "Trångsund",
   "Accuracy": 4,
   "LatLong": "59.2333,18.1333"
  },
  {
   "Name": "Skogås",
   "Accuracy": 4,
   "LatLong": "59.2167,18.15"
  },
  {
   "Name": "Skogås",
   "Accuracy": 4,
   "LatLong": "59.2167,18.15"
  },
  {
   "Name": "Skogås",
   "Accuracy": 4,
   "LatLong": "59.2167,18.15"
  },
  {
   "Name": "Skogås",
   "Accuracy": 4,
   "LatLong": "59.2167,18.15"
  },
  {
   "Name": "Skogås",
   "Accuracy": 4,
   "LatLong": "59.2167,18.15"
  },
  {
   "Name": "Skogås",
   "Accuracy": 4,
   "LatLong": "59.2167,18.15"
  },
  {
   "Name": "Skogås",
   "Accuracy": 4,
   "LatLong": "59.2167,18.15"
  },
  {
   "Name": "Skogås",
   "Accuracy": 4,
   "LatLong": "59.2167,18.15"
  },
  {
   "Name": "Skogås",
   "Accuracy": 4,
   "LatLong": "59.2167,18.15"
  },
  {
   "Name": "Skogås",
   "Accuracy": 4,
   "LatLong": "59.2167,18.15"
  },
  {
   "Name": "Skogås",
   "Accuracy": 4,
   "LatLong": "59.2167,18.15"
  },
  {
   "Name": "Skogås",
   "Accuracy": 4,
   "LatLong": "59.2167,18.15"
  },
  {
   "Name": "Skogås",
   "Accuracy": 4,
   "LatLong": "59.2167,18.15"
  },
  {
   "Name": "Skogås",
   "Accuracy": 4,
   "LatLong": "59.2167,18.15"
  },
  {
   "Name": "Trångsund",
   "Accuracy": 4,
   "LatLong": "59.2333,18.1333"
  },
  {
   "Name": "Trångsund",
   "Accuracy": 4,
   "LatLong": "59.2333,18.1333"
  },
  {
   "Name": "Trångsund",
   "Accuracy": 4,
   "LatLong": "59.2333,18.1333"
  },
  {
   "Name": "Trångsund",
   "Accuracy": 4,
   "LatLong": "59.2333,18.1333"
  },
  {
   "Name": "Trångsund",
   "Accuracy": 4,
   "LatLong": "59.2333,18.1333"
  },
  {
   "Name": "Trångsund",
   "Accuracy": 4,
   "LatLong": "59.2333,18.1333"
  },
  {
   "Name": "Trångsund",
   "Accuracy": 4,
   "LatLong": "59.2333,18.1333"
  },
  {
   "Name": "Skogås",
   "Accuracy": 4,
   "LatLong": "59.2167,18.15"
  },
  {
   "Name": "Trångsund",
   "Accuracy": 4,
   "LatLong": "59.2333,18.1333"
  },
  {
   "Name": "Skogås",
   "Accuracy": 4,
   "LatLong": "59.2167,18.15"
  },
  {
   "Name": "Vårby",
   "Accuracy": 4,
   "LatLong": "59.2667,17.8833"
  },
  {
   "Name": "Vårby",
   "Accuracy": 4,
   "LatLong": "59.2667,17.8833"
  },
  {
   "Name": "Vårby",
   "Accuracy": 4,
   "LatLong": "59.2667,17.8833"
  },
  {
   "Name": "Vårby",
   "Accuracy": 4,
   "LatLong": "59.2667,17.8833"
  },
  {
   "Name": "Vårby",
   "Accuracy": 4,
   "LatLong": "59.2667,17.8833"
  },
  {
   "Name": "Vårby",
   "Accuracy": 4,
   "LatLong": "59.2667,17.8833"
  },
  {
   "Name": "Vårby",
   "Accuracy": 4,
   "LatLong": "59.2667,17.8833"
  },
  {
   "Name": "Vårby",
   "Accuracy": 4,
   "LatLong": "59.2667,17.8833"
  },
  {
   "Name": "Vårby",
   "Accuracy": 4,
   "LatLong": "59.2667,17.8833"
  },
  {
   "Name": "Vårby",
   "Accuracy": 4,
   "LatLong": "59.2667,17.8833"
  },
  {
   "Name": "Vårby",
   "Accuracy": 4,
   "LatLong": "59.2667,17.8833"
  },
  {
   "Name": "Vårby",
   "Accuracy": 4,
   "LatLong": "59.2667,17.8833"
  },
  {
   "Name": "Vårby",
   "Accuracy": 4,
   "LatLong": "59.2667,17.8833"
  },
  {
   "Name": "Vårby",
   "Accuracy": 4,
   "LatLong": "59.2667,17.8833"
  },
  {
   "Name": "Norsborg",
   "Accuracy": 4,
   "LatLong": "59.25,17.7833"
  },
  {
   "Name": "Norsborg",
   "Accuracy": 4,
   "LatLong": "59.25,17.7833"
  },
  {
   "Name": "Norsborg",
   "Accuracy": 4,
   "LatLong": "59.25,17.7833"
  },
  {
   "Name": "Norsborg",
   "Accuracy": 4,
   "LatLong": "59.25,17.7833"
  },
  {
   "Name": "Norsborg",
   "Accuracy": 4,
   "LatLong": "59.25,17.7833"
  },
  {
   "Name": "Norsborg",
   "Accuracy": 4,
   "LatLong": "59.25,17.7833"
  },
  {
   "Name": "Norsborg",
   "Accuracy": 4,
   "LatLong": "59.25,17.7833"
  },
  {
   "Name": "Norsborg",
   "Accuracy": 4,
   "LatLong": "59.25,17.7833"
  },
  {
   "Name": "Norsborg",
   "Accuracy": 4,
   "LatLong": "59.25,17.7833"
  },
  {
   "Name": "Norsborg",
   "Accuracy": 4,
   "LatLong": "59.25,17.7833"
  },
  {
   "Name": "Norsborg",
   "Accuracy": 4,
   "LatLong": "59.25,17.7833"
  },
  {
   "Name": "Norsborg",
   "Accuracy": 4,
   "LatLong": "59.25,17.7833"
  },
  {
   "Name": "Norsborg",
   "Accuracy": 4,
   "LatLong": "59.25,17.7833"
  },
  {
   "Name": "Norsborg",
   "Accuracy": 4,
   "LatLong": "59.25,17.7833"
  },
  {
   "Name": "Norsborg",
   "Accuracy": 4,
   "LatLong": "59.25,17.7833"
  },
  {
   "Name": "Norsborg",
   "Accuracy": 4,
   "LatLong": "59.25,17.7833"
  },
  {
   "Name": "Norsborg",
   "Accuracy": 4,
   "LatLong": "59.25,17.7833"
  },
  {
   "Name": "Norsborg",
   "Accuracy": 4,
   "LatLong": "59.25,17.7833"
  },
  {
   "Name": "Norsborg",
   "Accuracy": 4,
   "LatLong": "59.25,17.7833"
  },
  {
   "Name": "Norsborg",
   "Accuracy": 4,
   "LatLong": "59.25,17.7833"
  },
  {
   "Name": "Norsborg",
   "Accuracy": 4,
   "LatLong": "59.25,17.7833"
  },
  {
   "Name": "Norsborg",
   "Accuracy": 4,
   "LatLong": "59.25,17.7833"
  },
  {
   "Name": "Norsborg",
   "Accuracy": 4,
   "LatLong": "59.25,17.7833"
  },
  {
   "Name": "Norsborg",
   "Accuracy": 4,
   "LatLong": "59.25,17.7833"
  },
  {
   "Name": "Norsborg",
   "Accuracy": 4,
   "LatLong": "59.25,17.7833"
  },
  {
   "Name": "Norsborg",
   "Accuracy": 4,
   "LatLong": "59.25,17.7833"
  },
  {
   "Name": "Norsborg",
   "Accuracy": 4,
   "LatLong": "59.25,17.7833"
  },
  {
   "Name": "Norsborg",
   "Accuracy": 4,
   "LatLong": "59.25,17.7833"
  },
  {
   "Name": "Norsborg",
   "Accuracy": 4,
   "LatLong": "59.25,17.7833"
  },
  {
   "Name": "Tullinge",
   "Accuracy": 4,
   "LatLong": "59.2,17.8833"
  },
  {
   "Name": "Tullinge",
   "Accuracy": 4,
   "LatLong": "59.2,17.8833"
  },
  {
   "Name": "Tullinge",
   "Accuracy": 4,
   "LatLong": "59.2,17.8833"
  },
  {
   "Name": "Tullinge",
   "Accuracy": 4,
   "LatLong": "59.2,17.8833"
  },
  {
   "Name": "Tullinge",
   "Accuracy": 4,
   "LatLong": "59.2,17.8833"
  },
  {
   "Name": "Tullinge",
   "Accuracy": 4,
   "LatLong": "59.2,17.8833"
  },
  {
   "Name": "Tullinge",
   "Accuracy": 4,
   "LatLong": "59.2,17.8833"
  },
  {
   "Name": "Tullinge",
   "Accuracy": 4,
   "LatLong": "59.2,17.8833"
  },
  {
   "Name": "Tullinge",
   "Accuracy": 4,
   "LatLong": "59.2,17.8833"
  },
  {
   "Name": "Tullinge",
   "Accuracy": 4,
   "LatLong": "59.2,17.8833"
  },
  {
   "Name": "Tullinge",
   "Accuracy": 4,
   "LatLong": "59.2,17.8833"
  },
  {
   "Name": "Tullinge",
   "Accuracy": 4,
   "LatLong": "59.2,17.8833"
  },
  {
   "Name": "Tullinge",
   "Accuracy": 4,
   "LatLong": "59.2,17.8833"
  },
  {
   "Name": "Tullinge",
   "Accuracy": 4,
   "LatLong": "59.2,17.8833"
  },
  {
   "Name": "Tullinge",
   "Accuracy": 4,
   "LatLong": "59.2,17.8833"
  },
  {
   "Name": "Tullinge",
   "Accuracy": 4,
   "LatLong": "59.2,17.8833"
  },
  {
   "Name": "Tullinge",
   "Accuracy": 4,
   "LatLong": "59.2,17.8833"
  },
  {
   "Name": "Tullinge",
   "Accuracy": 4,
   "LatLong": "59.2,17.8833"
  },
  {
   "Name": "Tullinge",
   "Accuracy": 4,
   "LatLong": "59.2,17.8833"
  },
  {
   "Name": "Tullinge",
   "Accuracy": 4,
   "LatLong": "59.2,17.8833"
  },
  {
   "Name": "Tullinge",
   "Accuracy": 4,
   "LatLong": "59.2,17.8833"
  },
  {
   "Name": "Tumba",
   "Accuracy": 4,
   "LatLong": "59.1986,17.8332"
  },
  {
   "Name": "Tumba",
   "Accuracy": 4,
   "LatLong": "59.1986,17.8332"
  },
  {
   "Name": "Grödinge",
   "Accuracy": 1,
   "LatLong": "59.1986,17.8332"
  },
  {
   "Name": "Tumba",
   "Accuracy": 4,
   "LatLong": "59.1986,17.8332"
  },
  {
   "Name": "Tumba",
   "Accuracy": 4,
   "LatLong": "59.1986,17.8332"
  },
  {
   "Name": "Tumba",
   "Accuracy": 4,
   "LatLong": "59.1986,17.8332"
  },
  {
   "Name": "Tumba",
   "Accuracy": 4,
   "LatLong": "59.1986,17.8332"
  },
  {
   "Name": "Tumba",
   "Accuracy": 4,
   "LatLong": "59.1986,17.8332"
  },
  {
   "Name": "Tumba",
   "Accuracy": 4,
   "LatLong": "59.1986,17.8332"
  },
  {
   "Name": "Tumba",
   "Accuracy": 4,
   "LatLong": "59.1986,17.8332"
  },
  {
   "Name": "Tumba",
   "Accuracy": 4,
   "LatLong": "59.1986,17.8332"
  },
  {
   "Name": "Tumba",
   "Accuracy": 4,
   "LatLong": "59.1986,17.8332"
  },
  {
   "Name": "Tumba",
   "Accuracy": 4,
   "LatLong": "59.1986,17.8332"
  },
  {
   "Name": "Tumba",
   "Accuracy": 4,
   "LatLong": "59.1986,17.8332"
  },
  {
   "Name": "Tumba",
   "Accuracy": 4,
   "LatLong": "59.1986,17.8332"
  },
  {
   "Name": "Tumba",
   "Accuracy": 4,
   "LatLong": "59.1986,17.8332"
  },
  {
   "Name": "Tumba",
   "Accuracy": 4,
   "LatLong": "59.1986,17.8332"
  },
  {
   "Name": "Tumba",
   "Accuracy": 4,
   "LatLong": "59.1986,17.8332"
  },
  {
   "Name": "Tumba",
   "Accuracy": 4,
   "LatLong": "59.1986,17.8332"
  },
  {
   "Name": "Tumba",
   "Accuracy": 4,
   "LatLong": "59.1986,17.8332"
  },
  {
   "Name": "Tumba",
   "Accuracy": 4,
   "LatLong": "59.1986,17.8332"
  },
  {
   "Name": "Tumba",
   "Accuracy": 4,
   "LatLong": "59.1986,17.8332"
  },
  {
   "Name": "Tumba",
   "Accuracy": 4,
   "LatLong": "59.1986,17.8332"
  },
  {
   "Name": "Tumba",
   "Accuracy": 4,
   "LatLong": "59.1986,17.8332"
  },
  {
   "Name": "Uttran",
   "Accuracy": 4,
   "LatLong": "59.2,17.8"
  },
  {
   "Name": "Uttran",
   "Accuracy": 4,
   "LatLong": "59.2,17.8"
  },
  {
   "Name": "Uttran",
   "Accuracy": 4,
   "LatLong": "59.2,17.8"
  },
  {
   "Name": "Uttran",
   "Accuracy": 4,
   "LatLong": "59.2,17.8"
  },
  {
   "Name": "Grödinge",
   "Accuracy": 1,
   "LatLong": "59.1988,17.829"
  },
  {
   "Name": "Grödinge",
   "Accuracy": 1,
   "LatLong": "59.1988,17.829"
  },
  {
   "Name": "Tumba",
   "Accuracy": 4,
   "LatLong": "59.1986,17.8332"
  },
  {
   "Name": "Tumba",
   "Accuracy": 4,
   "LatLong": "59.1986,17.8332"
  },
  {
   "Name": "Tumba",
   "Accuracy": 4,
   "LatLong": "59.1986,17.8332"
  },
  {
   "Name": "Grödinge",
   "Accuracy": 1,
   "LatLong": "59.1988,17.829"
  },
  {
   "Name": "Rönninge",
   "Accuracy": 4,
   "LatLong": "59.2,17.7333"
  },
  {
   "Name": "Rönninge",
   "Accuracy": 4,
   "LatLong": "59.2,17.7333"
  },
  {
   "Name": "Rönninge",
   "Accuracy": 4,
   "LatLong": "59.2,17.7333"
  },
  {
   "Name": "Rönninge",
   "Accuracy": 4,
   "LatLong": "59.2,17.7333"
  },
  {
   "Name": "Rönninge",
   "Accuracy": 4,
   "LatLong": "59.2,17.7333"
  },
  {
   "Name": "Rönninge",
   "Accuracy": 4,
   "LatLong": "59.2,17.7333"
  },
  {
   "Name": "Rönninge",
   "Accuracy": 4,
   "LatLong": "59.2,17.7333"
  },
  {
   "Name": "Rönninge",
   "Accuracy": 4,
   "LatLong": "59.2,17.7333"
  },
  {
   "Name": "Rönninge",
   "Accuracy": 4,
   "LatLong": "59.2,17.7333"
  },
  {
   "Name": "Rönninge",
   "Accuracy": 4,
   "LatLong": "59.2,17.7333"
  },
  {
   "Name": "Rönninge",
   "Accuracy": 4,
   "LatLong": "59.2,17.7333"
  },
  {
   "Name": "Rönninge",
   "Accuracy": 4,
   "LatLong": "59.2,17.7333"
  },
  {
   "Name": "Rönninge",
   "Accuracy": 4,
   "LatLong": "59.2,17.7333"
  },
  {
   "Name": "Rönninge",
   "Accuracy": 4,
   "LatLong": "59.2,17.7333"
  },
  {
   "Name": "Rönninge",
   "Accuracy": 4,
   "LatLong": "59.2,17.7333"
  },
  {
   "Name": "Rönninge",
   "Accuracy": 4,
   "LatLong": "59.2,17.7333"
  },
  {
   "Name": "Rönninge",
   "Accuracy": 4,
   "LatLong": "59.2,17.7333"
  },
  {
   "Name": "Rönninge",
   "Accuracy": 4,
   "LatLong": "59.2,17.7333"
  },
  {
   "Name": "Dalarö",
   "Accuracy": 4,
   "LatLong": "59.1331,18.4064"
  },
  {
   "Name": "Ornö",
   "Accuracy": 4,
   "LatLong": "59.0544,18.4283"
  },
  {
   "Name": "Utö",
   "Accuracy": 4,
   "LatLong": "58.9667,18.3331"
  },
  {
   "Name": "Hårsfjärden",
   "Accuracy": 1,
   "LatLong": "59.2654,18.64"
  },
  {
   "Name": "Haninge",
   "Accuracy": 4,
   "LatLong": "59.1677,18.1448"
  },
  {
   "Name": "Haninge",
   "Accuracy": 4,
   "LatLong": "59.1677,18.1448"
  },
  {
   "Name": "Haninge",
   "Accuracy": 4,
   "LatLong": "59.1677,18.1448"
  },
  {
   "Name": "Haninge",
   "Accuracy": 4,
   "LatLong": "59.1677,18.1448"
  },
  {
   "Name": "Haninge",
   "Accuracy": 4,
   "LatLong": "59.1677,18.1448"
  },
  {
   "Name": "Haninge",
   "Accuracy": 4,
   "LatLong": "59.1677,18.1448"
  },
  {
   "Name": "Haninge",
   "Accuracy": 4,
   "LatLong": "59.1677,18.1448"
  },
  {
   "Name": "Haninge",
   "Accuracy": 4,
   "LatLong": "59.1677,18.1448"
  },
  {
   "Name": "Haninge",
   "Accuracy": 4,
   "LatLong": "59.1677,18.1448"
  },
  {
   "Name": "Haninge",
   "Accuracy": 4,
   "LatLong": "59.1677,18.1448"
  },
  {
   "Name": "Haninge",
   "Accuracy": 4,
   "LatLong": "59.1677,18.1448"
  },
  {
   "Name": "Haninge",
   "Accuracy": 4,
   "LatLong": "59.1677,18.1448"
  },
  {
   "Name": "Haninge",
   "Accuracy": 4,
   "LatLong": "59.1677,18.1448"
  },
  {
   "Name": "Haninge",
   "Accuracy": 4,
   "LatLong": "59.1677,18.1448"
  },
  {
   "Name": "Haninge",
   "Accuracy": 4,
   "LatLong": "59.1677,18.1448"
  },
  {
   "Name": "Haninge",
   "Accuracy": 4,
   "LatLong": "59.1677,18.1448"
  },
  {
   "Name": "Haninge",
   "Accuracy": 4,
   "LatLong": "59.1677,18.1448"
  },
  {
   "Name": "Haninge",
   "Accuracy": 4,
   "LatLong": "59.1677,18.1448"
  },
  {
   "Name": "Haninge",
   "Accuracy": 4,
   "LatLong": "59.1677,18.1448"
  },
  {
   "Name": "Haninge",
   "Accuracy": 4,
   "LatLong": "59.1677,18.1448"
  },
  {
   "Name": "Haninge",
   "Accuracy": 4,
   "LatLong": "59.1677,18.1448"
  },
  {
   "Name": "Haninge",
   "Accuracy": 4,
   "LatLong": "59.1677,18.1448"
  },
  {
   "Name": "Haninge",
   "Accuracy": 4,
   "LatLong": "59.1677,18.1448"
  },
  {
   "Name": "Haninge",
   "Accuracy": 4,
   "LatLong": "59.1677,18.1448"
  },
  {
   "Name": "Haninge",
   "Accuracy": 4,
   "LatLong": "59.1677,18.1448"
  },
  {
   "Name": "Haninge",
   "Accuracy": 4,
   "LatLong": "59.1677,18.1448"
  },
  {
   "Name": "Haninge",
   "Accuracy": 4,
   "LatLong": "59.1677,18.1448"
  },
  {
   "Name": "Haninge",
   "Accuracy": 4,
   "LatLong": "59.1677,18.1448"
  },
  {
   "Name": "Haninge",
   "Accuracy": 4,
   "LatLong": "59.1677,18.1448"
  },
  {
   "Name": "Haninge",
   "Accuracy": 4,
   "LatLong": "59.1677,18.1448"
  },
  {
   "Name": "Haninge",
   "Accuracy": 4,
   "LatLong": "59.1677,18.1448"
  },
  {
   "Name": "Haninge",
   "Accuracy": 4,
   "LatLong": "59.1677,18.1448"
  },
  {
   "Name": "Haninge",
   "Accuracy": 4,
   "LatLong": "59.1677,18.1448"
  },
  {
   "Name": "Haninge",
   "Accuracy": 4,
   "LatLong": "59.1677,18.1448"
  },
  {
   "Name": "Haninge",
   "Accuracy": 4,
   "LatLong": "59.1677,18.1448"
  },
  {
   "Name": "Haninge",
   "Accuracy": 4,
   "LatLong": "59.1677,18.1448"
  },
  {
   "Name": "Haninge",
   "Accuracy": 4,
   "LatLong": "59.1677,18.1448"
  },
  {
   "Name": "Haninge",
   "Accuracy": 4,
   "LatLong": "59.1677,18.1448"
  },
  {
   "Name": "Haninge",
   "Accuracy": 4,
   "LatLong": "59.1677,18.1448"
  },
  {
   "Name": "Haninge",
   "Accuracy": 4,
   "LatLong": "59.1677,18.1448"
  },
  {
   "Name": "Haninge",
   "Accuracy": 4,
   "LatLong": "59.1677,18.1448"
  },
  {
   "Name": "Haninge",
   "Accuracy": 4,
   "LatLong": "59.1677,18.1448"
  },
  {
   "Name": "Haninge",
   "Accuracy": 4,
   "LatLong": "59.1677,18.1448"
  },
  {
   "Name": "Haninge",
   "Accuracy": 4,
   "LatLong": "59.1677,18.1448"
  },
  {
   "Name": "Haninge",
   "Accuracy": 4,
   "LatLong": "59.1677,18.1448"
  },
  {
   "Name": "Haninge",
   "Accuracy": 4,
   "LatLong": "59.1677,18.1448"
  },
  {
   "Name": "Haninge",
   "Accuracy": 4,
   "LatLong": "59.1677,18.1448"
  },
  {
   "Name": "Haninge",
   "Accuracy": 4,
   "LatLong": "59.1677,18.1448"
  },
  {
   "Name": "Haninge",
   "Accuracy": 4,
   "LatLong": "59.1677,18.1448"
  },
  {
   "Name": "Haninge",
   "Accuracy": 4,
   "LatLong": "59.1677,18.1448"
  },
  {
   "Name": "Västerhaninge",
   "Accuracy": 4,
   "LatLong": "59.1167,18.1"
  },
  {
   "Name": "Tungelsta",
   "Accuracy": 4,
   "LatLong": "59.1,18.0331"
  },
  {
   "Name": "Västerhaninge",
   "Accuracy": 4,
   "LatLong": "59.1167,18.1"
  },
  {
   "Name": "Västerhaninge",
   "Accuracy": 4,
   "LatLong": "59.1167,18.1"
  },
  {
   "Name": "Västerhaninge",
   "Accuracy": 4,
   "LatLong": "59.1167,18.1"
  },
  {
   "Name": "Västerhaninge",
   "Accuracy": 4,
   "LatLong": "59.1167,18.1"
  },
  {
   "Name": "Västerhaninge",
   "Accuracy": 4,
   "LatLong": "59.1167,18.1"
  },
  {
   "Name": "Västerhaninge",
   "Accuracy": 4,
   "LatLong": "59.1167,18.1"
  },
  {
   "Name": "Västerhaninge",
   "Accuracy": 4,
   "LatLong": "59.1167,18.1"
  },
  {
   "Name": "Västerhaninge",
   "Accuracy": 4,
   "LatLong": "59.1167,18.1"
  },
  {
   "Name": "Västerhaninge",
   "Accuracy": 4,
   "LatLong": "59.1167,18.1"
  },
  {
   "Name": "Västerhaninge",
   "Accuracy": 4,
   "LatLong": "59.1167,18.1"
  },
  {
   "Name": "Västerhaninge",
   "Accuracy": 4,
   "LatLong": "59.1167,18.1"
  },
  {
   "Name": "Västerhaninge",
   "Accuracy": 4,
   "LatLong": "59.1167,18.1"
  },
  {
   "Name": "Tungelsta",
   "Accuracy": 4,
   "LatLong": "59.1,18.0331"
  },
  {
   "Name": "Tungelsta",
   "Accuracy": 4,
   "LatLong": "59.1,18.0331"
  },
  {
   "Name": "Tungelsta",
   "Accuracy": 4,
   "LatLong": "59.1,18.0331"
  },
  {
   "Name": "Tungelsta",
   "Accuracy": 4,
   "LatLong": "59.1,18.0331"
  },
  {
   "Name": "Västerhaninge",
   "Accuracy": 4,
   "LatLong": "59.1167,18.1"
  },
  {
   "Name": "Tungelsta",
   "Accuracy": 4,
   "LatLong": "59.1,18.0331"
  },
  {
   "Name": "Tungelsta",
   "Accuracy": 4,
   "LatLong": "59.1,18.0331"
  },
  {
   "Name": "Muskö",
   "Accuracy": 4,
   "LatLong": "58.9831,18.1331"
  },
  {
   "Name": "Muskö",
   "Accuracy": 4,
   "LatLong": "58.9831,18.1331"
  },
  {
   "Name": "Muskö",
   "Accuracy": 4,
   "LatLong": "58.9831,18.1331"
  },
  {
   "Name": "Tyresö",
   "Accuracy": 4,
   "LatLong": "59.2333,18.3"
  },
  {
   "Name": "Tyresö",
   "Accuracy": 4,
   "LatLong": "59.2333,18.3"
  },
  {
   "Name": "Tyresö",
   "Accuracy": 4,
   "LatLong": "59.2333,18.3"
  },
  {
   "Name": "Tyresö",
   "Accuracy": 4,
   "LatLong": "59.2333,18.3"
  },
  {
   "Name": "Tyresö",
   "Accuracy": 4,
   "LatLong": "59.2333,18.3"
  },
  {
   "Name": "Tyresö",
   "Accuracy": 4,
   "LatLong": "59.2333,18.3"
  },
  {
   "Name": "Tyresö",
   "Accuracy": 4,
   "LatLong": "59.2333,18.3"
  },
  {
   "Name": "Tyresö",
   "Accuracy": 4,
   "LatLong": "59.2333,18.3"
  },
  {
   "Name": "Tyresö",
   "Accuracy": 4,
   "LatLong": "59.2333,18.3"
  },
  {
   "Name": "Tyresö",
   "Accuracy": 4,
   "LatLong": "59.2333,18.3"
  },
  {
   "Name": "Tyresö",
   "Accuracy": 4,
   "LatLong": "59.2333,18.3"
  },
  {
   "Name": "Tyresö",
   "Accuracy": 4,
   "LatLong": "59.2333,18.3"
  },
  {
   "Name": "Tyresö",
   "Accuracy": 4,
   "LatLong": "59.2333,18.3"
  },
  {
   "Name": "Tyresö",
   "Accuracy": 4,
   "LatLong": "59.2333,18.3"
  },
  {
   "Name": "Tyresö",
   "Accuracy": 4,
   "LatLong": "59.2333,18.3"
  },
  {
   "Name": "Tyresö",
   "Accuracy": 4,
   "LatLong": "59.2333,18.3"
  },
  {
   "Name": "Tyresö",
   "Accuracy": 4,
   "LatLong": "59.2333,18.3"
  },
  {
   "Name": "Tyresö",
   "Accuracy": 4,
   "LatLong": "59.2333,18.3"
  },
  {
   "Name": "Tyresö",
   "Accuracy": 4,
   "LatLong": "59.2333,18.3"
  },
  {
   "Name": "Tyresö",
   "Accuracy": 4,
   "LatLong": "59.2333,18.3"
  },
  {
   "Name": "Tyresö",
   "Accuracy": 4,
   "LatLong": "59.2333,18.3"
  },
  {
   "Name": "Tyresö",
   "Accuracy": 4,
   "LatLong": "59.2333,18.3"
  },
  {
   "Name": "Tyresö",
   "Accuracy": 4,
   "LatLong": "59.2333,18.3"
  },
  {
   "Name": "Tyresö",
   "Accuracy": 4,
   "LatLong": "59.2333,18.3"
  },
  {
   "Name": "Tyresö",
   "Accuracy": 4,
   "LatLong": "59.2333,18.3"
  },
  {
   "Name": "Tyresö",
   "Accuracy": 4,
   "LatLong": "59.2333,18.3"
  },
  {
   "Name": "Tyresö",
   "Accuracy": 4,
   "LatLong": "59.2333,18.3"
  },
  {
   "Name": "Tyresö",
   "Accuracy": 4,
   "LatLong": "59.2333,18.3"
  },
  {
   "Name": "Tyresö",
   "Accuracy": 4,
   "LatLong": "59.2333,18.3"
  },
  {
   "Name": "Tyresö",
   "Accuracy": 4,
   "LatLong": "59.2333,18.3"
  },
  {
   "Name": "Tyresö",
   "Accuracy": 4,
   "LatLong": "59.2333,18.3"
  },
  {
   "Name": "Tyresö",
   "Accuracy": 4,
   "LatLong": "59.2333,18.3"
  },
  {
   "Name": "Tyresö",
   "Accuracy": 4,
   "LatLong": "59.2333,18.3"
  },
  {
   "Name": "Tyresö",
   "Accuracy": 4,
   "LatLong": "59.2333,18.3"
  },
  {
   "Name": "Tyresö",
   "Accuracy": 4,
   "LatLong": "59.2333,18.3"
  },
  {
   "Name": "Tyresö",
   "Accuracy": 4,
   "LatLong": "59.2333,18.3"
  },
  {
   "Name": "Tyresö",
   "Accuracy": 4,
   "LatLong": "59.2333,18.3"
  },
  {
   "Name": "Tyresö",
   "Accuracy": 4,
   "LatLong": "59.2333,18.3"
  },
  {
   "Name": "Tyresö",
   "Accuracy": 4,
   "LatLong": "59.2333,18.3"
  },
  {
   "Name": "Tyresö",
   "Accuracy": 4,
   "LatLong": "59.2333,18.3"
  },
  {
   "Name": "Tyresö",
   "Accuracy": 4,
   "LatLong": "59.2333,18.3"
  },
  {
   "Name": "Tyresö",
   "Accuracy": 4,
   "LatLong": "59.2333,18.3"
  },
  {
   "Name": "Tyresö",
   "Accuracy": 4,
   "LatLong": "59.2333,18.3"
  },
  {
   "Name": "Tyresö",
   "Accuracy": 4,
   "LatLong": "59.2333,18.3"
  },
  {
   "Name": "Tyresö",
   "Accuracy": 4,
   "LatLong": "59.2333,18.3"
  },
  {
   "Name": "Tyresö",
   "Accuracy": 4,
   "LatLong": "59.2333,18.3"
  },
  {
   "Name": "Nykvarn",
   "Accuracy": 4,
   "LatLong": "59.1833,17.4333"
  },
  {
   "Name": "Nykvarn",
   "Accuracy": 4,
   "LatLong": "59.1833,17.4333"
  },
  {
   "Name": "Nykvarn",
   "Accuracy": 4,
   "LatLong": "59.1833,17.4333"
  },
  {
   "Name": "Nykvarn",
   "Accuracy": 4,
   "LatLong": "59.1833,17.4333"
  },
  {
   "Name": "Nykvarn",
   "Accuracy": 4,
   "LatLong": "59.1833,17.4333"
  },
  {
   "Name": "Nykvarn",
   "Accuracy": 4,
   "LatLong": "59.1833,17.4333"
  },
  {
   "Name": "Nykvarn",
   "Accuracy": 4,
   "LatLong": "59.1833,17.4333"
  },
  {
   "Name": "Nykvarn",
   "Accuracy": 4,
   "LatLong": "59.1833,17.4333"
  },
  {
   "Name": "Nykvarn",
   "Accuracy": 4,
   "LatLong": "59.1833,17.4333"
  },
  {
   "Name": "Nykvarn",
   "Accuracy": 4,
   "LatLong": "59.1833,17.4333"
  },
  {
   "Name": "Nykvarn",
   "Accuracy": 4,
   "LatLong": "59.1833,17.4333"
  },
  {
   "Name": "Nykvarn",
   "Accuracy": 4,
   "LatLong": "59.1833,17.4333"
  },
  {
   "Name": "Nykvarn",
   "Accuracy": 4,
   "LatLong": "59.1833,17.4333"
  },
  {
   "Name": "Täby",
   "Accuracy": 4,
   "LatLong": "59.4439,18.0687"
  },
  {
   "Name": "Täby",
   "Accuracy": 4,
   "LatLong": "59.4439,18.0687"
  },
  {
   "Name": "Täby",
   "Accuracy": 4,
   "LatLong": "59.4439,18.0687"
  },
  {
   "Name": "Täby",
   "Accuracy": 4,
   "LatLong": "59.4439,18.0687"
  },
  {
   "Name": "Täby",
   "Accuracy": 4,
   "LatLong": "59.4439,18.0687"
  },
  {
   "Name": "Täby",
   "Accuracy": 4,
   "LatLong": "59.4439,18.0687"
  },
  {
   "Name": "Täby",
   "Accuracy": 4,
   "LatLong": "59.4439,18.0687"
  },
  {
   "Name": "Täby",
   "Accuracy": 4,
   "LatLong": "59.4439,18.0687"
  },
  {
   "Name": "Täby",
   "Accuracy": 4,
   "LatLong": "59.4439,18.0687"
  },
  {
   "Name": "Täby",
   "Accuracy": 4,
   "LatLong": "59.4439,18.0687"
  },
  {
   "Name": "Täby",
   "Accuracy": 4,
   "LatLong": "59.4439,18.0687"
  },
  {
   "Name": "Täby",
   "Accuracy": 4,
   "LatLong": "59.4439,18.0687"
  },
  {
   "Name": "Täby",
   "Accuracy": 4,
   "LatLong": "59.4439,18.0687"
  },
  {
   "Name": "Täby",
   "Accuracy": 4,
   "LatLong": "59.4439,18.0687"
  },
  {
   "Name": "Täby",
   "Accuracy": 4,
   "LatLong": "59.4439,18.0687"
  },
  {
   "Name": "Täby",
   "Accuracy": 4,
   "LatLong": "59.4439,18.0687"
  },
  {
   "Name": "Täby",
   "Accuracy": 4,
   "LatLong": "59.4439,18.0687"
  },
  {
   "Name": "Täby",
   "Accuracy": 4,
   "LatLong": "59.4439,18.0687"
  },
  {
   "Name": "Täby",
   "Accuracy": 4,
   "LatLong": "59.4439,18.0687"
  },
  {
   "Name": "Täby",
   "Accuracy": 4,
   "LatLong": "59.4439,18.0687"
  },
  {
   "Name": "Täby",
   "Accuracy": 4,
   "LatLong": "59.4439,18.0687"
  },
  {
   "Name": "Täby",
   "Accuracy": 4,
   "LatLong": "59.4439,18.0687"
  },
  {
   "Name": "Täby",
   "Accuracy": 4,
   "LatLong": "59.4439,18.0687"
  },
  {
   "Name": "Täby",
   "Accuracy": 4,
   "LatLong": "59.4439,18.0687"
  },
  {
   "Name": "Täby",
   "Accuracy": 4,
   "LatLong": "59.4439,18.0687"
  },
  {
   "Name": "Täby",
   "Accuracy": 4,
   "LatLong": "59.4439,18.0687"
  },
  {
   "Name": "Täby",
   "Accuracy": 4,
   "LatLong": "59.4439,18.0687"
  },
  {
   "Name": "Täby",
   "Accuracy": 4,
   "LatLong": "59.4439,18.0687"
  },
  {
   "Name": "Täby",
   "Accuracy": 4,
   "LatLong": "59.4439,18.0687"
  },
  {
   "Name": "Täby",
   "Accuracy": 4,
   "LatLong": "59.4439,18.0687"
  },
  {
   "Name": "Täby",
   "Accuracy": 4,
   "LatLong": "59.4439,18.0687"
  },
  {
   "Name": "Täby",
   "Accuracy": 4,
   "LatLong": "59.4439,18.0687"
  },
  {
   "Name": "Täby",
   "Accuracy": 4,
   "LatLong": "59.4439,18.0687"
  },
  {
   "Name": "Täby",
   "Accuracy": 4,
   "LatLong": "59.4439,18.0687"
  },
  {
   "Name": "Täby",
   "Accuracy": 4,
   "LatLong": "59.4439,18.0687"
  },
  {
   "Name": "Täby",
   "Accuracy": 4,
   "LatLong": "59.4439,18.0687"
  },
  {
   "Name": "Täby",
   "Accuracy": 4,
   "LatLong": "59.4439,18.0687"
  },
  {
   "Name": "Täby",
   "Accuracy": 4,
   "LatLong": "59.4439,18.0687"
  },
  {
   "Name": "Täby",
   "Accuracy": 4,
   "LatLong": "59.4439,18.0687"
  },
  {
   "Name": "Täby",
   "Accuracy": 4,
   "LatLong": "59.4439,18.0687"
  },
  {
   "Name": "Täby",
   "Accuracy": 4,
   "LatLong": "59.4439,18.0687"
  },
  {
   "Name": "Täby",
   "Accuracy": 4,
   "LatLong": "59.4439,18.0687"
  },
  {
   "Name": "Täby",
   "Accuracy": 4,
   "LatLong": "59.4439,18.0687"
  },
  {
   "Name": "Täby",
   "Accuracy": 4,
   "LatLong": "59.4439,18.0687"
  },
  {
   "Name": "Täby",
   "Accuracy": 4,
   "LatLong": "59.4439,18.0687"
  },
  {
   "Name": "Täby",
   "Accuracy": 4,
   "LatLong": "59.4439,18.0687"
  },
  {
   "Name": "Täby",
   "Accuracy": 4,
   "LatLong": "59.4439,18.0687"
  },
  {
   "Name": "Täby",
   "Accuracy": 4,
   "LatLong": "59.4439,18.0687"
  },
  {
   "Name": "Täby",
   "Accuracy": 4,
   "LatLong": "59.4439,18.0687"
  },
  {
   "Name": "Täby",
   "Accuracy": 4,
   "LatLong": "59.4439,18.0687"
  },
  {
   "Name": "Täby",
   "Accuracy": 4,
   "LatLong": "59.4439,18.0687"
  },
  {
   "Name": "Täby",
   "Accuracy": 4,
   "LatLong": "59.4439,18.0687"
  },
  {
   "Name": "Täby",
   "Accuracy": 4,
   "LatLong": "59.4439,18.0687"
  },
  {
   "Name": "Täby",
   "Accuracy": 4,
   "LatLong": "59.4439,18.0687"
  },
  {
   "Name": "Täby",
   "Accuracy": 4,
   "LatLong": "59.4439,18.0687"
  },
  {
   "Name": "Täby",
   "Accuracy": 4,
   "LatLong": "59.4439,18.0687"
  },
  {
   "Name": "Täby",
   "Accuracy": 4,
   "LatLong": "59.4439,18.0687"
  },
  {
   "Name": "Täby",
   "Accuracy": 4,
   "LatLong": "59.4439,18.0687"
  },
  {
   "Name": "Täby",
   "Accuracy": 4,
   "LatLong": "59.4439,18.0687"
  },
  {
   "Name": "Täby",
   "Accuracy": 4,
   "LatLong": "59.4439,18.0687"
  },
  {
   "Name": "Täby",
   "Accuracy": 4,
   "LatLong": "59.4439,18.0687"
  },
  {
   "Name": "Täby",
   "Accuracy": 4,
   "LatLong": "59.4439,18.0687"
  },
  {
   "Name": "Täby",
   "Accuracy": 4,
   "LatLong": "59.4439,18.0687"
  },
  {
   "Name": "Täby",
   "Accuracy": 4,
   "LatLong": "59.4439,18.0687"
  },
  {
   "Name": "Täby",
   "Accuracy": 4,
   "LatLong": "59.4439,18.0687"
  },
  {
   "Name": "Danderyd",
   "Accuracy": 4,
   "LatLong": "59.3987,18.0294"
  },
  {
   "Name": "Danderyd",
   "Accuracy": 4,
   "LatLong": "59.3987,18.0294"
  },
  {
   "Name": "Danderyd",
   "Accuracy": 4,
   "LatLong": "59.3987,18.0294"
  },
  {
   "Name": "Danderyd",
   "Accuracy": 4,
   "LatLong": "59.3987,18.0294"
  },
  {
   "Name": "Enebyberg",
   "Accuracy": 4,
   "LatLong": "59.4333,18.05"
  },
  {
   "Name": "Djursholm",
   "Accuracy": 4,
   "LatLong": "59.3993,18.0562"
  },
  {
   "Name": "Djursholm",
   "Accuracy": 4,
   "LatLong": "59.3993,18.0562"
  },
  {
   "Name": "Stocksund",
   "Accuracy": 4,
   "LatLong": "59.3833,18.0667"
  },
  {
   "Name": "Stocksund",
   "Accuracy": 4,
   "LatLong": "59.3833,18.0667"
  },
  {
   "Name": "Danderyd",
   "Accuracy": 4,
   "LatLong": "59.3987,18.0294"
  },
  {
   "Name": "Danderyd",
   "Accuracy": 4,
   "LatLong": "59.3987,18.0294"
  },
  {
   "Name": "Danderyd",
   "Accuracy": 4,
   "LatLong": "59.3987,18.0294"
  },
  {
   "Name": "Danderyd",
   "Accuracy": 4,
   "LatLong": "59.3987,18.0294"
  },
  {
   "Name": "Danderyd",
   "Accuracy": 4,
   "LatLong": "59.3987,18.0294"
  },
  {
   "Name": "Danderyd",
   "Accuracy": 4,
   "LatLong": "59.3987,18.0294"
  },
  {
   "Name": "Danderyd",
   "Accuracy": 4,
   "LatLong": "59.3987,18.0294"
  },
  {
   "Name": "Danderyd",
   "Accuracy": 4,
   "LatLong": "59.3987,18.0294"
  },
  {
   "Name": "Danderyd",
   "Accuracy": 4,
   "LatLong": "59.3987,18.0294"
  },
  {
   "Name": "Danderyd",
   "Accuracy": 4,
   "LatLong": "59.3987,18.0294"
  },
  {
   "Name": "Danderyd",
   "Accuracy": 4,
   "LatLong": "59.3987,18.0294"
  },
  {
   "Name": "Danderyd",
   "Accuracy": 4,
   "LatLong": "59.3987,18.0294"
  },
  {
   "Name": "Danderyd",
   "Accuracy": 4,
   "LatLong": "59.3987,18.0294"
  },
  {
   "Name": "Danderyd",
   "Accuracy": 4,
   "LatLong": "59.3987,18.0294"
  },
  {
   "Name": "Danderyd",
   "Accuracy": 4,
   "LatLong": "59.3987,18.0294"
  },
  {
   "Name": "Danderyd",
   "Accuracy": 4,
   "LatLong": "59.3987,18.0294"
  },
  {
   "Name": "Enebyberg",
   "Accuracy": 4,
   "LatLong": "59.4333,18.05"
  },
  {
   "Name": "Enebyberg",
   "Accuracy": 4,
   "LatLong": "59.4333,18.05"
  },
  {
   "Name": "Enebyberg",
   "Accuracy": 4,
   "LatLong": "59.4333,18.05"
  },
  {
   "Name": "Enebyberg",
   "Accuracy": 4,
   "LatLong": "59.4333,18.05"
  },
  {
   "Name": "Enebyberg",
   "Accuracy": 4,
   "LatLong": "59.4333,18.05"
  },
  {
   "Name": "Danderyd",
   "Accuracy": 4,
   "LatLong": "59.3987,18.0294"
  },
  {
   "Name": "Danderyd",
   "Accuracy": 4,
   "LatLong": "59.3987,18.0294"
  },
  {
   "Name": "Danderyd",
   "Accuracy": 4,
   "LatLong": "59.3987,18.0294"
  },
  {
   "Name": "Djursholm",
   "Accuracy": 4,
   "LatLong": "59.3993,18.0562"
  },
  {
   "Name": "Djursholm",
   "Accuracy": 4,
   "LatLong": "59.3993,18.0562"
  },
  {
   "Name": "Danderyd",
   "Accuracy": 4,
   "LatLong": "59.3987,18.0294"
  },
  {
   "Name": "Danderyd",
   "Accuracy": 4,
   "LatLong": "59.3987,18.0294"
  },
  {
   "Name": "Djursholm",
   "Accuracy": 4,
   "LatLong": "59.3993,18.0562"
  },
  {
   "Name": "Djursholm",
   "Accuracy": 4,
   "LatLong": "59.3993,18.0562"
  },
  {
   "Name": "Djursholm",
   "Accuracy": 4,
   "LatLong": "59.3993,18.0562"
  },
  {
   "Name": "Djursholm",
   "Accuracy": 4,
   "LatLong": "59.3993,18.0562"
  },
  {
   "Name": "Djursholm",
   "Accuracy": 4,
   "LatLong": "59.3993,18.0562"
  },
  {
   "Name": "Djursholm",
   "Accuracy": 4,
   "LatLong": "59.3993,18.0562"
  },
  {
   "Name": "Djursholm",
   "Accuracy": 4,
   "LatLong": "59.3993,18.0562"
  },
  {
   "Name": "Djursholm",
   "Accuracy": 4,
   "LatLong": "59.3993,18.0562"
  },
  {
   "Name": "Djursholm",
   "Accuracy": 4,
   "LatLong": "59.3993,18.0562"
  },
  {
   "Name": "Djursholm",
   "Accuracy": 4,
   "LatLong": "59.3993,18.0562"
  },
  {
   "Name": "Stocksund",
   "Accuracy": 4,
   "LatLong": "59.3833,18.0667"
  },
  {
   "Name": "Stocksund",
   "Accuracy": 4,
   "LatLong": "59.3833,18.0667"
  },
  {
   "Name": "Stocksund",
   "Accuracy": 4,
   "LatLong": "59.3833,18.0667"
  },
  {
   "Name": "Stocksund",
   "Accuracy": 4,
   "LatLong": "59.3833,18.0667"
  },
  {
   "Name": "Stocksund",
   "Accuracy": 4,
   "LatLong": "59.3833,18.0667"
  },
  {
   "Name": "Stocksund",
   "Accuracy": 4,
   "LatLong": "59.3833,18.0667"
  },
  {
   "Name": "Stocksund",
   "Accuracy": 4,
   "LatLong": "59.3833,18.0667"
  },
  {
   "Name": "Stocksund",
   "Accuracy": 4,
   "LatLong": "59.3833,18.0667"
  },
  {
   "Name": "Danderyd",
   "Accuracy": 4,
   "LatLong": "59.3987,18.0294"
  },
  {
   "Name": "Danderyd",
   "Accuracy": 4,
   "LatLong": "59.3987,18.0294"
  },
  {
   "Name": "Danderyd",
   "Accuracy": 4,
   "LatLong": "59.3987,18.0294"
  },
  {
   "Name": "Stockholm",
   "Accuracy": 4,
   "LatLong": "59.3326,18.0649"
  },
  {
   "Name": "Stockholm",
   "Accuracy": 4,
   "LatLong": "59.3326,18.0649"
  },
  {
   "Name": "Stockholm",
   "Accuracy": 4,
   "LatLong": "59.3326,18.0649"
  },
  {
   "Name": "Stockholm",
   "Accuracy": 4,
   "LatLong": "59.3326,18.0649"
  },
  {
   "Name": "Stockholm",
   "Accuracy": 4,
   "LatLong": "59.3326,18.0649"
  },
  {
   "Name": "Stockholm",
   "Accuracy": 4,
   "LatLong": "59.3326,18.0649"
  },
  {
   "Name": "Stockholm",
   "Accuracy": 4,
   "LatLong": "59.3326,18.0649"
  },
  {
   "Name": "Stockholm",
   "Accuracy": 4,
   "LatLong": "59.3326,18.0649"
  },
  {
   "Name": "Stockholm",
   "Accuracy": 4,
   "LatLong": "59.3326,18.0649"
  },
  {
   "Name": "Stockholm",
   "Accuracy": 4,
   "LatLong": "59.3326,18.0649"
  },
  {
   "Name": "Stockholm",
   "Accuracy": 4,
   "LatLong": "59.3326,18.0649"
  },
  {
   "Name": "Stockholm",
   "Accuracy": 4,
   "LatLong": "59.3326,18.0649"
  },
  {
   "Name": "Stockholm",
   "Accuracy": 4,
   "LatLong": "59.3326,18.0649"
  },
  {
   "Name": "Stockholm",
   "Accuracy": 4,
   "LatLong": "59.3326,18.0649"
  },
  {
   "Name": "Stockholm",
   "Accuracy": 4,
   "LatLong": "59.3326,18.0649"
  },
  {
   "Name": "Stockholm",
   "Accuracy": 4,
   "LatLong": "59.3326,18.0649"
  },
  {
   "Name": "Stockholm",
   "Accuracy": 4,
   "LatLong": "59.3326,18.0649"
  },
  {
   "Name": "Stockholm",
   "Accuracy": 4,
   "LatLong": "59.3326,18.0649"
  },
  {
   "Name": "Stockholm",
   "Accuracy": 4,
   "LatLong": "59.3326,18.0649"
  },
  {
   "Name": "Stockholm",
   "Accuracy": 4,
   "LatLong": "59.3326,18.0649"
  },
  {
   "Name": "Stockholm",
   "Accuracy": 4,
   "LatLong": "59.3326,18.0649"
  },
  {
   "Name": "Stockholm",
   "Accuracy": 4,
   "LatLong": "59.3326,18.0649"
  },
  {
   "Name": "Stockholm",
   "Accuracy": 4,
   "LatLong": "59.3326,18.0649"
  },
  {
   "Name": "Stockholm",
   "Accuracy": 4,
   "LatLong": "59.3326,18.0649"
  },
  {
   "Name": "Stockholm",
   "Accuracy": 4,
   "LatLong": "59.3326,18.0649"
  },
  {
   "Name": "Stockholm",
   "Accuracy": 4,
   "LatLong": "59.3326,18.0649"
  },
  {
   "Name": "Stockholm",
   "Accuracy": 4,
   "LatLong": "59.3326,18.0649"
  },
  {
   "Name": "Stockholm",
   "Accuracy": 4,
   "LatLong": "59.3326,18.0649"
  },
  {
   "Name": "Stockholm",
   "Accuracy": 4,
   "LatLong": "59.3326,18.0649"
  },
  {
   "Name": "Stockholm",
   "Accuracy": 4,
   "LatLong": "59.3326,18.0649"
  },
  {
   "Name": "Stockholm",
   "Accuracy": 4,
   "LatLong": "59.3326,18.0649"
  },
  {
   "Name": "Stockholm",
   "Accuracy": 4,
   "LatLong": "59.3326,18.0649"
  },
  {
   "Name": "Stockholm",
   "Accuracy": 4,
   "LatLong": "59.3326,18.0649"
  },
  {
   "Name": "Stockholm",
   "Accuracy": 4,
   "LatLong": "59.3326,18.0649"
  },
  {
   "Name": "Stockholm",
   "Accuracy": 4,
   "LatLong": "59.3326,18.0649"
  },
  {
   "Name": "Stockholm",
   "Accuracy": 4,
   "LatLong": "59.3326,18.0649"
  },
  {
   "Name": "Stockholm",
   "Accuracy": 4,
   "LatLong": "59.3326,18.0649"
  },
  {
   "Name": "Stockholm",
   "Accuracy": 4,
   "LatLong": "59.3326,18.0649"
  },
  {
   "Name": "Stockholm",
   "Accuracy": 4,
   "LatLong": "59.3326,18.0649"
  },
  {
   "Name": "Stockholm",
   "Accuracy": 4,
   "LatLong": "59.3326,18.0649"
  },
  {
   "Name": "Stockholm",
   "Accuracy": 4,
   "LatLong": "59.3326,18.0649"
  },
  {
   "Name": "Stockholm",
   "Accuracy": 4,
   "LatLong": "59.3326,18.0649"
  },
  {
   "Name": "Stockholm",
   "Accuracy": 4,
   "LatLong": "59.3326,18.0649"
  },
  {
   "Name": "Stockholm",
   "Accuracy": 4,
   "LatLong": "59.3326,18.0649"
  },
  {
   "Name": "Stockholm",
   "Accuracy": 4,
   "LatLong": "59.3326,18.0649"
  },
  {
   "Name": "Stockholm",
   "Accuracy": 4,
   "LatLong": "59.3326,18.0649"
  },
  {
   "Name": "Stockholm",
   "Accuracy": 4,
   "LatLong": "59.3326,18.0649"
  },
  {
   "Name": "Stockholm",
   "Accuracy": 4,
   "LatLong": "59.3326,18.0649"
  },
  {
   "Name": "Stockholm",
   "Accuracy": 4,
   "LatLong": "59.3326,18.0649"
  },
  {
   "Name": "Stockholm",
   "Accuracy": 4,
   "LatLong": "59.3326,18.0649"
  },
  {
   "Name": "Stockholm",
   "Accuracy": 4,
   "LatLong": "59.3326,18.0649"
  },
  {
   "Name": "Stockholm",
   "Accuracy": 4,
   "LatLong": "59.3326,18.0649"
  },
  {
   "Name": "Stockholm",
   "Accuracy": 4,
   "LatLong": "59.3326,18.0649"
  },
  {
   "Name": "Stockholm",
   "Accuracy": 4,
   "LatLong": "59.3326,18.0649"
  },
  {
   "Name": "Stockholm",
   "Accuracy": 4,
   "LatLong": "59.3326,18.0649"
  },
  {
   "Name": "Stockholm",
   "Accuracy": 4,
   "LatLong": "59.3326,18.0649"
  },
  {
   "Name": "Stockholm",
   "Accuracy": 4,
   "LatLong": "59.3326,18.0649"
  },
  {
   "Name": "Stockholm",
   "Accuracy": 4,
   "LatLong": "59.3326,18.0649"
  },
  {
   "Name": "Stockholm",
   "Accuracy": 4,
   "LatLong": "59.3326,18.0649"
  },
  {
   "Name": "Stockholm",
   "Accuracy": 4,
   "LatLong": "59.3326,18.0649"
  },
  {
   "Name": "Stockholm",
   "Accuracy": 4,
   "LatLong": "59.3326,18.0649"
  },
  {
   "Name": "Stockholm",
   "Accuracy": 4,
   "LatLong": "59.3326,18.0649"
  },
  {
   "Name": "Stockholm",
   "Accuracy": 4,
   "LatLong": "59.3326,18.0649"
  },
  {
   "Name": "Stockholm",
   "Accuracy": 4,
   "LatLong": "59.3326,18.0649"
  },
  {
   "Name": "Stockholm",
   "Accuracy": 4,
   "LatLong": "59.3326,18.0649"
  },
  {
   "Name": "Stockholm",
   "Accuracy": 4,
   "LatLong": "59.3326,18.0649"
  },
  {
   "Name": "Stockholm",
   "Accuracy": 4,
   "LatLong": "59.3326,18.0649"
  },
  {
   "Name": "Stockholm",
   "Accuracy": 4,
   "LatLong": "59.3326,18.0649"
  },
  {
   "Name": "Stockholm",
   "Accuracy": 4,
   "LatLong": "59.3326,18.0649"
  },
  {
   "Name": "Stockholm",
   "Accuracy": 4,
   "LatLong": "59.3326,18.0649"
  },
  {
   "Name": "Stockholm",
   "Accuracy": 4,
   "LatLong": "59.3326,18.0649"
  },
  {
   "Name": "Stockholm",
   "Accuracy": 4,
   "LatLong": "59.3326,18.0649"
  },
  {
   "Name": "Stockholm",
   "Accuracy": 4,
   "LatLong": "59.3326,18.0649"
  },
  {
   "Name": "Stockholm",
   "Accuracy": 4,
   "LatLong": "59.3326,18.0649"
  },
  {
   "Name": "Stockholm",
   "Accuracy": 4,
   "LatLong": "59.3326,18.0649"
  },
  {
   "Name": "Stockholm",
   "Accuracy": 4,
   "LatLong": "59.3326,18.0649"
  },
  {
   "Name": "Stockholm",
   "Accuracy": 4,
   "LatLong": "59.3326,18.0649"
  },
  {
   "Name": "Stockholm",
   "Accuracy": 4,
   "LatLong": "59.3326,18.0649"
  },
  {
   "Name": "Stockholm",
   "Accuracy": 4,
   "LatLong": "59.3326,18.0649"
  },
  {
   "Name": "Stockholm",
   "Accuracy": 4,
   "LatLong": "59.3326,18.0649"
  },
  {
   "Name": "Stockholm",
   "Accuracy": 4,
   "LatLong": "59.3326,18.0649"
  },
  {
   "Name": "Stockholm",
   "Accuracy": 4,
   "LatLong": "59.3326,18.0649"
  },
  {
   "Name": "Stockholm",
   "Accuracy": 4,
   "LatLong": "59.3326,18.0649"
  },
  {
   "Name": "Stockholm",
   "Accuracy": 4,
   "LatLong": "59.3326,18.0649"
  },
  {
   "Name": "Stockholm",
   "Accuracy": 4,
   "LatLong": "59.3326,18.0649"
  },
  {
   "Name": "Stockholm",
   "Accuracy": 4,
   "LatLong": "59.3326,18.0649"
  },
  {
   "Name": "Stockholm",
   "Accuracy": 4,
   "LatLong": "59.3326,18.0649"
  },
  {
   "Name": "Stockholm",
   "Accuracy": 4,
   "LatLong": "59.3326,18.0649"
  },
  {
   "Name": "Stockholm",
   "Accuracy": 4,
   "LatLong": "59.3326,18.0649"
  },
  {
   "Name": "Stockholm",
   "Accuracy": 4,
   "LatLong": "59.3326,18.0649"
  },
  {
   "Name": "Stockholm",
   "Accuracy": 4,
   "LatLong": "59.3326,18.0649"
  },
  {
   "Name": "Stockholm",
   "Accuracy": 4,
   "LatLong": "59.3326,18.0649"
  },
  {
   "Name": "Stockholm",
   "Accuracy": 4,
   "LatLong": "59.3326,18.0649"
  },
  {
   "Name": "Stockholm",
   "Accuracy": 4,
   "LatLong": "59.3326,18.0649"
  },
  {
   "Name": "Stockholm",
   "Accuracy": 4,
   "LatLong": "59.3326,18.0649"
  },
  {
   "Name": "Stockholm",
   "Accuracy": 4,
   "LatLong": "59.3326,18.0649"
  },
  {
   "Name": "Stockholm",
   "Accuracy": 4,
   "LatLong": "59.3326,18.0649"
  },
  {
   "Name": "Stockholm",
   "Accuracy": 4,
   "LatLong": "59.3326,18.0649"
  },
  {
   "Name": "Stockholm",
   "Accuracy": 4,
   "LatLong": "59.3326,18.0649"
  },
  {
   "Name": "Stockholm",
   "Accuracy": 4,
   "LatLong": "59.3326,18.0649"
  },
  {
   "Name": "Stockholm",
   "Accuracy": 4,
   "LatLong": "59.3326,18.0649"
  },
  {
   "Name": "Stockholm",
   "Accuracy": 4,
   "LatLong": "59.3326,18.0649"
  },
  {
   "Name": "Stockholm",
   "Accuracy": 4,
   "LatLong": "59.3326,18.0649"
  },
  {
   "Name": "Stockholm",
   "Accuracy": 4,
   "LatLong": "59.3326,18.0649"
  },
  {
   "Name": "Stockholm",
   "Accuracy": 4,
   "LatLong": "59.3326,18.0649"
  },
  {
   "Name": "Stockholm",
   "Accuracy": 4,
   "LatLong": "59.3326,18.0649"
  },
  {
   "Name": "Stockholm",
   "Accuracy": 4,
   "LatLong": "59.3326,18.0649"
  },
  {
   "Name": "Stockholm",
   "Accuracy": 4,
   "LatLong": "59.3326,18.0649"
  },
  {
   "Name": "Stockholm",
   "Accuracy": 4,
   "LatLong": "59.3326,18.0649"
  },
  {
   "Name": "Stockholm",
   "Accuracy": 4,
   "LatLong": "59.3326,18.0649"
  },
  {
   "Name": "Stockholm",
   "Accuracy": 4,
   "LatLong": "59.3326,18.0649"
  },
  {
   "Name": "Stockholm",
   "Accuracy": 4,
   "LatLong": "59.3326,18.0649"
  },
  {
   "Name": "Stockholm",
   "Accuracy": 4,
   "LatLong": "59.3326,18.0649"
  },
  {
   "Name": "Stockholm",
   "Accuracy": 4,
   "LatLong": "59.3326,18.0649"
  },
  {
   "Name": "Stockholm",
   "Accuracy": 4,
   "LatLong": "59.3326,18.0649"
  },
  {
   "Name": "Stockholm",
   "Accuracy": 4,
   "LatLong": "59.3326,18.0649"
  },
  {
   "Name": "Stockholm",
   "Accuracy": 4,
   "LatLong": "59.3326,18.0649"
  },
  {
   "Name": "Stockholm",
   "Accuracy": 4,
   "LatLong": "59.3326,18.0649"
  },
  {
   "Name": "Stockholm",
   "Accuracy": 4,
   "LatLong": "59.3326,18.0649"
  },
  {
   "Name": "Stockholm",
   "Accuracy": 4,
   "LatLong": "59.3326,18.0649"
  },
  {
   "Name": "Stockholm",
   "Accuracy": 4,
   "LatLong": "59.3326,18.0649"
  },
  {
   "Name": "Stockholm",
   "Accuracy": 4,
   "LatLong": "59.3326,18.0649"
  },
  {
   "Name": "Stockholm",
   "Accuracy": 4,
   "LatLong": "59.3326,18.0649"
  },
  {
   "Name": "Stockholm",
   "Accuracy": 4,
   "LatLong": "59.3326,18.0649"
  },
  {
   "Name": "Stockholm",
   "Accuracy": 4,
   "LatLong": "59.3326,18.0649"
  },
  {
   "Name": "Stockholm",
   "Accuracy": 4,
   "LatLong": "59.3326,18.0649"
  },
  {
   "Name": "Stockholm",
   "Accuracy": 4,
   "LatLong": "59.3326,18.0649"
  },
  {
   "Name": "Stockholm",
   "Accuracy": 4,
   "LatLong": "59.3326,18.0649"
  },
  {
   "Name": "Stockholm",
   "Accuracy": 4,
   "LatLong": "59.3326,18.0649"
  },
  {
   "Name": "Stockholm",
   "Accuracy": 4,
   "LatLong": "59.3326,18.0649"
  },
  {
   "Name": "Stockholm",
   "Accuracy": 4,
   "LatLong": "59.3326,18.0649"
  },
  {
   "Name": "Stockholm",
   "Accuracy": 4,
   "LatLong": "59.3326,18.0649"
  },
  {
   "Name": "Stockholm",
   "Accuracy": 4,
   "LatLong": "59.3326,18.0649"
  },
  {
   "Name": "Stockholm",
   "Accuracy": 4,
   "LatLong": "59.3326,18.0649"
  },
  {
   "Name": "Stockholm",
   "Accuracy": 4,
   "LatLong": "59.3326,18.0649"
  },
  {
   "Name": "Stockholm",
   "Accuracy": 4,
   "LatLong": "59.3326,18.0649"
  },
  {
   "Name": "Stockholm",
   "Accuracy": 4,
   "LatLong": "59.3326,18.0649"
  },
  {
   "Name": "Stockholm",
   "Accuracy": 4,
   "LatLong": "59.3326,18.0649"
  },
  {
   "Name": "Stockholm",
   "Accuracy": 4,
   "LatLong": "59.3326,18.0649"
  },
  {
   "Name": "Stockholm",
   "Accuracy": 4,
   "LatLong": "59.3326,18.0649"
  },
  {
   "Name": "Stockholm",
   "Accuracy": 4,
   "LatLong": "59.3326,18.0649"
  },
  {
   "Name": "Stockholm",
   "Accuracy": 4,
   "LatLong": "59.3326,18.0649"
  },
  {
   "Name": "Stockholm",
   "Accuracy": 4,
   "LatLong": "59.3326,18.0649"
  },
  {
   "Name": "Stockholm",
   "Accuracy": 4,
   "LatLong": "59.3326,18.0649"
  },
  {
   "Name": "Stockholm",
   "Accuracy": 4,
   "LatLong": "59.3326,18.0649"
  },
  {
   "Name": "Stockholm",
   "Accuracy": 4,
   "LatLong": "59.3326,18.0649"
  },
  {
   "Name": "Stockholm",
   "Accuracy": 4,
   "LatLong": "59.3326,18.0649"
  },
  {
   "Name": "Stockholm",
   "Accuracy": 4,
   "LatLong": "59.3326,18.0649"
  },
  {
   "Name": "Stockholm",
   "Accuracy": 4,
   "LatLong": "59.3326,18.0649"
  },
  {
   "Name": "Stockholm",
   "Accuracy": 4,
   "LatLong": "59.3326,18.0649"
  },
  {
   "Name": "Stockholm",
   "Accuracy": 4,
   "LatLong": "59.3326,18.0649"
  },
  {
   "Name": "Stockholm",
   "Accuracy": 4,
   "LatLong": "59.3326,18.0649"
  },
  {
   "Name": "Stockholm",
   "Accuracy": 4,
   "LatLong": "59.3326,18.0649"
  },
  {
   "Name": "Stockholm",
   "Accuracy": 4,
   "LatLong": "59.3326,18.0649"
  },
  {
   "Name": "Stockholm",
   "Accuracy": 4,
   "LatLong": "59.3326,18.0649"
  },
  {
   "Name": "Stockholm",
   "Accuracy": 4,
   "LatLong": "59.3326,18.0649"
  },
  {
   "Name": "Stockholm",
   "Accuracy": 4,
   "LatLong": "59.3326,18.0649"
  },
  {
   "Name": "Stockholm",
   "Accuracy": 4,
   "LatLong": "59.3326,18.0649"
  },
  {
   "Name": "Stockholm",
   "Accuracy": 4,
   "LatLong": "59.3326,18.0649"
  },
  {
   "Name": "Stockholm",
   "Accuracy": 4,
   "LatLong": "59.3326,18.0649"
  },
  {
   "Name": "Stockholm",
   "Accuracy": 4,
   "LatLong": "59.3326,18.0649"
  },
  {
   "Name": "Stockholm",
   "Accuracy": 4,
   "LatLong": "59.3326,18.0649"
  },
  {
   "Name": "Stockholm",
   "Accuracy": 4,
   "LatLong": "59.3326,18.0649"
  },
  {
   "Name": "Stockholm",
   "Accuracy": 4,
   "LatLong": "59.3326,18.0649"
  },
  {
   "Name": "Stockholm",
   "Accuracy": 4,
   "LatLong": "59.3326,18.0649"
  },
  {
   "Name": "Stockholm",
   "Accuracy": 4,
   "LatLong": "59.3326,18.0649"
  },
  {
   "Name": "Stockholm",
   "Accuracy": 4,
   "LatLong": "59.3326,18.0649"
  },
  {
   "Name": "Stockholm",
   "Accuracy": 4,
   "LatLong": "59.3326,18.0649"
  },
  {
   "Name": "Stockholm",
   "Accuracy": 4,
   "LatLong": "59.3326,18.0649"
  },
  {
   "Name": "Stockholm",
   "Accuracy": 4,
   "LatLong": "59.3326,18.0649"
  },
  {
   "Name": "Stockholm",
   "Accuracy": 4,
   "LatLong": "59.3326,18.0649"
  },
  {
   "Name": "Stockholm",
   "Accuracy": 4,
   "LatLong": "59.3326,18.0649"
  },
  {
   "Name": "Stockholm",
   "Accuracy": 4,
   "LatLong": "59.3326,18.0649"
  },
  {
   "Name": "Stockholm",
   "Accuracy": 4,
   "LatLong": "59.3326,18.0649"
  },
  {
   "Name": "Stockholm",
   "Accuracy": 4,
   "LatLong": "59.3326,18.0649"
  },
  {
   "Name": "Stockholm",
   "Accuracy": 4,
   "LatLong": "59.3326,18.0649"
  },
  {
   "Name": "Stockholm",
   "Accuracy": 4,
   "LatLong": "59.3326,18.0649"
  },
  {
   "Name": "Stockholm",
   "Accuracy": 4,
   "LatLong": "59.3326,18.0649"
  },
  {
   "Name": "Stockholm",
   "Accuracy": 4,
   "LatLong": "59.3326,18.0649"
  },
  {
   "Name": "Stockholm",
   "Accuracy": 4,
   "LatLong": "59.3326,18.0649"
  },
  {
   "Name": "Stockholm",
   "Accuracy": 4,
   "LatLong": "59.3326,18.0649"
  },
  {
   "Name": "Stockholm",
   "Accuracy": 4,
   "LatLong": "59.3326,18.0649"
  },
  {
   "Name": "Stockholm",
   "Accuracy": 4,
   "LatLong": "59.3326,18.0649"
  },
  {
   "Name": "Stockholm",
   "Accuracy": 4,
   "LatLong": "59.3326,18.0649"
  },
  {
   "Name": "Stockholm",
   "Accuracy": 4,
   "LatLong": "59.3326,18.0649"
  },
  {
   "Name": "Stockholm",
   "Accuracy": 4,
   "LatLong": "59.3326,18.0649"
  },
  {
   "Name": "Stockholm",
   "Accuracy": 4,
   "LatLong": "59.3326,18.0649"
  },
  {
   "Name": "Stockholm",
   "Accuracy": 4,
   "LatLong": "59.3326,18.0649"
  },
  {
   "Name": "Stockholm",
   "Accuracy": 4,
   "LatLong": "59.3326,18.0649"
  },
  {
   "Name": "Stockholm",
   "Accuracy": 4,
   "LatLong": "59.3326,18.0649"
  },
  {
   "Name": "Stockholm",
   "Accuracy": 4,
   "LatLong": "59.3326,18.0649"
  },
  {
   "Name": "Stockholm",
   "Accuracy": 4,
   "LatLong": "59.3326,18.0649"
  },
  {
   "Name": "Stockholm",
   "Accuracy": 4,
   "LatLong": "59.3326,18.0649"
  },
  {
   "Name": "Stockholm",
   "Accuracy": 4,
   "LatLong": "59.3326,18.0649"
  },
  {
   "Name": "Stockholm",
   "Accuracy": 4,
   "LatLong": "59.3326,18.0649"
  },
  {
   "Name": "Stockholm",
   "Accuracy": 4,
   "LatLong": "59.3326,18.0649"
  },
  {
   "Name": "Stockholm",
   "Accuracy": 4,
   "LatLong": "59.3326,18.0649"
  },
  {
   "Name": "Stockholm",
   "Accuracy": 4,
   "LatLong": "59.3326,18.0649"
  },
  {
   "Name": "Stockholm",
   "Accuracy": 4,
   "LatLong": "59.3326,18.0649"
  },
  {
   "Name": "Stockholm",
   "Accuracy": 4,
   "LatLong": "59.3326,18.0649"
  },
  {
   "Name": "Stockholm",
   "Accuracy": 4,
   "LatLong": "59.3326,18.0649"
  },
  {
   "Name": "Stockholm",
   "Accuracy": 4,
   "LatLong": "59.3326,18.0649"
  },
  {
   "Name": "Stockholm",
   "Accuracy": 4,
   "LatLong": "59.3326,18.0649"
  },
  {
   "Name": "Stockholm",
   "Accuracy": 4,
   "LatLong": "59.3326,18.0649"
  },
  {
   "Name": "Stockholm",
   "Accuracy": 4,
   "LatLong": "59.3326,18.0649"
  },
  {
   "Name": "Stockholm",
   "Accuracy": 4,
   "LatLong": "59.3326,18.0649"
  },
  {
   "Name": "Stockholm",
   "Accuracy": 4,
   "LatLong": "59.3326,18.0649"
  },
  {
   "Name": "Stockholm",
   "Accuracy": 4,
   "LatLong": "59.3326,18.0649"
  },
  {
   "Name": "Stockholm",
   "Accuracy": 4,
   "LatLong": "59.3326,18.0649"
  },
  {
   "Name": "Stockholm",
   "Accuracy": 4,
   "LatLong": "59.3326,18.0649"
  },
  {
   "Name": "Stockholm",
   "Accuracy": 4,
   "LatLong": "59.3326,18.0649"
  },
  {
   "Name": "Stockholm",
   "Accuracy": 4,
   "LatLong": "59.3326,18.0649"
  },
  {
   "Name": "Stockholm",
   "Accuracy": 4,
   "LatLong": "59.3326,18.0649"
  },
  {
   "Name": "Stockholm",
   "Accuracy": 4,
   "LatLong": "59.3326,18.0649"
  },
  {
   "Name": "Stockholm",
   "Accuracy": 4,
   "LatLong": "59.3326,18.0649"
  },
  {
   "Name": "Stockholm",
   "Accuracy": 4,
   "LatLong": "59.3326,18.0649"
  },
  {
   "Name": "Stockholm",
   "Accuracy": 4,
   "LatLong": "59.3326,18.0649"
  },
  {
   "Name": "Stockholm",
   "Accuracy": 4,
   "LatLong": "59.3326,18.0649"
  },
  {
   "Name": "Stockholm",
   "Accuracy": 4,
   "LatLong": "59.3326,18.0649"
  },
  {
   "Name": "Stockholm",
   "Accuracy": 4,
   "LatLong": "59.3326,18.0649"
  },
  {
   "Name": "Stockholm",
   "Accuracy": 4,
   "LatLong": "59.3326,18.0649"
  },
  {
   "Name": "Stockholm",
   "Accuracy": 4,
   "LatLong": "59.3326,18.0649"
  },
  {
   "Name": "Stockholm",
   "Accuracy": 4,
   "LatLong": "59.3326,18.0649"
  },
  {
   "Name": "Stockholm",
   "Accuracy": 4,
   "LatLong": "59.3326,18.0649"
  },
  {
   "Name": "Stockholm",
   "Accuracy": 4,
   "LatLong": "59.3326,18.0649"
  },
  {
   "Name": "Stockholm",
   "Accuracy": 4,
   "LatLong": "59.3326,18.0649"
  },
  {
   "Name": "Stockholm",
   "Accuracy": 4,
   "LatLong": "59.3326,18.0649"
  },
  {
   "Name": "Stockholm",
   "Accuracy": 4,
   "LatLong": "59.3326,18.0649"
  },
  {
   "Name": "Stockholm",
   "Accuracy": 4,
   "LatLong": "59.3326,18.0649"
  },
  {
   "Name": "Stockholm",
   "Accuracy": 4,
   "LatLong": "59.3326,18.0649"
  },
  {
   "Name": "Stockholm",
   "Accuracy": 4,
   "LatLong": "59.3326,18.0649"
  },
  {
   "Name": "Stockholm",
   "Accuracy": 4,
   "LatLong": "59.3326,18.0649"
  },
  {
   "Name": "Stockholm",
   "Accuracy": 4,
   "LatLong": "59.3326,18.0649"
  },
  {
   "Name": "Stockholm",
   "Accuracy": 4,
   "LatLong": "59.3326,18.0649"
  },
  {
   "Name": "Stockholm",
   "Accuracy": 4,
   "LatLong": "59.3326,18.0649"
  },
  {
   "Name": "Stockholm",
   "Accuracy": 4,
   "LatLong": "59.3326,18.0649"
  },
  {
   "Name": "Stockholm",
   "Accuracy": 4,
   "LatLong": "59.3326,18.0649"
  },
  {
   "Name": "Stockholm",
   "Accuracy": 4,
   "LatLong": "59.3326,18.0649"
  },
  {
   "Name": "Stockholm",
   "Accuracy": 4,
   "LatLong": "59.3326,18.0649"
  },
  {
   "Name": "Stockholm",
   "Accuracy": 4,
   "LatLong": "59.3326,18.0649"
  },
  {
   "Name": "Stockholm",
   "Accuracy": 4,
   "LatLong": "59.3326,18.0649"
  },
  {
   "Name": "Stockholm",
   "Accuracy": 4,
   "LatLong": "59.3326,18.0649"
  },
  {
   "Name": "Stockholm",
   "Accuracy": 4,
   "LatLong": "59.3326,18.0649"
  },
  {
   "Name": "Stockholm",
   "Accuracy": 4,
   "LatLong": "59.3326,18.0649"
  },
  {
   "Name": "Stockholm",
   "Accuracy": 4,
   "LatLong": "59.3326,18.0649"
  },
  {
   "Name": "Stockholm",
   "Accuracy": 4,
   "LatLong": "59.3326,18.0649"
  },
  {
   "Name": "Stockholm",
   "Accuracy": 4,
   "LatLong": "59.3326,18.0649"
  },
  {
   "Name": "Stockholm",
   "Accuracy": 4,
   "LatLong": "59.3326,18.0649"
  },
  {
   "Name": "Stockholm",
   "Accuracy": 4,
   "LatLong": "59.3326,18.0649"
  },
  {
   "Name": "Stockholm",
   "Accuracy": 4,
   "LatLong": "59.3326,18.0649"
  },
  {
   "Name": "Stockholm",
   "Accuracy": 4,
   "LatLong": "59.3326,18.0649"
  },
  {
   "Name": "Stockholm",
   "Accuracy": 4,
   "LatLong": "59.3326,18.0649"
  },
  {
   "Name": "Stockholm",
   "Accuracy": 4,
   "LatLong": "59.3326,18.0649"
  },
  {
   "Name": "Stockholm",
   "Accuracy": 4,
   "LatLong": "59.3326,18.0649"
  },
  {
   "Name": "Stockholm",
   "Accuracy": 4,
   "LatLong": "59.3326,18.0649"
  },
  {
   "Name": "Stockholm",
   "Accuracy": 4,
   "LatLong": "59.3326,18.0649"
  },
  {
   "Name": "Stockholm",
   "Accuracy": 4,
   "LatLong": "59.3326,18.0649"
  },
  {
   "Name": "Stockholm",
   "Accuracy": 4,
   "LatLong": "59.3326,18.0649"
  },
  {
   "Name": "Stockholm",
   "Accuracy": 4,
   "LatLong": "59.3326,18.0649"
  },
  {
   "Name": "Stockholm",
   "Accuracy": 4,
   "LatLong": "59.3326,18.0649"
  },
  {
   "Name": "Stockholm",
   "Accuracy": 4,
   "LatLong": "59.3326,18.0649"
  },
  {
   "Name": "Stockholm",
   "Accuracy": 4,
   "LatLong": "59.3326,18.0649"
  },
  {
   "Name": "Stockholm",
   "Accuracy": 4,
   "LatLong": "59.3326,18.0649"
  },
  {
   "Name": "Stockholm",
   "Accuracy": 4,
   "LatLong": "59.3326,18.0649"
  },
  {
   "Name": "Stockholm",
   "Accuracy": 4,
   "LatLong": "59.3326,18.0649"
  },
  {
   "Name": "Stockholm",
   "Accuracy": 4,
   "LatLong": "59.3326,18.0649"
  },
  {
   "Name": "Stockholm",
   "Accuracy": 4,
   "LatLong": "59.3326,18.0649"
  },
  {
   "Name": "Stockholm",
   "Accuracy": 4,
   "LatLong": "59.3326,18.0649"
  },
  {
   "Name": "Stockholm",
   "Accuracy": 4,
   "LatLong": "59.3326,18.0649"
  },
  {
   "Name": "Stockholm",
   "Accuracy": 4,
   "LatLong": "59.3326,18.0649"
  },
  {
   "Name": "Stockholm",
   "Accuracy": 4,
   "LatLong": "59.3326,18.0649"
  },
  {
   "Name": "Stockholm",
   "Accuracy": 4,
   "LatLong": "59.3326,18.0649"
  },
  {
   "Name": "Stockholm",
   "Accuracy": 4,
   "LatLong": "59.3326,18.0649"
  },
  {
   "Name": "Stockholm",
   "Accuracy": 4,
   "LatLong": "59.3326,18.0649"
  },
  {
   "Name": "Stockholm",
   "Accuracy": 4,
   "LatLong": "59.3326,18.0649"
  },
  {
   "Name": "Stockholm",
   "Accuracy": 4,
   "LatLong": "59.3326,18.0649"
  },
  {
   "Name": "Stockholm",
   "Accuracy": 4,
   "LatLong": "59.3326,18.0649"
  },
  {
   "Name": "Stockholm",
   "Accuracy": 4,
   "LatLong": "59.3326,18.0649"
  },
  {
   "Name": "Stockholm",
   "Accuracy": 4,
   "LatLong": "59.3326,18.0649"
  },
  {
   "Name": "Stockholm",
   "Accuracy": 4,
   "LatLong": "59.3326,18.0649"
  },
  {
   "Name": "Stockholm",
   "Accuracy": 4,
   "LatLong": "59.3326,18.0649"
  },
  {
   "Name": "Stockholm",
   "Accuracy": 4,
   "LatLong": "59.3326,18.0649"
  },
  {
   "Name": "Stockholm",
   "Accuracy": 4,
   "LatLong": "59.3326,18.0649"
  },
  {
   "Name": "Stockholm",
   "Accuracy": 4,
   "LatLong": "59.3326,18.0649"
  },
  {
   "Name": "Stockholm",
   "Accuracy": 4,
   "LatLong": "59.3326,18.0649"
  },
  {
   "Name": "Stockholm",
   "Accuracy": 4,
   "LatLong": "59.3326,18.0649"
  },
  {
   "Name": "Stockholm",
   "Accuracy": 4,
   "LatLong": "59.3326,18.0649"
  },
  {
   "Name": "Stockholm",
   "Accuracy": 4,
   "LatLong": "59.3326,18.0649"
  },
  {
   "Name": "Stockholm",
   "Accuracy": 4,
   "LatLong": "59.3326,18.0649"
  },
  {
   "Name": "Stockholm",
   "Accuracy": 4,
   "LatLong": "59.3326,18.0649"
  },
  {
   "Name": "Stockholm",
   "Accuracy": 4,
   "LatLong": "59.3326,18.0649"
  },
  {
   "Name": "Stockholm",
   "Accuracy": 4,
   "LatLong": "59.3326,18.0649"
  },
  {
   "Name": "Stockholm",
   "Accuracy": 4,
   "LatLong": "59.3326,18.0649"
  },
  {
   "Name": "Stockholm",
   "Accuracy": 4,
   "LatLong": "59.3326,18.0649"
  },
  {
   "Name": "Stockholm",
   "Accuracy": 4,
   "LatLong": "59.3326,18.0649"
  },
  {
   "Name": "Stockholm",
   "Accuracy": 4,
   "LatLong": "59.3326,18.0649"
  },
  {
   "Name": "Stockholm",
   "Accuracy": 4,
   "LatLong": "59.3326,18.0649"
  },
  {
   "Name": "Stockholm",
   "Accuracy": 4,
   "LatLong": "59.3326,18.0649"
  },
  {
   "Name": "Stockholm",
   "Accuracy": 4,
   "LatLong": "59.3326,18.0649"
  },
  {
   "Name": "Stockholm",
   "Accuracy": 4,
   "LatLong": "59.3326,18.0649"
  },
  {
   "Name": "Stockholm",
   "Accuracy": 4,
   "LatLong": "59.3326,18.0649"
  },
  {
   "Name": "Stockholm",
   "Accuracy": 4,
   "LatLong": "59.3326,18.0649"
  },
  {
   "Name": "Stockholm",
   "Accuracy": 4,
   "LatLong": "59.3326,18.0649"
  },
  {
   "Name": "Stockholm",
   "Accuracy": 4,
   "LatLong": "59.3326,18.0649"
  },
  {
   "Name": "Stockholm",
   "Accuracy": 4,
   "LatLong": "59.3326,18.0649"
  },
  {
   "Name": "Stockholm",
   "Accuracy": 4,
   "LatLong": "59.3326,18.0649"
  },
  {
   "Name": "Stockholm",
   "Accuracy": 4,
   "LatLong": "59.3326,18.0649"
  },
  {
   "Name": "Stockholm",
   "Accuracy": 4,
   "LatLong": "59.3326,18.0649"
  },
  {
   "Name": "Stockholm",
   "Accuracy": 4,
   "LatLong": "59.3326,18.0649"
  },
  {
   "Name": "Stockholm",
   "Accuracy": 4,
   "LatLong": "59.3326,18.0649"
  },
  {
   "Name": "Stockholm",
   "Accuracy": 4,
   "LatLong": "59.3326,18.0649"
  },
  {
   "Name": "Stockholm",
   "Accuracy": 4,
   "LatLong": "59.3326,18.0649"
  },
  {
   "Name": "Stockholm",
   "Accuracy": 4,
   "LatLong": "59.3326,18.0649"
  },
  {
   "Name": "Stockholm",
   "Accuracy": 4,
   "LatLong": "59.3326,18.0649"
  },
  {
   "Name": "Stockholm",
   "Accuracy": 4,
   "LatLong": "59.3326,18.0649"
  },
  {
   "Name": "Stockholm",
   "Accuracy": 4,
   "LatLong": "59.3326,18.0649"
  },
  {
   "Name": "Stockholm",
   "Accuracy": 4,
   "LatLong": "59.3326,18.0649"
  },
  {
   "Name": "Stockholm",
   "Accuracy": 4,
   "LatLong": "59.3326,18.0649"
  },
  {
   "Name": "Stockholm",
   "Accuracy": 4,
   "LatLong": "59.3326,18.0649"
  },
  {
   "Name": "Stockholm",
   "Accuracy": 4,
   "LatLong": "59.3326,18.0649"
  },
  {
   "Name": "Stockholm",
   "Accuracy": 4,
   "LatLong": "59.3326,18.0649"
  },
  {
   "Name": "Stockholm",
   "Accuracy": 4,
   "LatLong": "59.3326,18.0649"
  },
  {
   "Name": "Stockholm",
   "Accuracy": 4,
   "LatLong": "59.3326,18.0649"
  },
  {
   "Name": "Stockholm",
   "Accuracy": 4,
   "LatLong": "59.3326,18.0649"
  },
  {
   "Name": "Stockholm",
   "Accuracy": 4,
   "LatLong": "59.3326,18.0649"
  },
  {
   "Name": "Stockholm",
   "Accuracy": 4,
   "LatLong": "59.3326,18.0649"
  },
  {
   "Name": "Stockholm",
   "Accuracy": 4,
   "LatLong": "59.3326,18.0649"
  },
  {
   "Name": "Stockholm",
   "Accuracy": 4,
   "LatLong": "59.3326,18.0649"
  },
  {
   "Name": "Stockholm",
   "Accuracy": 4,
   "LatLong": "59.3326,18.0649"
  },
  {
   "Name": "Stockholm",
   "Accuracy": 4,
   "LatLong": "59.3326,18.0649"
  },
  {
   "Name": "Stockholm",
   "Accuracy": 4,
   "LatLong": "59.3326,18.0649"
  },
  {
   "Name": "Stockholm",
   "Accuracy": 4,
   "LatLong": "59.3326,18.0649"
  },
  {
   "Name": "Stockholm",
   "Accuracy": 4,
   "LatLong": "59.3326,18.0649"
  },
  {
   "Name": "Stockholm",
   "Accuracy": 4,
   "LatLong": "59.3326,18.0649"
  },
  {
   "Name": "Stockholm",
   "Accuracy": 4,
   "LatLong": "59.3326,18.0649"
  },
  {
   "Name": "Stockholm",
   "Accuracy": 4,
   "LatLong": "59.3326,18.0649"
  },
  {
   "Name": "Stockholm",
   "Accuracy": 4,
   "LatLong": "59.3326,18.0649"
  },
  {
   "Name": "Stockholm",
   "Accuracy": 4,
   "LatLong": "59.3326,18.0649"
  },
  {
   "Name": "Stockholm",
   "Accuracy": 4,
   "LatLong": "59.3326,18.0649"
  },
  {
   "Name": "Stockholm",
   "Accuracy": 4,
   "LatLong": "59.3326,18.0649"
  },
  {
   "Name": "Stockholm",
   "Accuracy": 4,
   "LatLong": "59.3326,18.0649"
  },
  {
   "Name": "Stockholm",
   "Accuracy": 4,
   "LatLong": "59.3326,18.0649"
  },
  {
   "Name": "Stockholm",
   "Accuracy": 4,
   "LatLong": "59.3326,18.0649"
  },
  {
   "Name": "Stockholm",
   "Accuracy": 4,
   "LatLong": "59.3326,18.0649"
  },
  {
   "Name": "Stockholm",
   "Accuracy": 4,
   "LatLong": "59.3326,18.0649"
  },
  {
   "Name": "Stockholm",
   "Accuracy": 4,
   "LatLong": "59.3326,18.0649"
  },
  {
   "Name": "Stockholm",
   "Accuracy": 4,
   "LatLong": "59.3326,18.0649"
  },
  {
   "Name": "Stockholm",
   "Accuracy": 4,
   "LatLong": "59.3326,18.0649"
  },
  {
   "Name": "Stockholm",
   "Accuracy": 4,
   "LatLong": "59.3326,18.0649"
  },
  {
   "Name": "Stockholm",
   "Accuracy": 4,
   "LatLong": "59.3326,18.0649"
  },
  {
   "Name": "Stockholm",
   "Accuracy": 4,
   "LatLong": "59.3326,18.0649"
  },
  {
   "Name": "Stockholm",
   "Accuracy": 4,
   "LatLong": "59.3326,18.0649"
  },
  {
   "Name": "Stockholm",
   "Accuracy": 4,
   "LatLong": "59.3326,18.0649"
  },
  {
   "Name": "Stockholm",
   "Accuracy": 4,
   "LatLong": "59.3326,18.0649"
  },
  {
   "Name": "Stockholm",
   "Accuracy": 4,
   "LatLong": "59.3326,18.0649"
  },
  {
   "Name": "Stockholm",
   "Accuracy": 4,
   "LatLong": "59.3326,18.0649"
  },
  {
   "Name": "Stockholm",
   "Accuracy": 4,
   "LatLong": "59.3326,18.0649"
  },
  {
   "Name": "Stockholm",
   "Accuracy": 4,
   "LatLong": "59.3326,18.0649"
  },
  {
   "Name": "Stockholm",
   "Accuracy": 4,
   "LatLong": "59.3326,18.0649"
  },
  {
   "Name": "Stockholm",
   "Accuracy": 4,
   "LatLong": "59.3326,18.0649"
  },
  {
   "Name": "Stockholm",
   "Accuracy": 4,
   "LatLong": "59.3326,18.0649"
  },
  {
   "Name": "Stockholm",
   "Accuracy": 4,
   "LatLong": "59.3326,18.0649"
  },
  {
   "Name": "Stockholm",
   "Accuracy": 4,
   "LatLong": "59.3326,18.0649"
  },
  {
   "Name": "Stockholm",
   "Accuracy": 4,
   "LatLong": "59.3326,18.0649"
  },
  {
   "Name": "Stockholm",
   "Accuracy": 4,
   "LatLong": "59.3326,18.0649"
  },
  {
   "Name": "Stockholm",
   "Accuracy": 4,
   "LatLong": "59.3326,18.0649"
  },
  {
   "Name": "Stockholm",
   "Accuracy": 4,
   "LatLong": "59.3326,18.0649"
  },
  {
   "Name": "Stockholm",
   "Accuracy": 4,
   "LatLong": "59.3326,18.0649"
  },
  {
   "Name": "Stockholm",
   "Accuracy": 4,
   "LatLong": "59.3326,18.0649"
  },
  {
   "Name": "Stockholm",
   "Accuracy": 4,
   "LatLong": "59.3326,18.0649"
  },
  {
   "Name": "Stockholm",
   "Accuracy": 4,
   "LatLong": "59.3326,18.0649"
  },
  {
   "Name": "Stockholm",
   "Accuracy": 4,
   "LatLong": "59.3326,18.0649"
  },
  {
   "Name": "Stockholm",
   "Accuracy": 4,
   "LatLong": "59.3326,18.0649"
  },
  {
   "Name": "Stockholm",
   "Accuracy": 4,
   "LatLong": "59.3326,18.0649"
  },
  {
   "Name": "Stockholm",
   "Accuracy": 4,
   "LatLong": "59.3326,18.0649"
  },
  {
   "Name": "Stockholm",
   "Accuracy": 4,
   "LatLong": "59.3326,18.0649"
  },
  {
   "Name": "Stockholm",
   "Accuracy": 4,
   "LatLong": "59.3326,18.0649"
  },
  {
   "Name": "Stockholm",
   "Accuracy": 4,
   "LatLong": "59.3326,18.0649"
  },
  {
   "Name": "Stockholm",
   "Accuracy": 4,
   "LatLong": "59.3326,18.0649"
  },
  {
   "Name": "Stockholm",
   "Accuracy": 4,
   "LatLong": "59.3326,18.0649"
  },
  {
   "Name": "Stockholm",
   "Accuracy": 4,
   "LatLong": "59.3326,18.0649"
  },
  {
   "Name": "Stockholm",
   "Accuracy": 4,
   "LatLong": "59.3326,18.0649"
  },
  {
   "Name": "Stockholm",
   "Accuracy": 4,
   "LatLong": "59.3326,18.0649"
  },
  {
   "Name": "Stockholm",
   "Accuracy": 4,
   "LatLong": "59.3326,18.0649"
  },
  {
   "Name": "Stockholm",
   "Accuracy": 4,
   "LatLong": "59.3326,18.0649"
  },
  {
   "Name": "Stockholm",
   "Accuracy": 4,
   "LatLong": "59.3326,18.0649"
  },
  {
   "Name": "Stockholm",
   "Accuracy": 4,
   "LatLong": "59.3326,18.0649"
  },
  {
   "Name": "Stockholm",
   "Accuracy": 4,
   "LatLong": "59.3326,18.0649"
  },
  {
   "Name": "Stockholm",
   "Accuracy": 4,
   "LatLong": "59.3326,18.0649"
  },
  {
   "Name": "Stockholm",
   "Accuracy": 4,
   "LatLong": "59.3326,18.0649"
  },
  {
   "Name": "Stockholm",
   "Accuracy": 4,
   "LatLong": "59.3326,18.0649"
  },
  {
   "Name": "Stockholm",
   "Accuracy": 4,
   "LatLong": "59.3326,18.0649"
  },
  {
   "Name": "Stockholm",
   "Accuracy": 4,
   "LatLong": "59.3326,18.0649"
  },
  {
   "Name": "Stockholm",
   "Accuracy": 4,
   "LatLong": "59.3326,18.0649"
  },
  {
   "Name": "Stockholm",
   "Accuracy": 4,
   "LatLong": "59.3326,18.0649"
  },
  {
   "Name": "Stockholm",
   "Accuracy": 4,
   "LatLong": "59.3326,18.0649"
  },
  {
   "Name": "Stockholm",
   "Accuracy": 4,
   "LatLong": "59.3326,18.0649"
  },
  {
   "Name": "Stockholm",
   "Accuracy": 4,
   "LatLong": "59.3326,18.0649"
  },
  {
   "Name": "Stockholm",
   "Accuracy": 4,
   "LatLong": "59.3326,18.0649"
  },
  {
   "Name": "Stockholm",
   "Accuracy": 4,
   "LatLong": "59.3326,18.0649"
  },
  {
   "Name": "Stockholm",
   "Accuracy": 4,
   "LatLong": "59.3326,18.0649"
  },
  {
   "Name": "Stockholm",
   "Accuracy": 4,
   "LatLong": "59.3326,18.0649"
  },
  {
   "Name": "Stockholm",
   "Accuracy": 4,
   "LatLong": "59.3326,18.0649"
  },
  {
   "Name": "Stockholm",
   "Accuracy": 4,
   "LatLong": "59.3326,18.0649"
  },
  {
   "Name": "Stockholm",
   "Accuracy": 4,
   "LatLong": "59.3326,18.0649"
  },
  {
   "Name": "Stockholm",
   "Accuracy": 4,
   "LatLong": "59.3326,18.0649"
  },
  {
   "Name": "Stockholm",
   "Accuracy": 4,
   "LatLong": "59.3326,18.0649"
  },
  {
   "Name": "Stockholm",
   "Accuracy": 4,
   "LatLong": "59.3326,18.0649"
  },
  {
   "Name": "Stockholm",
   "Accuracy": 4,
   "LatLong": "59.3326,18.0649"
  },
  {
   "Name": "Stockholm",
   "Accuracy": 4,
   "LatLong": "59.3326,18.0649"
  },
  {
   "Name": "Stockholm",
   "Accuracy": 4,
   "LatLong": "59.3326,18.0649"
  },
  {
   "Name": "Stockholm",
   "Accuracy": 4,
   "LatLong": "59.3326,18.0649"
  },
  {
   "Name": "Stockholm",
   "Accuracy": 4,
   "LatLong": "59.3326,18.0649"
  },
  {
   "Name": "Stockholm",
   "Accuracy": 4,
   "LatLong": "59.3326,18.0649"
  },
  {
   "Name": "Stockholm",
   "Accuracy": 4,
   "LatLong": "59.3326,18.0649"
  },
  {
   "Name": "Stockholm",
   "Accuracy": 4,
   "LatLong": "59.3326,18.0649"
  },
  {
   "Name": "Stockholm",
   "Accuracy": 4,
   "LatLong": "59.3326,18.0649"
  },
  {
   "Name": "Stockholm",
   "Accuracy": 4,
   "LatLong": "59.3326,18.0649"
  },
  {
   "Name": "Stockholm",
   "Accuracy": 4,
   "LatLong": "59.3326,18.0649"
  },
  {
   "Name": "Stockholm",
   "Accuracy": 4,
   "LatLong": "59.3326,18.0649"
  },
  {
   "Name": "Stockholm",
   "Accuracy": 4,
   "LatLong": "59.3326,18.0649"
  },
  {
   "Name": "Stockholm",
   "Accuracy": 4,
   "LatLong": "59.3326,18.0649"
  },
  {
   "Name": "Stockholm",
   "Accuracy": 4,
   "LatLong": "59.3326,18.0649"
  },
  {
   "Name": "Stockholm",
   "Accuracy": 4,
   "LatLong": "59.3326,18.0649"
  },
  {
   "Name": "Stockholm",
   "Accuracy": 4,
   "LatLong": "59.3326,18.0649"
  },
  {
   "Name": "Stockholm",
   "Accuracy": 4,
   "LatLong": "59.3326,18.0649"
  },
  {
   "Name": "Stockholm",
   "Accuracy": 4,
   "LatLong": "59.3326,18.0649"
  },
  {
   "Name": "Stockholm",
   "Accuracy": 4,
   "LatLong": "59.3326,18.0649"
  },
  {
   "Name": "Stockholm",
   "Accuracy": 4,
   "LatLong": "59.3326,18.0649"
  },
  {
   "Name": "Stockholm",
   "Accuracy": 4,
   "LatLong": "59.3326,18.0649"
  },
  {
   "Name": "Stockholm",
   "Accuracy": 4,
   "LatLong": "59.3326,18.0649"
  },
  {
   "Name": "Stockholm",
   "Accuracy": 4,
   "LatLong": "59.3326,18.0649"
  },
  {
   "Name": "Stockholm",
   "Accuracy": 4,
   "LatLong": "59.3326,18.0649"
  },
  {
   "Name": "Stockholm",
   "Accuracy": 4,
   "LatLong": "59.3326,18.0649"
  },
  {
   "Name": "Stockholm",
   "Accuracy": 4,
   "LatLong": "59.3326,18.0649"
  },
  {
   "Name": "Stockholm",
   "Accuracy": 4,
   "LatLong": "59.3326,18.0649"
  },
  {
   "Name": "Stockholm",
   "Accuracy": 4,
   "LatLong": "59.3326,18.0649"
  },
  {
   "Name": "Stockholm",
   "Accuracy": 4,
   "LatLong": "59.3326,18.0649"
  },
  {
   "Name": "Stockholm",
   "Accuracy": 4,
   "LatLong": "59.3326,18.0649"
  },
  {
   "Name": "Stockholm",
   "Accuracy": 4,
   "LatLong": "59.3326,18.0649"
  },
  {
   "Name": "Stockholm",
   "Accuracy": 4,
   "LatLong": "59.3326,18.0649"
  },
  {
   "Name": "Stockholm",
   "Accuracy": 4,
   "LatLong": "59.3326,18.0649"
  },
  {
   "Name": "Stockholm",
   "Accuracy": 4,
   "LatLong": "59.3326,18.0649"
  },
  {
   "Name": "Stockholm",
   "Accuracy": 4,
   "LatLong": "59.3326,18.0649"
  },
  {
   "Name": "Stockholm",
   "Accuracy": 4,
   "LatLong": "59.3326,18.0649"
  },
  {
   "Name": "Stockholm",
   "Accuracy": 4,
   "LatLong": "59.3326,18.0649"
  },
  {
   "Name": "Stockholm",
   "Accuracy": 4,
   "LatLong": "59.3326,18.0649"
  },
  {
   "Name": "Stockholm",
   "Accuracy": 4,
   "LatLong": "59.3326,18.0649"
  },
  {
   "Name": "Stockholm",
   "Accuracy": 4,
   "LatLong": "59.3326,18.0649"
  },
  {
   "Name": "Stockholm",
   "Accuracy": 4,
   "LatLong": "59.3326,18.0649"
  },
  {
   "Name": "Stockholm",
   "Accuracy": 4,
   "LatLong": "59.3326,18.0649"
  },
  {
   "Name": "Stockholm",
   "Accuracy": 4,
   "LatLong": "59.3326,18.0649"
  },
  {
   "Name": "Stockholm",
   "Accuracy": 4,
   "LatLong": "59.3326,18.0649"
  },
  {
   "Name": "Stockholm",
   "Accuracy": 4,
   "LatLong": "59.3326,18.0649"
  },
  {
   "Name": "Stockholm",
   "Accuracy": 4,
   "LatLong": "59.3326,18.0649"
  },
  {
   "Name": "Stockholm",
   "Accuracy": 4,
   "LatLong": "59.3326,18.0649"
  },
  {
   "Name": "Stockholm",
   "Accuracy": 4,
   "LatLong": "59.3326,18.0649"
  },
  {
   "Name": "Stockholm",
   "Accuracy": 4,
   "LatLong": "59.3326,18.0649"
  },
  {
   "Name": "Stockholm",
   "Accuracy": 4,
   "LatLong": "59.3326,18.0649"
  },
  {
   "Name": "Stockholm",
   "Accuracy": 4,
   "LatLong": "59.3326,18.0649"
  },
  {
   "Name": "Stockholm",
   "Accuracy": 4,
   "LatLong": "59.3326,18.0649"
  },
  {
   "Name": "Stockholm",
   "Accuracy": 4,
   "LatLong": "59.3326,18.0649"
  },
  {
   "Name": "Stockholm",
   "Accuracy": 4,
   "LatLong": "59.3326,18.0649"
  },
  {
   "Name": "Stockholm",
   "Accuracy": 4,
   "LatLong": "59.3326,18.0649"
  },
  {
   "Name": "Stockholm",
   "Accuracy": 4,
   "LatLong": "59.3326,18.0649"
  },
  {
   "Name": "Stockholm",
   "Accuracy": 4,
   "LatLong": "59.3326,18.0649"
  },
  {
   "Name": "Stockholm",
   "Accuracy": 4,
   "LatLong": "59.3326,18.0649"
  },
  {
   "Name": "Stockholm",
   "Accuracy": 4,
   "LatLong": "59.3326,18.0649"
  },
  {
   "Name": "Stockholm",
   "Accuracy": 4,
   "LatLong": "59.3326,18.0649"
  },
  {
   "Name": "Stockholm",
   "Accuracy": 4,
   "LatLong": "59.3326,18.0649"
  },
  {
   "Name": "Stockholm",
   "Accuracy": 4,
   "LatLong": "59.3326,18.0649"
  },
  {
   "Name": "Stockholm",
   "Accuracy": 4,
   "LatLong": "59.3326,18.0649"
  },