{"Structure":"State/Province/Place","States":[{"Name":"Australian Capital Territory","Code":"ACT","Provinces":[{"Name":"CANBERRA","Places":[{"Name":"Australian National University","PostCode":"0200","LatLong":"-35.2777,149.1189"},{"Name":"Yarralumla","PostCode":"2600","LatLong":"-35.2998,149.1058"},{"Name":"Harman","PostCode":"2600","LatLong":"-35.35,149.2"},{"Name":"Canberra","PostCode":"2600","LatLong":"-35.2835,149.1281"},{"Name":"Duntroon","PostCode":"2600","LatLong":"-35.3,149.1667"},{"Name":"Barton","PostCode":"2600","LatLong":"-35.3049,149.1412"},{"Name":"Russell","PostCode":"2600","LatLong":"-35.2977,149.151"},{"Name":"Deakin West","PostCode":"2600","LatLong":"-35.3126,149.1278"},{"Name":"Deakin","PostCode":"2600","LatLong":"-35.3193,149.1031"},{"Name":"Parkes","PostCode":"2600","LatLong":"-35.3018,149.1304"},{"Name":"Parliament House","PostCode":"2600","LatLong":"-35.3126,149.1278"},{"Name":"Acton","PostCode":"2601","LatLong":"-35.2777,149.1183"},{"Name":"City","PostCode":"2601","LatLong":"-35.2813,149.1293"},{"Name":"Black Mountain","PostCode":"2601","LatLong":"-35.2772,149.1054"},{"Name":"Canberra","PostCode":"2601","LatLong":"-35.2835,149.1281"},{"Name":"O'Connor","PostCode":"2602","LatLong":"-35.2564,149.1125"},{"Name":"Hackett","PostCode":"2602","LatLong":"-35.2495,149.1635"},{"Name":"Lyneham","PostCode":"2602","LatLong":"-35.2398,149.1307"},{"Name":"Watson","PostCode":"2602","LatLong":"-35.2381,149.1527"},{"Name":"Downer","PostCode":"2602","LatLong":"-35.2446,149.1447"},{"Name":"Ainslie","PostCode":"2602","LatLong":"-35.2625,149.1437"},{"Name":"Dickson","PostCode":"2602","LatLong":"-35.2508,149.1393"},{"Name":"Griffith","PostCode":"2603","LatLong":"-35.3253,149.1371"},{"Name":"Red Hill","PostCode":"2603","LatLong":"-35.3262,149.1191"},{"Name":"Forrest","PostCode":"2603","LatLong":"-35.315,149.1286"},{"Name":"Manuka","PostCode":"2603","LatLong":"-35.3126,149.1278"},{"Name":"Narrabundah","PostCode":"2604","LatLong":"-35.3357,149.1492"},{"Name":"Kingston","PostCode":"2604","LatLong":"-35.3152,149.1466"},{"Name":"Causeway","PostCode":"2604","LatLong":"-35.3151,149.1512"},{"Name":"Garran","PostCode":"2605","LatLong":"-35.3421,149.1085"},{"Name":"Hughes","PostCode":"2605","LatLong":"-35.3327,149.0949"},{"Name":"Curtin","PostCode":"2605","LatLong":"-35.3246,149.0776"},{"Name":"Phillip","PostCode":"2606","LatLong":"-35.3503,149.0915"},{"Name":"Chifley","PostCode":"2606","LatLong":"-35.3534,149.0768"},{"Name":"O'Malley","PostCode":"2606","LatLong":"-35.3525,149.1128"},{"Name":"Swinger Hill","PostCode":"2606","LatLong":"-35.3481,149.0905"},{"Name":"Lyons","PostCode":"2606","LatLong":"-35.3406,149.074"},{"Name":"Woden","PostCode":"2606","LatLong":"-35.3481,149.0905"},{"Name":"Mawson","PostCode":"2607","LatLong":"-35.3634,149.0986"},{"Name":"Torrens","PostCode":"2607","LatLong":"-35.372,149.0877"},{"Name":"Isaacs","PostCode":"2607","LatLong":"-35.3686,149.1156"},{"Name":"Farrer","PostCode":"2607","LatLong":"-35.3767,149.105"},{"Name":"Pearce","PostCode":"2607","LatLong":"-35.3622,149.0834"},{"Name":"Civic Square","PostCode":"2608","LatLong":"-35.31,149.1933"},{"Name":"Fyshwick","PostCode":"2609","LatLong":"-35.3333,149.1667"},{"Name":"Symonston","PostCode":"2609","LatLong":"-35.3516,149.1592"},{"Name":"Pialligo","PostCode":"2609","LatLong":"-35.3201,149.207"},{"Name":"Canberra Bc","PostCode":"2610","LatLong":"-35.2778,149.0111"},{"Name":"Chapman","PostCode":"2611","LatLong":"-35.3562,149.0374"},{"Name":"Holder","PostCode":"2611","LatLong":"-35.3344,149.0461"},{"Name":"Weston Creek","PostCode":"2611","LatLong":"-35.3333,149.05"},{"Name":"Rivett","PostCode":"2611","LatLong":"-35.3471,149.0379"},{"Name":"Weston","PostCode":"2611","LatLong":"-35.3358,149.0593"},{"Name":"Fisher","PostCode":"2611","LatLong":"-35.3613,149.057"},{"Name":"Duffy","PostCode":"2611","LatLong":"-35.3346,149.0319"},{"Name":"Waramanga","PostCode":"2611","LatLong":"-35.353,149.0621"},{"Name":"Mount Stromlo","PostCode":"2611","LatLong":"-35.4171,148.7769"},{"Name":"Stirling","PostCode":"2611","LatLong":"-35.3497,149.0493"},{"Name":"Uriarra","PostCode":"2611","LatLong":"-35.4171,148.7769"},{"Name":"Turner","PostCode":"2612","LatLong":"-35.2688,149.1247"},{"Name":"Campbell","PostCode":"2612","LatLong":"-35.2891,149.1538"},{"Name":"Braddon","PostCode":"2612","LatLong":"-35.2708,149.1357"},{"Name":"Reid","PostCode":"2612","LatLong":"-35.2858,149.1391"},{"Name":"Aranda","PostCode":"2614","LatLong":"-35.2582,149.0804"},{"Name":"Hawker","PostCode":"2614","LatLong":"-35.2471,149.0367"},{"Name":"Macquarie","PostCode":"2614","LatLong":"-35.2513,149.0636"},{"Name":"Cook","PostCode":"2614","LatLong":"-35.2601,149.0657"},{"Name":"Jamison Centre","PostCode":"2614","LatLong":"-35.2498,149.0591"},{"Name":"Page","PostCode":"2614","LatLong":"-35.2386,149.0499"},{"Name":"Scullin","PostCode":"2614","LatLong":"-35.2346,149.039"},{"Name":"Weetangera","PostCode":"2614","LatLong":"-35.2498,149.0591"},{"Name":"Melba","PostCode":"2615","LatLong":"-35.2102,149.0541"},{"Name":"Dunlop","PostCode":"2615","LatLong":"-35.194,149.0198"},{"Name":"Charnwood","PostCode":"2615","LatLong":"-35.2002,149.0341"},{"Name":"Latham","PostCode":"2615","LatLong":"-35.2165,149.0314"},{"Name":"Florey","PostCode":"2615","LatLong":"-35.2259,149.05"},{"Name":"Macgregor","PostCode":"2615","LatLong":"-35.2098,149.011"},{"Name":"Higgins","PostCode":"2615","LatLong":"-35.2324,149.0272"},{"Name":"Spence","PostCode":"2615","LatLong":"-35.1987,149.0644"},{"Name":"Kippax","PostCode":"2615","LatLong":"-35.2101,149.034"},{"Name":"Flynn","PostCode":"2615","LatLong":"-35.2059,149.0439"},{"Name":"Kippax Centre","PostCode":"2615","LatLong":"-35.2101,149.034"},{"Name":"Fraser","PostCode":"2615","LatLong":"-35.1917,149.0453"},{"Name":"Holt","PostCode":"2615","LatLong":"-35.2244,149.0119"},{"Name":"Belconnen","PostCode":"2616","LatLong":"-35.2167,149.0833"},{"Name":"Giralang","PostCode":"2617","LatLong":"-35.2109,149.096"},{"Name":"Mckellar","PostCode":"2617","LatLong":"-35.2175,149.077"},{"Name":"Belconnen","PostCode":"2617","LatLong":"-35.2167,149.0833"},{"Name":"Evatt","PostCode":"2617","LatLong":"-35.2119,149.0689"},{"Name":"University Of Canberra","PostCode":"2617","LatLong":"-35.2498,149.0591"},{"Name":"Lawson","PostCode":"2617","LatLong":"-35.2241,149.0998"},{"Name":"Bruce","PostCode":"2617","LatLong":"-35.2441,149.0908"},{"Name":"Kaleen","PostCode":"2617","LatLong":"-35.2181,149.1052"},{"Name":"Hall","PostCode":"2618","LatLong":"-35.1685,149.0683"},{"Name":"Hume","PostCode":"2620","LatLong":"-35.3855,149.1658"},{"Name":"Tharwa","PostCode":"2620","LatLong":"-35.5167,149.0667"},{"Name":"Greenway","PostCode":"2900","LatLong":"-35.4183,149.0666"},{"Name":"Tuggeranong","PostCode":"2900","LatLong":"-35.4158,149.0649"},{"Name":"Tuggeranong Dc","PostCode":"2901","LatLong":"-35.4333,149.15"},{"Name":"Kambah","PostCode":"2902","LatLong":"-35.3862,149.058"},{"Name":"Oxley","PostCode":"2903","LatLong":"-35.4095,149.0786"},{"Name":"Erindale Centre","PostCode":"2903","LatLong":"-35.3998,149.0888"},{"Name":"Wanniassa","PostCode":"2903","LatLong":"-35.3978,149.0909"},{"Name":"Fadden","PostCode":"2904","LatLong":"-35.405,149.1166"},{"Name":"Monash","PostCode":"2904","LatLong":"-35.4158,149.0906"},{"Name":"Gowrie","PostCode":"2904","LatLong":"-35.4119,149.109"},{"Name":"Macarthur","PostCode":"2904","LatLong":"-35.4089,149.127"},{"Name":"Bonython","PostCode":"2905","LatLong":"-35.4333,149.0782"},{"Name":"Richardson","PostCode":"2905","LatLong":"-35.4279,149.1138"},{"Name":"Isabella Plains","PostCode":"2905","LatLong":"-35.4283,149.088"},{"Name":"Chisholm","PostCode":"2905","LatLong":"-35.4125,149.1283"},{"Name":"Gilmore","PostCode":"2905","LatLong":"-35.4199,149.1348"},{"Name":"Theodore","PostCode":"2905","LatLong":"-35.4496,149.1197"},{"Name":"Calwell","PostCode":"2905","LatLong":"-35.4404,149.1071"},{"Name":"Conder","PostCode":"2906","LatLong":"-35.4593,149.1042"},{"Name":"Gordon","PostCode":"2906","LatLong":"-35.4568,149.085"},{"Name":"Banks","PostCode":"2906","LatLong":"-35.4719,149.0997"},{"Name":"Mitchell","PostCode":"2911","LatLong":"-35.2145,149.1293"},{"Name":"Gungahlin","PostCode":"2912","LatLong":"-35.1867,149.1362"},{"Name":"Palmerston","PostCode":"2913","LatLong":"-35.1945,149.1194"},{"Name":"Nicholls","PostCode":"2913","LatLong":"-35.1873,149.0965"},{"Name":"Ngunnawal","PostCode":"2913","LatLong":"-35.1728,149.1115"},{"Name":"Ginninderra Village","PostCode":"2913","LatLong":"-35.1875,149.1244"},{"Name":"Amaroo","PostCode":"2914","LatLong":"-35.1696,149.128"}]},{"Places":[{"Name":"Barton","PostCode":"0221","LatLong":"-35.3049,149.1412"},{"Name":"Wreck Bay","PostCode":"2540","LatLong":"-35.1627,150.6907"},{"Name":"Capital Hill","PostCode":"2600","LatLong":"-35.3066,149.1246"},{"Name":"Hmas Harman","PostCode":"2600","LatLong":"-35.31,149.1385"},{"Name":"Majura","PostCode":"2609","LatLong":"-35.2667,149.2"},{"Name":"Canberra Airport","PostCode":"2609","LatLong":"-35.3172,149.1753"},{"Name":"Canberra Mc","PostCode":"2610","LatLong":"-35.2498,149.0591"},{"Name":"Coombs","PostCode":"2611","LatLong":"-35.3163,149.0394"},{"Name":"Stromlo","PostCode":"2611","LatLong":"-35.3255,148.9993"},{"Name":"Coree","PostCode":"2611","LatLong":"-35.2794,148.9194"},{"Name":"Wright","PostCode":"2611","LatLong":"-35.3224,149.0346"},{"Name":"Uriarra Village","PostCode":"2611","LatLong":"-35.3503,149.0155"},{"Name":"Belconnen DC","PostCode":"2617","LatLong":"-35.2199,149.0869"},{"Name":"Oaks Estate","PostCode":"2620","LatLong":"-35.3397,149.2121"},{"Name":"Beard","PostCode":"2620","LatLong":"-35.3422,149.2101"},{"Name":"Paddys River","PostCode":"2620","LatLong":"-35.3914,149.2166"},{"Name":"Kowen","PostCode":"2620","LatLong":"-35.3914,149.2166"},{"Name":"Kambah Village","PostCode":"2902","LatLong":"-35.3862,149.058"},{"Name":"Crace","PostCode":"2911","LatLong":"-35.2028,149.1074"},{"Name":"Kinlyside","PostCode":"2913","LatLong":"-35.1754,149.0798"},{"Name":"Taylor","PostCode":"2913","LatLong":"-35.1489,149.1092"},{"Name":"Franklin","PostCode":"2913","LatLong":"-35.1995,149.1433"},{"Name":"Casey","PostCode":"2913","LatLong":"-35.167,149.0947"},{"Name":"Forde","PostCode":"2914","LatLong":"-35.1682,149.1461"},{"Name":"Bonner","PostCode":"2914","LatLong":"-35.1623,149.1386"},{"Name":"Harrison","PostCode":"2914","LatLong":"-35.1991,149.1563"},{"Name":"Moncrieff","PostCode":"2914","LatLong":"-35.1651,149.1179"},{"Name":"Jacka","PostCode":"2914","LatLong":"-35.1568,149.1288"}]},{"Name":"NEW CNTRY WEST","Places":[{"Name":"Jervis Bay","PostCode":"2540","LatLong":"-35.1333,150.7"},{"Name":"Hmas Creswell","PostCode":"2540","LatLong":"-35.028,150.5501"}]}]},{"Name":"New South Wales","Code":"NSW","Provinces":[{"Places":[{"Name":"Sydney","PostCode":"1001","LatLong":"-33.8678,151.2073"},{"Name":"Sydney","PostCode":"1002","LatLong":"-33.8678,151.2073"},{"Name":"Sydney","PostCode":"1003","LatLong":"-33.8678,151.2073"},{"Name":"Sydney","PostCode":"1004","LatLong":"-33.8678,151.2073"},{"Name":"Sydney","PostCode":"1005","LatLong":"-33.8678,151.2073"},{"Name":"Sydney","PostCode":"1006","LatLong":"-33.8678,151.2073"},{"Name":"Sydney","PostCode":"1007","LatLong":"-33.8678,151.2073"},{"Name":"Sydney","PostCode":"1008","LatLong":"-33.8678,151.2073"},{"Name":"Sydney","PostCode":"1009","LatLong":"-33.8678,151.2073"},{"Name":"Sydney","PostCode":"1010","LatLong":"-33.8678,151.2073"},{"Name":"Sydney","PostCode":"1011","LatLong":"-33.8678,151.2073"},{"Name":"Sydney","PostCode":"1020","LatLong":"-33.8678,151.2073"},{"Name":"Sydney","PostCode":"1021","LatLong":"-33.8678,151.2073"},{"Name":"Sydney","PostCode":"1022","LatLong":"-33.8678,151.2073"},{"Name":"Sydney","PostCode":"1023","LatLong":"-33.8678,151.2073"},{"Name":"Sydney","PostCode":"1025","LatLong":"-33.8678,151.2073"},{"Name":"Sydney","PostCode":"1026","LatLong":"-33.8678,151.2073"},{"Name":"Sydney","PostCode":"1027","LatLong":"-33.8678,151.2073"},{"Name":"Sydney","PostCode":"1028","LatLong":"-33.8678,151.2073"},{"Name":"Sydney","PostCode":"1029","LatLong":"-33.8678,151.2073"},{"Name":"Sydney","PostCode":"1030","LatLong":"-33.8678,151.2073"},{"Name":"Sydney","PostCode":"1031","LatLong":"-33.8678,151.2073"},{"Name":"Sydney","PostCode":"1032","LatLong":"-33.8678,151.2073"},{"Name":"Sydney","PostCode":"1033","LatLong":"-33.8678,151.2073"},{"Name":"Sydney","PostCode":"1034","LatLong":"-33.8678,151.2073"},{"Name":"Sydney","PostCode":"1035","LatLong":"-33.8678,151.2073"},{"Name":"Sydney","PostCode":"1036","LatLong":"-33.8678,151.2073"},{"Name":"Sydney","PostCode":"1037","LatLong":"-33.8678,151.2073"},{"Name":"Sydney","PostCode":"1038","LatLong":"-33.8678,151.2073"},{"Name":"Sydney","PostCode":"1039","LatLong":"-33.8678,151.2073"},{"Name":"Sydney","PostCode":"1040","LatLong":"-33.8678,151.2073"},{"Name":"Sydney","PostCode":"1041","LatLong":"-33.8678,151.2073"},{"Name":"Sydney","PostCode":"1042","LatLong":"-33.8678,151.2073"},{"Name":"Sydney","PostCode":"1043","LatLong":"-33.8678,151.2073"},{"Name":"Sydney","PostCode":"1044","LatLong":"-33.8678,151.2073"},{"Name":"Sydney","PostCode":"1045","LatLong":"-33.8678,151.2073"},{"Name":"Sydney","PostCode":"1046","LatLong":"-33.8678,151.2073"},{"Name":"Sydney","PostCode":"1100","LatLong":"-33.8678,151.2073"},{"Name":"Sydney","PostCode":"1101","LatLong":"-33.8678,151.2073"},{"Name":"Sydney","PostCode":"1105","LatLong":"-33.8678,151.2073"},{"Name":"Sydney","PostCode":"1106","LatLong":"-33.8678,151.2073"},{"Name":"Sydney","PostCode":"1107","LatLong":"-33.8678,151.2073"},{"Name":"Sydney","PostCode":"1108","LatLong":"-33.8678,151.2073"},{"Name":"Sydney","PostCode":"1109","LatLong":"-33.8678,151.2073"},{"Name":"Sydney","PostCode":"1110","LatLong":"-33.8678,151.2073"},{"Name":"Sydney","PostCode":"1112","LatLong":"-33.8678,151.2073"},{"Name":"Sydney","PostCode":"1113","LatLong":"-33.8678,151.2073"},{"Name":"Sydney","PostCode":"1114","LatLong":"-33.8678,151.2073"},{"Name":"Sydney","PostCode":"1115","LatLong":"-33.8678,151.2073"},{"Name":"Sydney","PostCode":"1116","LatLong":"-33.8678,151.2073"},{"Name":"Sydney","PostCode":"1117","LatLong":"-33.8678,151.2073"},{"Name":"Sydney","PostCode":"1118","LatLong":"-33.8678,151.2073"},{"Name":"Sydney","PostCode":"1119","LatLong":"-33.8678,151.2073"},{"Name":"Sydney","PostCode":"1120","LatLong":"-33.8678,151.2073"},{"Name":"Sydney","PostCode":"1121","LatLong":"-33.8678,151.2073"},{"Name":"Sydney","PostCode":"1122","LatLong":"-33.8678,151.2073"},{"Name":"Sydney","PostCode":"1123","LatLong":"-33.8678,151.2073"},{"Name":"Sydney","PostCode":"1124","LatLong":"-33.8678,151.2073"},{"Name":"Sydney","PostCode":"1125","LatLong":"-33.8678,151.2073"},{"Name":"Sydney","PostCode":"1126","LatLong":"-33.8678,151.2073"},{"Name":"Sydney","PostCode":"1127","LatLong":"-33.8678,151.2073"},{"Name":"Sydney","PostCode":"1128","LatLong":"-33.8678,151.2073"},{"Name":"Sydney","PostCode":"1129","LatLong":"-33.8678,151.2073"},{"Name":"Sydney","PostCode":"1130","LatLong":"-33.8678,151.2073"},{"Name":"Sydney","PostCode":"1131","LatLong":"-33.8678,151.2073"},{"Name":"Sydney","PostCode":"1132","LatLong":"-33.8678,151.2073"},{"Name":"Sydney","PostCode":"1133","LatLong":"-33.8678,151.2073"},{"Name":"Sydney","PostCode":"1134","LatLong":"-33.8678,151.2073"},{"Name":"Sydney","PostCode":"1135","LatLong":"-33.8678,151.2073"},{"Name":"Sydney","PostCode":"1136","LatLong":"-33.8678,151.2073"},{"Name":"Sydney","PostCode":"1137","LatLong":"-33.8678,151.2073"},{"Name":"Sydney","PostCode":"1138","LatLong":"-33.8678,151.2073"},{"Name":"Sydney","PostCode":"1139","LatLong":"-33.8678,151.2073"},{"Name":"Sydney","PostCode":"1140","LatLong":"-33.8678,151.2073"},{"Name":"Sydney","PostCode":"1141","LatLong":"-33.8678,151.2073"},{"Name":"Sydney","PostCode":"1142","LatLong":"-33.8678,151.2073"},{"Name":"Sydney","PostCode":"1143","LatLong":"-33.8678,151.2073"},{"Name":"Sydney","PostCode":"1144","LatLong":"-33.8678,151.2073"},{"Name":"Sydney","PostCode":"1145","LatLong":"-33.8678,151.2073"},{"Name":"Sydney","PostCode":"1146","LatLong":"-33.8678,151.2073"},{"Name":"Sydney","PostCode":"1147","LatLong":"-33.8678,151.2073"},{"Name":"Sydney","PostCode":"1148","LatLong":"-33.8678,151.2073"},{"Name":"Sydney","PostCode":"1149","LatLong":"-33.8678,151.2073"},{"Name":"Sydney","PostCode":"1150","LatLong":"-33.8678,151.2073"},{"Name":"Sydney","PostCode":"1151","LatLong":"-33.8678,151.2073"},{"Name":"Sydney","PostCode":"1152","LatLong":"-33.8678,151.2073"},{"Name":"Sydney","PostCode":"1153","LatLong":"-33.8678,151.2073"},{"Name":"Sydney","PostCode":"1154","LatLong":"-33.8678,151.2073"},{"Name":"Sydney","PostCode":"1155","LatLong":"-33.8678,151.2073"},{"Name":"Sydney","PostCode":"1156","LatLong":"-33.8678,151.2073"},{"Name":"Sydney","PostCode":"1157","LatLong":"-33.8678,151.2073"},{"Name":"Sydney","PostCode":"1158","LatLong":"-33.8678,151.2073"},{"Name":"Sydney","PostCode":"1159","LatLong":"-33.8678,151.2073"},{"Name":"Sydney","PostCode":"1160","LatLong":"-33.8678,151.2073"},{"Name":"Sydney","PostCode":"1161","LatLong":"-33.8678,151.2073"},{"Name":"Sydney","PostCode":"1162","LatLong":"-33.8678,151.2073"},{"Name":"Sydney","PostCode":"1163","LatLong":"-33.8678,151.2073"},{"Name":"Sydney","PostCode":"1164","LatLong":"-33.8678,151.2073"},{"Name":"Sydney","PostCode":"1165","LatLong":"-33.8678,151.2073"},{"Name":"Sydney","PostCode":"1166","LatLong":"-33.8678,151.2073"},{"Name":"Sydney","PostCode":"1167","LatLong":"-33.8678,151.2073"},{"Name":"Sydney","PostCode":"1168","LatLong":"-33.8678,151.2073"},{"Name":"Sydney","PostCode":"1169","LatLong":"-33.8678,151.2073"},{"Name":"Sydney","PostCode":"1170","LatLong":"-33.8678,151.2073"},{"Name":"Sydney","PostCode":"1171","LatLong":"-33.8678,151.2073"},{"Name":"Sydney","PostCode":"1172","LatLong":"-33.8678,151.2073"},{"Name":"Sydney","PostCode":"1173","LatLong":"-33.8678,151.2073"},{"Name":"Sydney","PostCode":"1174","LatLong":"-33.8678,151.2073"},{"Name":"Sydney","PostCode":"1175","LatLong":"-33.8678,151.2073"},{"Name":"Sydney","PostCode":"1176","LatLong":"-33.8678,151.2073"},{"Name":"Sydney","PostCode":"1177","LatLong":"-33.8678,151.2073"},{"Name":"Sydney","PostCode":"1178","LatLong":"-33.8678,151.2073"},{"Name":"Sydney","PostCode":"1179","LatLong":"-33.8678,151.2073"},{"Name":"Sydney","PostCode":"1180","LatLong":"-33.8678,151.2073"},{"Name":"Sydney","PostCode":"1181","LatLong":"-33.8678,151.2073"},{"Name":"Sydney","PostCode":"1182","LatLong":"-33.8678,151.2073"},{"Name":"Sydney","PostCode":"1183","LatLong":"-33.8678,151.2073"},{"Name":"Sydney","PostCode":"1184","LatLong":"-33.8678,151.2073"},{"Name":"Sydney","PostCode":"1185","LatLong":"-33.8678,151.2073"},{"Name":"Sydney","PostCode":"1186","LatLong":"-33.8678,151.2073"},{"Name":"Sydney","PostCode":"1187","LatLong":"-33.8678,151.2073"},{"Name":"Sydney","PostCode":"1188","LatLong":"-33.8678,151.2073"},{"Name":"Sydney","PostCode":"1189","LatLong":"-33.8678,151.2073"},{"Name":"Sydney","PostCode":"1190","LatLong":"-33.8678,151.2073"},{"Name":"Sydney","PostCode":"1191","LatLong":"-33.8678,151.2073"},{"Name":"Sydney","PostCode":"1192","LatLong":"-33.8678,151.2073"},{"Name":"Sydney","PostCode":"1193","LatLong":"-33.8678,151.2073"},{"Name":"Sydney","PostCode":"1194","LatLong":"-33.8678,151.2073"},{"Name":"Sydney","PostCode":"1195","LatLong":"-33.8678,151.2073"},{"Name":"Sydney","PostCode":"1196","LatLong":"-33.8678,151.2073"},{"Name":"Sydney","PostCode":"1197","LatLong":"-33.8678,151.2073"},{"Name":"Sydney","PostCode":"1198","LatLong":"-33.8678,151.2073"},{"Name":"Sydney","PostCode":"1199","LatLong":"-33.8678,151.2073"},{"Name":"Sydney","PostCode":"1200","LatLong":"-33.8678,151.2073"},{"Name":"Sydney","PostCode":"1201","LatLong":"-33.8678,151.2073"},{"Name":"Sydney","PostCode":"1202","LatLong":"-33.8678,151.2073"},{"Name":"Sydney","PostCode":"1203","LatLong":"-33.8678,151.2073"},{"Name":"Sydney","PostCode":"1204","LatLong":"-33.8678,151.2073"},{"Name":"Sydney","PostCode":"1205","LatLong":"-33.8678,151.2073"},{"Name":"Sydney","PostCode":"1206","LatLong":"-33.8678,151.2073"},{"Name":"Sydney","PostCode":"1207","LatLong":"-33.8678,151.2073"},{"Name":"Haymarket","PostCode":"1208","LatLong":"-33.8787,151.2053"},{"Name":"Australia Square","PostCode":"1209","LatLong":"-33.8691,151.2071"},{"Name":"Australia Square","PostCode":"1210","LatLong":"-33.8707,151.2068"},{"Name":"Australia Square","PostCode":"1211","LatLong":"-33.8707,151.2068"},{"Name":"Australia Square","PostCode":"1212","LatLong":"-33.8707,151.2068"},{"Name":"Australia Square","PostCode":"1213","LatLong":"-33.8707,151.2068"},{"Name":"Australia Square","PostCode":"1214","LatLong":"-33.8707,151.2068"},{"Name":"Grosvenor Place","PostCode":"1216","LatLong":"-33.8707,151.2068"},{"Name":"Grosvenor Place","PostCode":"1217","LatLong":"-33.8707,151.2068"},{"Name":"Grosvenor Place","PostCode":"1218","LatLong":"-33.8707,151.2068"},{"Name":"Grosvenor Place","PostCode":"1219","LatLong":"-33.8707,151.2068"},{"Name":"Royal Exchange","PostCode":"1221","LatLong":"-33.8707,151.2068"},{"Name":"Royal Exchange","PostCode":"1222","LatLong":"-33.8707,151.2068"},{"Name":"Royal Exchange","PostCode":"1223","LatLong":"-33.8707,151.2068"},{"Name":"Royal Exchange","PostCode":"1224","LatLong":"-33.8707,151.2068"},{"Name":"Queen Victoria Building","PostCode":"1226","LatLong":"-33.8707,151.2068"},{"Name":"Queen Victoria Building","PostCode":"1227","LatLong":"-33.8707,151.2068"},{"Name":"Queen Victoria Building","PostCode":"1228","LatLong":"-33.8707,151.2068"},{"Name":"Queen Victoria Building","PostCode":"1229","LatLong":"-33.8707,151.2068"},{"Name":"Sydney South","PostCode":"1231","LatLong":"-33.8787,151.2053"},{"Name":"Sydney South","PostCode":"1232","LatLong":"-33.8787,151.2053"},{"Name":"Sydney South","PostCode":"1233","LatLong":"-33.8787,151.2053"},{"Name":"Sydney South","PostCode":"1234","LatLong":"-33.8787,151.2053"},{"Name":"Haymarket","PostCode":"1236","LatLong":"-33.8787,151.2053"},{"Name":"Haymarket","PostCode":"1237","LatLong":"-33.8787,151.2053"},{"Name":"Haymarket","PostCode":"1238","LatLong":"-33.8787,151.2053"},{"Name":"Haymarket","PostCode":"1239","LatLong":"-33.8787,151.2053"},{"Name":"Sydney","PostCode":"1291","LatLong":"-33.8678,151.2073"},{"Name":"Sydney","PostCode":"1292","LatLong":"-33.8678,151.2073"},{"Name":"Sydney","PostCode":"1293","LatLong":"-33.8678,151.2073"},{"Name":"Sydney","PostCode":"1294","LatLong":"-33.8678,151.2073"},{"Name":"Sydney","PostCode":"1295","LatLong":"-33.8678,151.2073"},{"Name":"Sydney","PostCode":"1296","LatLong":"-33.8678,151.2073"},{"Name":"Sydney","PostCode":"1297","LatLong":"-33.8678,151.2073"},{"Name":"Sydney","PostCode":"1298","LatLong":"-33.8678,151.2073"},{"Name":"Sydney","PostCode":"1299","LatLong":"-33.8678,151.2073"},{"Name":"Eastern Suburbs Mc","PostCode":"1311","LatLong":"-33.8784,151.2313"},{"Name":"Eastern Suburbs Mc","PostCode":"1312","LatLong":"-33.8784,151.2313"},{"Name":"Eastern Suburbs Mc","PostCode":"1313","LatLong":"-33.8784,151.2313"},{"Name":"Eastern Suburbs Mc","PostCode":"1314","LatLong":"-33.8784,151.2313"},{"Name":"Eastern Suburbs Mc","PostCode":"1315","LatLong":"-33.8784,151.2313"},{"Name":"Eastern Suburbs Mc","PostCode":"1316","LatLong":"-33.8784,151.2313"},{"Name":"Eastern Suburbs Mc","PostCode":"1317","LatLong":"-33.8784,151.2313"},{"Name":"Eastern Suburbs Mc","PostCode":"1318","LatLong":"-33.8784,151.2313"},{"Name":"Eastern Suburbs Mc","PostCode":"1319","LatLong":"-33.8784,151.2313"},{"Name":"Eastern Suburbs Mc","PostCode":"1320","LatLong":"-33.8784,151.2313"},{"Name":"Eastern Suburbs Mc","PostCode":"1321","LatLong":"-33.8784,151.2313"},{"Name":"Eastern Suburbs Mc","PostCode":"1322","LatLong":"-33.8784,151.2313"},{"Name":"Eastern Suburbs Mc","PostCode":"1323","LatLong":"-33.8784,151.2313"},{"Name":"Eastern Suburbs Mc","PostCode":"1324","LatLong":"-33.8784,151.2313"},{"Name":"Eastern Suburbs Mc","PostCode":"1325","LatLong":"-33.8784,151.2313"},{"Name":"Eastern Suburbs Mc","PostCode":"1326","LatLong":"-33.8784,151.2313"},{"Name":"Eastern Suburbs Mc","PostCode":"1327","LatLong":"-33.8784,151.2313"},{"Name":"Eastern Suburbs Mc","PostCode":"1328","LatLong":"-33.8784,151.2313"},{"Name":"Eastern Suburbs Mc","PostCode":"1329","LatLong":"-33.8784,151.2313"},{"Name":"Eastern Suburbs Mc","PostCode":"1330","LatLong":"-33.8693,151.2248"},{"Name":"Eastern Suburbs Mc","PostCode":"1331","LatLong":"-33.8693,151.2248"},{"Name":"Eastern Suburbs Mc","PostCode":"1332","LatLong":"-33.8693,151.2248"},{"Name":"Eastern Suburbs Mc","PostCode":"1333","LatLong":"-33.8693,151.2248"},{"Name":"Eastern Suburbs Mc","PostCode":"1334","LatLong":"-33.8693,151.2248"},{"Name":"Eastern Suburbs Mc","PostCode":"1391","LatLong":"-33.8784,151.2313"},{"Name":"Broadway","PostCode":"1401","LatLong":"-33.9475,151.1522"},{"Name":"Southern Suburbs Mc","PostCode":"1416","LatLong":"-33.9475,151.1522"},{"Name":"Southern Suburbs Mc","PostCode":"1419","LatLong":"-33.9475,151.1522"},{"Name":"Strawberry Hills","PostCode":"1420","LatLong":"-33.9475,151.1522"},{"Name":"Strawberry Hills","PostCode":"1421","LatLong":"-33.9475,151.1522"},{"Name":"Strawberry Hills","PostCode":"1422","LatLong":"-33.9475,151.1522"},{"Name":"Strawberry Hills","PostCode":"1423","LatLong":"-33.9475,151.1522"},{"Name":"Strawberry Hills","PostCode":"1424","LatLong":"-33.9475,151.1522"},{"Name":"Strawberry Hills","PostCode":"1425","LatLong":"-33.9475,151.1522"},{"Name":"Strawberry Hills","PostCode":"1426","LatLong":"-33.9475,151.1522"},{"Name":"Strawberry Hills","PostCode":"1427","LatLong":"-33.9475,151.1522"},{"Name":"Strawberry Hills","PostCode":"1428","LatLong":"-33.9475,151.1522"},{"Name":"Strawberry Hills","PostCode":"1429","LatLong":"-33.9475,151.1522"},{"Name":"Eveleigh","PostCode":"1430","LatLong":"-33.8956,151.1924"},{"Name":"Waterloo","PostCode":"1440","LatLong":"-33.9167,151.2"},{"Name":"Kingsgrove DC","PostCode":"1484","LatLong":"-33.9687,151.1109"},{"Name":"Kogarah","PostCode":"1487","LatLong":"-33.9833,151.1167"},{"Name":"Hurstville","PostCode":"1493","LatLong":"-33.9799,151.0903"},{"Name":"Crows Nest","PostCode":"1582","LatLong":"-33.8265,151.2019"},{"Name":"Lane Cove","PostCode":"1597","LatLong":"-33.8157,151.1668"},{"Name":"Lane Cove DC","PostCode":"1602","LatLong":"-33.7554,151.1998"},{"Name":"Mona Vale","PostCode":"1658","LatLong":"-33.6776,151.3031"},{"Name":"North Ryde","PostCode":"1671","LatLong":"-33.7968,151.1244"},{"Name":"Northern Suburbs Mc","PostCode":"1690","LatLong":"-33.7554,151.1998"},{"Name":"Northern Suburbs Mc","PostCode":"1691","LatLong":"-33.7554,151.1998"},{"Name":"Northern Suburbs Mc","PostCode":"1692","LatLong":"-33.7554,151.1998"},{"Name":"Northern Suburbs Mc","PostCode":"1693","LatLong":"-33.7554,151.1998"},{"Name":"Northern Suburbs Mc","PostCode":"1694","LatLong":"-33.7554,151.1998"},{"Name":"Northern Suburbs Mc","PostCode":"1695","LatLong":"-33.7554,151.1998"},{"Name":"Northern Suburbs Mc","PostCode":"1696","LatLong":"-33.7554,151.1998"},{"Name":"Northern Suburbs Mc","PostCode":"1697","LatLong":"-33.7554,151.1998"},{"Name":"Northern Suburbs Mc","PostCode":"1698","LatLong":"-33.7554,151.1998"},{"Name":"Northern Suburbs Mc","PostCode":"1699","LatLong":"-33.7554,151.1998"},{"Name":"Epping","PostCode":"1712","LatLong":"-33.7727,151.0818"},{"Name":"Parramatta","PostCode":"1740","LatLong":"-33.7613,151.0294"},{"Name":"Parramatta","PostCode":"1741","LatLong":"-33.7613,151.0294"},{"Name":"Pennant Hills","PostCode":"1771","LatLong":"-33.7378,151.0722"},{"Name":"Seven Hills Mc","PostCode":"1781","LatLong":"-33.7613,151.0294"},{"Name":"Penrith South DC","PostCode":"1797","LatLong":"-33.7613,151.0294"},{"Name":"Lidcombe","PostCode":"1826","LatLong":"-33.8644,151.0397"},{"Name":"Granville","PostCode":"1830","LatLong":"-33.8333,151.0167"},{"Name":"Granville","PostCode":"1831","LatLong":"-33.8333,151.0167"},{"Name":"Guildford","PostCode":"1848","LatLong":"-33.8643,150.9839"},{"Name":"Bankstown","PostCode":"1888","LatLong":"-33.9167,151.0333"},{"Name":"Leightonfield Mc","PostCode":"1900","LatLong":"-33.8816,150.9844"},{"Name":"Leightonfield Mc","PostCode":"1902","LatLong":"-33.8816,150.9844"},{"Name":"Barangaroo","PostCode":"2000","LatLong":"-33.8603,151.2016"},{"Name":"Parliament House","PostCode":"2000","LatLong":"-33.8651,151.2053"},{"Name":"World Square","PostCode":"2002","LatLong":"-33.8699,151.2025"},{"Name":"Alexandria Mc","PostCode":"2004","LatLong":"-33.8699,151.2025"},{"Name":"Moore Park","PostCode":"2021","LatLong":"-33.9014,151.2138"},{"Name":"North Bondi","PostCode":"2026","LatLong":"-33.8853,151.2752"},{"Name":"Hmas Rushcutters","PostCode":"2027","LatLong":"-33.8688,151.2444"},{"Name":"Hmas Watson","PostCode":"2030","LatLong":"-33.8625,151.2819"},{"Name":"South Coogee","PostCode":"2034","LatLong":"-33.9205,151.2552"},{"Name":"Maroubra South","PostCode":"2035","LatLong":"-33.9445,151.2265"},{"Name":"Forest Lodge","PostCode":"2037","LatLong":"-33.8814,151.18"},{"Name":"Balmain East","PostCode":"2041","LatLong":"-33.8571,151.1928"},{"Name":"Petersham North","PostCode":"2049","LatLong":"-33.8946,151.1549"},{"Name":"North Sydney","PostCode":"2055","LatLong":"-33.839,151.2072"},{"Name":"Northern Suburbs Mc","PostCode":"2058","LatLong":"-33.8427,151.1936"},{"Name":"Hmas Platypus","PostCode":"2060","LatLong":"-33.842,151.2046"},{"Name":"Hmas Waterhen","PostCode":"2060","LatLong":"-33.842,151.2046"},{"Name":"Willoughby East","PostCode":"2068","LatLong":"-33.7984,151.2052"},{"Name":"Willoughby North","PostCode":"2068","LatLong":"-33.8094,151.2222"},{"Name":"North Willoughby","PostCode":"2068","LatLong":"-33.7956,151.2007"},{"Name":"Roseville Chase","PostCode":"2069","LatLong":"-33.7785,151.1968"},{"Name":"East Killara","PostCode":"2071","LatLong":"-33.7554,151.1815"},{"Name":"St Ives Chase","PostCode":"2075","LatLong":"-33.7038,151.1646"},{"Name":"North Wahroonga","PostCode":"2076","LatLong":"-33.7053,151.1228"},{"Name":"Hornsby Heights","PostCode":"2077","LatLong":"-33.6713,151.0943"},{"Name":"Berowra Creek","PostCode":"2082","LatLong":"-33.5827,151.1221"},{"Name":"Cogra Bay","PostCode":"2083","LatLong":"-33.5198,151.222"},{"Name":"Cheero Point","PostCode":"2083","LatLong":"-33.5096,151.1932"},{"Name":"Bar Point","PostCode":"2083","LatLong":"-33.5122,151.1622"},{"Name":"Cottage Point","PostCode":"2084","LatLong":"-33.6197,151.2036"},{"Name":"Frenchs Forest East","PostCode":"2086","LatLong":"-33.7482,151.2232"},{"Name":"Kurraba Point","PostCode":"2089","LatLong":"-33.8424,151.2226"},{"Name":"Cremorne Point","PostCode":"2090","LatLong":"-33.8401,151.227"},{"Name":"Hmas Penguin","PostCode":"2091","LatLong":"-33.7787,151.2745"},{"Name":"Balgowlah Heights","PostCode":"2093","LatLong":"-33.8066,151.2624"},{"Name":"North Balgowlah","PostCode":"2093","LatLong":"-33.7863,151.248"},{"Name":"Manly East","PostCode":"2095","LatLong":"-33.798,151.2883"},{"Name":"Freshwater","PostCode":"2096","LatLong":"-33.7787,151.2857"},{"Name":"Collaroy Plateau","PostCode":"2097","LatLong":"-33.7293,151.2865"},{"Name":"North Narrabeen","PostCode":"2101","LatLong":"-33.7093,151.2961"},{"Name":"Morning Bay","PostCode":"2105","LatLong":"-33.629,151.2867"},{"Name":"Mccarrs Creek","PostCode":"2105","LatLong":"-33.6344,151.2889"},{"Name":"Bilgola Plateau","PostCode":"2107","LatLong":"-33.6478,151.3121"},{"Name":"Bilgola Beach","PostCode":"2107","LatLong":"-33.6449,151.3243"},{"Name":"Clareville","PostCode":"2107","LatLong":"-33.6297,151.3168"},{"Name":"Currawong Beach","PostCode":"2108","LatLong":"-33.5968,151.2972"},{"Name":"Coasters Retreat","PostCode":"2108","LatLong":"-33.6061,151.298"},{"Name":"Great Mackerel Beach","PostCode":"2108","LatLong":"-33.5961,151.297"},{"Name":"Boronia Park","PostCode":"2111","LatLong":"-33.8344,151.1293"},{"Name":"Dundas Valley","PostCode":"2117","LatLong":"-33.7883,151.0526"},{"Name":"Carlingford North","PostCode":"2118","LatLong":"-33.7722,151.0172"},{"Name":"North Epping","PostCode":"2121","LatLong":"-33.7594,151.0925"},{"Name":"Wentworth Point","PostCode":"2127","LatLong":"-33.8308,151.0744"},{"Name":"Sydney Olympic Park","PostCode":"2127","LatLong":"-33.8498,151.0683"},{"Name":"Burwood North","PostCode":"2134","LatLong":"-33.8833,151.1"},{"Name":"Breakfast Point","PostCode":"2137","LatLong":"-33.8429,151.1107"},{"Name":"Liberty Grove","PostCode":"2138","LatLong":"-33.8409,151.084"},{"Name":"Homebush West","PostCode":"2140","LatLong":"-33.8626,151.0913"},{"Name":"Homebush South","PostCode":"2140","LatLong":"-33.8667,151.0833"},{"Name":"Rookwood","PostCode":"2141","LatLong":"-33.8742,151.0557"},{"Name":"Lidcombe North","PostCode":"2141","LatLong":"-33.8693,151.0477"},{"Name":"South Granville","PostCode":"2142","LatLong":"-33.8333,151.0167"},{"Name":"Clyde","PostCode":"2142","LatLong":"-33.8333,151.0167"},{"Name":"South Wentworthville","PostCode":"2145","LatLong":"-33.8185,150.9634"},{"Name":"Constitution Hill","PostCode":"2145","LatLong":"-33.7926,150.9763"},{"Name":"Arndell Park","PostCode":"2148","LatLong":"-33.7893,150.8816"},{"Name":"Huntingwood","PostCode":"2148","LatLong":"-33.7975,150.8799"},{"Name":"Parramatta Westfield","PostCode":"2150","LatLong":"-33.8197,151.0067"},{"Name":"Forest Glen","PostCode":"2157","LatLong":"-33.5502,151.0138"},{"Name":"Canoelands","PostCode":"2157","LatLong":"-33.5,151.0667"},{"Name":"Middle Dural","PostCode":"2158","LatLong":"-33.646,151.0205"},{"Name":"Lansdowne","PostCode":"2163","LatLong":"-33.896,150.9756"},{"Name":"Woodpark","PostCode":"2164","LatLong":"-33.8414,150.9605"},{"Name":"Cabramatta West","PostCode":"2166","LatLong":"-33.8967,150.9106"},{"Name":"Liverpool Westfield","PostCode":"2170","LatLong":"-33.9239,150.9224"},{"Name":"Middleton Grange","PostCode":"2171","LatLong":"-33.917,150.8419"},{"Name":"Carnes Hill","PostCode":"2171","LatLong":"-33.9385,150.8488"},{"Name":"Len Waters Estate","PostCode":"2171","LatLong":"-33.9201,150.8502"},{"Name":"Elizabeth Hills","PostCode":"2171","LatLong":"-33.9201,150.8502"},{"Name":"Bankstown Aerodrome","PostCode":"2200","LatLong":"-33.9206,151.0221"},{"Name":"Padstow Heights","PostCode":"2211","LatLong":"-33.9674,151.0399"},{"Name":"Revesby Heights","PostCode":"2212","LatLong":"-33.9671,151.0184"},{"Name":"Dolls Point","PostCode":"2219","LatLong":"-33.995,151.1455"},{"Name":"Hurstville Grove","PostCode":"2220","LatLong":"-33.9799,151.0903"},{"Name":"Gymea Bay","PostCode":"2227","LatLong":"-34.0521,151.088"},{"Name":"Caringbah South","PostCode":"2229","LatLong":"-34.0566,151.1215"},{"Name":"Greenhills Beach","PostCode":"2230","LatLong":"-34.0328,151.1762"},{"Name":"Burraneer","PostCode":"2230","LatLong":"-34.0562,151.1381"},{"Name":"Mount Elliot","PostCode":"2250","LatLong":"-33.4009,151.3879"},{"Name":"Mooney Mooney Creek","PostCode":"2250","LatLong":"-33.4826,151.2275"},{"Name":"Ten Mile Hollow","PostCode":"2250","LatLong":"-33.389,151.2859"},{"Name":"Greengrove","PostCode":"2250","LatLong":"-33.3833,151.15"},{"Name":"North Gosford","PostCode":"2250","LatLong":"-33.389,151.2859"},{"Name":"Bucketty","PostCode":"2250","LatLong":"-33.389,151.2859"},{"Name":"Central Mangrove","PostCode":"2250","LatLong":"-33.293,151.2387"},{"Name":"Mangrove Creek","PostCode":"2250","LatLong":"-33.35,151.15"},{"Name":"Holgate","PostCode":"2250","LatLong":"-33.4,151.4167"},{"Name":"Glenworth Valley","PostCode":"2250","LatLong":"-33.4333,151.1833"},{"Name":"Point Frederick","PostCode":"2250","LatLong":"-33.4404,151.3432"},{"Name":"Upper Mangrove","PostCode":"2250","LatLong":"-33.2833,151.1167"},{"Name":"Bouddi","PostCode":"2251","LatLong":"-33.518,151.3858"},{"Name":"Picketts Valley","PostCode":"2251","LatLong":"-33.4553,151.4109"},{"Name":"Kincumber South","PostCode":"2251","LatLong":"-33.4866,151.377"},{"Name":"Central Coast Mc","PostCode":"2252","LatLong":"-33.344,151.382"},{"Name":"Horsfield Bay","PostCode":"2256","LatLong":"-33.4924,151.301"},{"Name":"Wondabyne","PostCode":"2256","LatLong":"-33.4876,151.262"},{"Name":"Little Wobby","PostCode":"2256","LatLong":"-33.5454,151.2564"},{"Name":"Woy Woy Bay","PostCode":"2256","LatLong":"-33.4834,151.312"},{"Name":"Killcare Heights","PostCode":"2257","LatLong":"-33.5239,151.3682"},{"Name":"Box Head","PostCode":"2257","LatLong":"-33.5308,151.355"},{"Name":"Wagstaffe","PostCode":"2257","LatLong":"-33.5236,151.3409"},{"Name":"Palmdale","PostCode":"2258","LatLong":"-33.3333,151.3667"},{"Name":"Palm Grove","PostCode":"2258","LatLong":"-33.3333,151.3167"},{"Name":"Fountaindale","PostCode":"2258","LatLong":"-33.3477,151.4011"},{"Name":"Cedar Brush Creek","PostCode":"2259","LatLong":"-33.1667,151.2833"},{"Name":"Rocky Point","PostCode":"2259","LatLong":"-33.2934,151.4699"},{"Name":"Kiar","PostCode":"2259","LatLong":"-33.2012,151.4376"},{"Name":"Wybung","PostCode":"2259","LatLong":"-33.2192,151.4569"},{"Name":"Freemans","PostCode":"2259","LatLong":"-33.2063,151.6012"},{"Name":"Frazer Park","PostCode":"2259","LatLong":"-33.2192,151.4569"},{"Name":"Wyee Point","PostCode":"2259","LatLong":"-33.1278,151.5131"},{"Name":"Crangan Bay","PostCode":"2259","LatLong":"-33.1735,151.5882"},{"Name":"Wadalba","PostCode":"2259","LatLong":"-33.2723,151.4649"},{"Name":"Point Wolstoncroft","PostCode":"2259","LatLong":"-33.1203,151.5844"},{"Name":"Little Jilliby","PostCode":"2259","LatLong":"-33.2407,151.3701"},{"Name":"Moonee","PostCode":"2259","LatLong":"-30.2057,153.1529"},{"Name":"Kingfisher Shores","PostCode":"2259","LatLong":"-33.1683,151.5531"},{"Name":"Bushells Ridge","PostCode":"2259","LatLong":"-33.21,151.4747"},{"Name":"Wyong Creek","PostCode":"2259","LatLong":"-33.2667,151.3667"},{"Name":"Alison","PostCode":"2259","LatLong":"-33.2768,151.4021"},{"Name":"Tacoma South","PostCode":"2259","LatLong":"-33.293,151.4534"},{"Name":"The Entrance North","PostCode":"2261","LatLong":"-33.3357,151.5034"},{"Name":"Magenta","PostCode":"2261","LatLong":"-33.292,151.5469"},{"Name":"Budgewoi Peninsula","PostCode":"2262","LatLong":"-33.2106,151.5855"},{"Name":"Doyalson North","PostCode":"2262","LatLong":"-33.1873,151.5488"},{"Name":"Colongra","PostCode":"2262","LatLong":"-33.2069,151.5436"},{"Name":"Canton Beach","PostCode":"2263","LatLong":"-33.2744,151.5461"},{"Name":"Morisset Park","PostCode":"2264","LatLong":"-33.1198,151.537"},{"Name":"Windermere Park","PostCode":"2264","LatLong":"-33.121,151.5307"},{"Name":"Myuna Bay","PostCode":"2264","LatLong":"-33.045,151.5281"},{"Name":"Balcolyn","PostCode":"2264","LatLong":"-33.0957,151.552"},{"Name":"Belmont North","PostCode":"2280","LatLong":"-33.0208,151.6685"},{"Name":"Belmont South","PostCode":"2280","LatLong":"-33.0493,151.6569"},{"Name":"Little Pelican","PostCode":"2281","LatLong":"-33.0823,151.6455"},{"Name":"Pelican","PostCode":"2281","LatLong":"-33.0684,151.6446"},{"Name":"Swansea Heads","PostCode":"2281","LatLong":"-33.0965,151.655"},{"Name":"Murrays Beach","PostCode":"2281","LatLong":"-33.1201,151.6297"},{"Name":"Pinny Beach","PostCode":"2281","LatLong":"-33.1217,151.639"},{"Name":"Ryhope","PostCode":"2283","LatLong":"-32.9913,151.522"},{"Name":"Cardiff South","PostCode":"2285","LatLong":"-32.9547,151.6645"},{"Name":"Cameron Park","PostCode":"2285","LatLong":"-32.907,151.6053"},{"Name":"Macquarie Hills","PostCode":"2285","LatLong":"-32.9511,151.6446"},{"Name":"Cardiff Heights","PostCode":"2285","LatLong":"-32.9363,151.6723"},{"Name":"Seahampton","PostCode":"2286","LatLong":"-32.8895,151.5832"},{"Name":"Kotara South","PostCode":"2289","LatLong":"-32.95,151.6833"},{"Name":"Hamilton North","PostCode":"2292","LatLong":"-32.9119,151.7368"},{"Name":"Eccleston","PostCode":"2311","LatLong":"-32.25,151.5"},{"Name":"Mount Rivers","PostCode":"2311","LatLong":"-32.3652,151.4846"},{"Name":"Upper Allyn","PostCode":"2311","LatLong":"-32.3529,151.5156"},{"Name":"Carrabolla","PostCode":"2311","LatLong":"-32.3529,151.5156"},{"Name":"Bingleburra","PostCode":"2311","LatLong":"-32.3529,151.5156"},{"Name":"Lewinsbrook","PostCode":"2311","LatLong":"-32.3529,151.5156"},{"Name":"Minimbah","PostCode":"2312","LatLong":"-32.1577,152.3748"},{"Name":"One Mile","PostCode":"2316","LatLong":"-32.77,152.07"},{"Name":"Taylors Beach","PostCode":"2316","LatLong":"-32.7488,152.067"},{"Name":"Fishermans Bay","PostCode":"2316","LatLong":"-32.7858,152.0896"},{"Name":"Ferodale","PostCode":"2318","LatLong":"-32.7333,151.85"},{"Name":"Tilligerry Creek","PostCode":"2319","LatLong":"-32.7393,152.0172"},{"Name":"Horseshoe Bend","PostCode":"2320","LatLong":"-32.7353,151.5683"},{"Name":"Oakhampton Heights","PostCode":"2320","LatLong":"-32.7331,151.5279"},{"Name":"Oakhampton","PostCode":"2320","LatLong":"-32.7,151.5667"},{"Name":"Gosforth","PostCode":"2320","LatLong":"-32.6667,151.4833"},{"Name":"Aberglasslyn","PostCode":"2320","LatLong":"-32.7,151.5333"},{"Name":"Glen Oak","PostCode":"2320","LatLong":"-32.6167,151.7167"},{"Name":"Rosebrook","PostCode":"2320","LatLong":"-32.65,151.5167"},{"Name":"Wallalong","PostCode":"2320","LatLong":"-32.6956,151.6496"},{"Name":"Melville","PostCode":"2320","LatLong":"-32.7331,151.5279"},{"Name":"Windella","PostCode":"2320","LatLong":"-32.7033,151.4802"},{"Name":"Mount Dee","PostCode":"2320","LatLong":"-32.7331,151.5279"},{"Name":"South Maitland","PostCode":"2320","LatLong":"-32.7453,151.5634"},{"Name":"Keinbah","PostCode":"2320","LatLong":"-32.7331,151.5279"},{"Name":"Bolwarra Heights","PostCode":"2320","LatLong":"-32.701,151.5854"},{"Name":"Mindaribba","PostCode":"2320","LatLong":"-32.7331,151.5279"},{"Name":"Louth Park","PostCode":"2320","LatLong":"-32.7709,151.5483"},{"Name":"Maitland Vale","PostCode":"2320","LatLong":"-32.7331,151.5279"},{"Name":"Anambah","PostCode":"2320","LatLong":"-32.7331,151.5279"},{"Name":"Allandale","PostCode":"2320","LatLong":"-32.7196,151.4028"},{"Name":"Oswald","PostCode":"2321","LatLong":"-32.7062,151.4215"},{"Name":"Butterwick","PostCode":"2321","LatLong":"-32.6564,151.6369"},{"Name":"Duckenfield","PostCode":"2321","LatLong":"-32.7333,151.6833"},{"Name":"Berry Park","PostCode":"2321","LatLong":"-32.7333,151.6667"},{"Name":"Windermere","PostCode":"2321","LatLong":"-32.6897,151.4474"},{"Name":"Cliftleigh","PostCode":"2321","LatLong":"-32.7353,151.622"},{"Name":"Luskintyre","PostCode":"2321","LatLong":"-32.6834,151.427"},{"Name":"Harpers Hill","PostCode":"2321","LatLong":"-32.7353,151.622"},{"Name":"Glen Martin","PostCode":"2321","LatLong":"-32.7353,151.622"},{"Name":"Duns Creek","PostCode":"2321","LatLong":"-32.7353,151.622"},{"Name":"Phoenix Park","PostCode":"2321","LatLong":"-32.7353,151.622"},{"Name":"Chisholm","PostCode":"2322","LatLong":"-32.8072,151.6739"},{"Name":"Stockrington","PostCode":"2322","LatLong":"-32.8072,151.6739"},{"Name":"Buttai","PostCode":"2323","LatLong":"-32.8219,151.5609"},{"Name":"Pitnacree","PostCode":"2323","LatLong":"-32.8048,151.5627"},{"Name":"Buchanan","PostCode":"2323","LatLong":"-32.8305,151.5312"},{"Name":"Four Mile Creek","PostCode":"2323","LatLong":"-33.4318,148.9512"},{"Name":"Richmond Vale","PostCode":"2323","LatLong":"-32.8048,151.5627"},{"Name":"Hawks Nest","PostCode":"2324","LatLong":"-32.6675,152.1783"},{"Name":"Cedar Creek","PostCode":"2325","LatLong":"-32.8552,151.2186"},{"Name":"Bellbird Heights","PostCode":"2325","LatLong":"-32.8504,151.329"},{"Name":"Lovedale","PostCode":"2325","LatLong":"-32.7705,151.3648"},{"Name":"Olney","PostCode":"2325","LatLong":"-32.88,151.3082"},{"Name":"Moruben","PostCode":"2325","LatLong":"-32.88,151.3082"},{"Name":"Greta Main","PostCode":"2325","LatLong":"-32.88,151.3082"},{"Name":"Sweetmans Creek","PostCode":"2325","LatLong":"-32.88,151.3082"},{"Name":"Corrabare","PostCode":"2325","LatLong":"-32.88,151.3082"},{"Name":"Neath","PostCode":"2326","LatLong":"-32.8276,151.4082"},{"Name":"Sawyers Gully","PostCode":"2326","LatLong":"-32.8002,151.4368"},{"Name":"Bureen","PostCode":"2328","LatLong":"-32.4404,150.452"},{"Name":"Widden","PostCode":"2328","LatLong":"-32.5167,150.3667"},{"Name":"Dalswinton","PostCode":"2328","LatLong":"-32.4404,150.452"},{"Name":"Giants Creek","PostCode":"2328","LatLong":"-32.4404,150.452"},{"Name":"Mangoola","PostCode":"2328","LatLong":"-32.4404,150.452"},{"Name":"Martindale","PostCode":"2328","LatLong":"-32.4404,150.452"},{"Name":"Yarrawa","PostCode":"2328","LatLong":"-32.4404,150.452"},{"Name":"Wollemi","PostCode":"2330","LatLong":"-33.044,150.6799"},{"Name":"Doyles Creek","PostCode":"2330","LatLong":"-32.5485,150.7846"},{"Name":"Darlington","PostCode":"2330","LatLong":"-33.891,151.1955"},{"Name":"Bowmans Creek","PostCode":"2330","LatLong":"-32.2652,151.1346"},{"Name":"Glendon Brook","PostCode":"2330","LatLong":"-32.5207,151.3346"},{"Name":"Gowrie","PostCode":"2330","LatLong":"-31.35,150.85"},{"Name":"Mount Royal","PostCode":"2330","LatLong":"-32.2075,151.2993"},{"Name":"Maison Dieu","PostCode":"2330","LatLong":"-32.5378,151.0902"},{"Name":"Hunterview","PostCode":"2330","LatLong":"-32.5434,151.1772"},{"Name":"Whittingham","PostCode":"2330","LatLong":"-32.6167,151.2"},{"Name":"Hambledon Hill","PostCode":"2330","LatLong":"-32.6686,151.0454"},{"Name":"Glendon","PostCode":"2330","LatLong":"-29.5794,150.4082"},{"Name":"Long Point","PostCode":"2330","LatLong":"-34.0167,150.9"},{"Name":"Milbrodale","PostCode":"2330","LatLong":"-32.6686,151.0454"},{"Name":"Sedgefield","PostCode":"2330","LatLong":"-32.5402,151.2512"},{"Name":"Gouldsville","PostCode":"2330","LatLong":"-32.6686,151.0454"},{"Name":"Clydesdale","PostCode":"2330","LatLong":"-32.6686,151.0454"},{"Name":"Scotts Flat","PostCode":"2330","LatLong":"-32.6686,151.0454"},{"Name":"Bridgman","PostCode":"2330","LatLong":"-32.4543,151.1882"},{"Name":"Middle Falbrook","PostCode":"2330","LatLong":"-32.6686,151.0454"},{"Name":"Glenridding","PostCode":"2330","LatLong":"-32.6686,151.0454"},{"Name":"Rixs Creek","PostCode":"2330","LatLong":"-32.6686,151.0454"},{"Name":"Falbrook","PostCode":"2330","LatLong":"-32.6686,151.0454"},{"Name":"Obanvale","PostCode":"2330","LatLong":"-32.6686,151.0454"},{"Name":"Fordwich","PostCode":"2330","LatLong":"-32.6686,151.0454"},{"Name":"Mount Thorley","PostCode":"2330","LatLong":"-32.6686,151.0454"},{"Name":"Big Yengo","PostCode":"2330","LatLong":"-32.8931,150.8457"},{"Name":"Redbournberry","PostCode":"2330","LatLong":"-32.6686,151.0454"},{"Name":"Goorangoola","PostCode":"2330","LatLong":"-32.6686,151.0454"},{"Name":"Garland Valley","PostCode":"2330","LatLong":"-32.6686,151.0454"},{"Name":"Dyrring","PostCode":"2330","LatLong":"-32.6686,151.0454"},{"Name":"Combo","PostCode":"2330","LatLong":"-32.6686,151.0454"},{"Name":"Big Ridge","PostCode":"2330","LatLong":"-32.6686,151.0454"},{"Name":"Appletree Flat","PostCode":"2330","LatLong":"-32.6686,151.0454"},{"Name":"Dunolly","PostCode":"2330","LatLong":"-32.6686,151.0454"},{"Name":"Wattle Ponds","PostCode":"2330","LatLong":"-32.6686,151.0454"},{"Name":"Westbrook","PostCode":"2330","LatLong":"-32.6686,151.0454"},{"Name":"Lemington","PostCode":"2330","LatLong":"-32.6686,151.0454"},{"Name":"Singleton Heights","PostCode":"2330","LatLong":"-32.6686,151.0454"},{"Name":"Mcdougalls Hill","PostCode":"2330","LatLong":"-32.6686,151.0454"},{"Name":"Wylies Flat","PostCode":"2330","LatLong":"-32.6686,151.0454"},{"Name":"Fern Gully","PostCode":"2330","LatLong":"-32.6686,151.0454"},{"Name":"Roughit","PostCode":"2330","LatLong":"-32.6686,151.0454"},{"Name":"Howick","PostCode":"2330","LatLong":"-32.6686,151.0454"},{"Name":"Singleton Military Area","PostCode":"2331","LatLong":"-32.3281,150.986"},{"Name":"Baerami","PostCode":"2333","LatLong":"-32.3818,150.4679"},{"Name":"Castle Rock","PostCode":"2333","LatLong":"-32.3306,150.68"},{"Name":"Manobalai","PostCode":"2333","LatLong":"-32.1896,150.676"},{"Name":"Bengalla","PostCode":"2333","LatLong":"-32.3306,150.68"},{"Name":"Kayuga","PostCode":"2333","LatLong":"-32.2,150.8667"},{"Name":"East Branxton","PostCode":"2335","LatLong":"-33.0131,151.1701"},{"Name":"Leconfield","PostCode":"2335","LatLong":"-33.0131,151.1701"},{"Name":"Lambs Valley","PostCode":"2335","LatLong":"-33.0131,151.1701"},{"Name":"Lower Belford","PostCode":"2335","LatLong":"-33.0131,151.1701"},{"Name":"Rouchel Brook","PostCode":"2336","LatLong":"-32.1254,151.0481"},{"Name":"Upper Dartbrook","PostCode":"2336","LatLong":"-32.1568,150.8063"},{"Name":"Rossgole","PostCode":"2336","LatLong":"-32.1254,151.0481"},{"Name":"Belltrees","PostCode":"2337","LatLong":"-31.9906,151.1232"},{"Name":"Tomalla","PostCode":"2337","LatLong":"-31.85,151.4667"},{"Name":"Pages Creek","PostCode":"2337","LatLong":"-31.9573,151.0389"},{"Name":"Segenhoe","PostCode":"2337","LatLong":"-32.1167,150.9167"},{"Name":"Omadale","PostCode":"2337","LatLong":"-31.9573,151.0389"},{"Name":"Glenrock","PostCode":"2337","LatLong":"-31.6652,151.4179"},{"Name":"Dry Creek","PostCode":"2337","LatLong":"-31.9573,151.0389"},{"Name":"Murulla","PostCode":"2337","LatLong":"-31.9573,151.0389"},{"Name":"Glenbawn","PostCode":"2337","LatLong":"-31.9573,151.0389"},{"Name":"Waverly","PostCode":"2337","LatLong":"-31.9573,151.0389"},{"Name":"Middle Brook","PostCode":"2337","LatLong":"-31.9573,151.0389"},{"Name":"Moobi","PostCode":"2337","LatLong":"-31.9573,151.0389"},{"Name":"Brawboy","PostCode":"2337","LatLong":"-31.9573,151.0389"},{"Name":"Green Creek","PostCode":"2338","LatLong":"-31.7744,150.9006"},{"Name":"Timor","PostCode":"2338","LatLong":"-31.7833,151.0833"},{"Name":"Crawney","PostCode":"2338","LatLong":"-31.7744,150.9006"},{"Name":"Pages River","PostCode":"2338","LatLong":"-31.7744,150.9006"},{"Name":"Sandy Creek","PostCode":"2338","LatLong":"-31.7744,150.9006"},{"Name":"Scotts Creek","PostCode":"2338","LatLong":"-31.7744,150.9006"},{"Name":"Warrah","PostCode":"2339","LatLong":"-31.65,150.65"},{"Name":"Braefield","PostCode":"2339","LatLong":"-31.5707,150.7018"},{"Name":"Macdonalds Creek","PostCode":"2339","LatLong":"-31.6778,150.6778"},{"Name":"Big Jacks Creek","PostCode":"2339","LatLong":"-31.6778,150.6778"},{"Name":"Parraweena","PostCode":"2339","LatLong":"-31.6778,150.6778"},{"Name":"Cattle Creek","PostCode":"2339","LatLong":"-31.6778,150.6778"},{"Name":"Chilcotts Creek","PostCode":"2339","LatLong":"-31.6778,150.6778"},{"Name":"Little Jacks Creek","PostCode":"2339","LatLong":"-31.6778,150.6778"},{"Name":"Daruka","PostCode":"2340","LatLong":"-31.0373,150.9707"},{"Name":"Moore Creek","PostCode":"2340","LatLong":"-31.1512,150.9383"},{"Name":"Keepit","PostCode":"2340","LatLong":"-30.8333,150.5167"},{"Name":"Warral","PostCode":"2340","LatLong":"-31.1637,150.8567"},{"Name":"Hillvue","PostCode":"2340","LatLong":"-31.1276,150.9071"},{"Name":"Hallsville","PostCode":"2340","LatLong":"-31.0112,150.874"},{"Name":"Appleby","PostCode":"2340","LatLong":"-30.9667,150.85"},{"Name":"Loomberah","PostCode":"2340","LatLong":"-31.1833,151"},{"Name":"Taminda","PostCode":"2340","LatLong":"-31.0941,150.8962"},{"Name":"Piallamore","PostCode":"2340","LatLong":"-31.1659,151.0576"},{"Name":"Ogunbil","PostCode":"2340","LatLong":"-31.1512,150.9383"},{"Name":"East Tamworth","PostCode":"2340","LatLong":"-31.0855,150.9372"},{"Name":"Hanging Rock","PostCode":"2340","LatLong":"-31.4822,151.1921"},{"Name":"North Tamworth","PostCode":"2340","LatLong":"-31.0786,150.9222"},{"Name":"Barry","PostCode":"2340","LatLong":"-31.5817,151.3183"},{"Name":"Weabonga","PostCode":"2340","LatLong":"-31.2167,151.3167"},{"Name":"Duncans Creek","PostCode":"2340","LatLong":"-31.3667,151.2"},{"Name":"Bithramere","PostCode":"2340","LatLong":"-31.1357,150.7811"},{"Name":"Garoo","PostCode":"2340","LatLong":"-31.1512,150.9383"},{"Name":"Goonoo Goonoo","PostCode":"2340","LatLong":"-31.3079,150.9027"},{"Name":"Wallamore","PostCode":"2340","LatLong":"-31.1512,150.9383"},{"Name":"South Tamworth","PostCode":"2340","LatLong":"-31.11,150.9225"},{"Name":"Timbumburi","PostCode":"2340","LatLong":"-31.1512,150.9383"},{"Name":"Gidley","PostCode":"2340","LatLong":"-31.0119,150.8387"},{"Name":"Bective","PostCode":"2340","LatLong":"-31.0042,150.7269"},{"Name":"Piallaway","PostCode":"2342","LatLong":"-31.1667,150.5833"},{"Name":"Yannergee","PostCode":"2343","LatLong":"-31.4437,150.0303"},{"Name":"Borambil","PostCode":"2343","LatLong":"-31.5071,150.6419"},{"Name":"Bundella","PostCode":"2343","LatLong":"-31.5664,149.9929"},{"Name":"Windy","PostCode":"2343","LatLong":"-31.5976,150.3836"},{"Name":"Quipolly","PostCode":"2343","LatLong":"-31.4284,150.6564"},{"Name":"Warrah Ridge","PostCode":"2343","LatLong":"-31.5667,150.55"},{"Name":"Coomoo Coomoo","PostCode":"2343","LatLong":"-31.5553,150.3414"},{"Name":"Yarraman","PostCode":"2343","LatLong":"-31.6167,150.2"},{"Name":"Winton","PostCode":"2344","LatLong":"-31.0818,150.7179"},{"Name":"Wongo Creek","PostCode":"2346","LatLong":"-30.7,150.5"},{"Name":"Upper Manilla","PostCode":"2346","LatLong":"-30.6385,150.6635"},{"Name":"Klori","PostCode":"2346","LatLong":"-30.8318,150.7679"},{"Name":"Wimborne","PostCode":"2346","LatLong":"-30.7295,150.6539"},{"Name":"Borah Creek","PostCode":"2346","LatLong":"-30.7295,150.6539"},{"Name":"Warrabah","PostCode":"2346","LatLong":"-30.7295,150.6539"},{"Name":"Namoi River","PostCode":"2346","LatLong":"-30.7295,150.6539"},{"Name":"Rushes Creek","PostCode":"2346","LatLong":"-30.7295,150.6539"},{"Name":"Halls Creek","PostCode":"2346","LatLong":"-30.7295,150.6539"},{"Name":"New Mexico","PostCode":"2346","LatLong":"-30.7424,150.6185"},{"Name":"Woodsreef","PostCode":"2347","LatLong":"-30.3818,150.7346"},{"Name":"Thirldene","PostCode":"2347","LatLong":"-30.2297,150.5773"},{"Name":"Upper Horton","PostCode":"2347","LatLong":"-30.1333,150.4333"},{"Name":"Gulf Creek","PostCode":"2347","LatLong":"-30.1985,150.7012"},{"Name":"Red Hill","PostCode":"2347","LatLong":"-35.0523,149.1643"},{"Name":"Ironbark","PostCode":"2347","LatLong":"-30.2297,150.5773"},{"Name":"Lindesay","PostCode":"2347","LatLong":"-30.2297,150.5773"},{"Name":"Gundamulda","PostCode":"2347","LatLong":"-30.2297,150.5773"},{"Name":"Banoon","PostCode":"2347","LatLong":"-30.2297,150.5773"},{"Name":"Mayvale","PostCode":"2347","LatLong":"-30.2297,150.5773"},{"Name":"Longarm","PostCode":"2347","LatLong":"-30.2297,150.5773"},{"Name":"Saumarez","PostCode":"2350","LatLong":"-30.5546,151.5837"},{"Name":"Dumaresq","PostCode":"2350","LatLong":"-30.4667,151.5833"},{"Name":"Duval","PostCode":"2350","LatLong":"-30.461,151.7789"},{"Name":"Abington","PostCode":"2350","LatLong":"-30.2833,151.1833"},{"Name":"Wongwibinda","PostCode":"2350","LatLong":"-30.2928,152.1661"},{"Name":"Aberfoyle","PostCode":"2350","LatLong":"-30.2667,152.0167"},{"Name":"Argyle","PostCode":"2350","LatLong":"-30.461,151.7789"},{"Name":"Wards Mistake","PostCode":"2350","LatLong":"-30.1318,152.0096"},{"Name":"Thalgarrah","PostCode":"2350","LatLong":"-30.461,151.7789"},{"Name":"Tilbuster","PostCode":"2350","LatLong":"-30.4333,151.6667"},{"Name":"Saumarez Ponds","PostCode":"2350","LatLong":"-30.461,151.7789"},{"Name":"Lyndhurst","PostCode":"2350","LatLong":"-30.3167,152.05"},{"Name":"Donald Creek","PostCode":"2350","LatLong":"-30.461,151.7789"},{"Name":"Kellys Plains","PostCode":"2350","LatLong":"-30.5712,151.6436"},{"Name":"Castle Doyle","PostCode":"2350","LatLong":"-30.6152,151.7679"},{"Name":"Boorolong","PostCode":"2350","LatLong":"-30.3235,151.5346"},{"Name":"Puddledock","PostCode":"2350","LatLong":"-30.3667,151.7667"},{"Name":"Dangarsleigh","PostCode":"2350","LatLong":"-30.6055,151.6898"},{"Name":"Mulla Creek","PostCode":"2352","LatLong":"-31.0695,151.0734"},{"Name":"Tintinhull","PostCode":"2352","LatLong":"-31.0925,151.0202"},{"Name":"Walcha Road","PostCode":"2354","LatLong":"-30.9441,151.4"},{"Name":"Yarrowitch","PostCode":"2354","LatLong":"-31.2701,151.971"},{"Name":"Kentucky South","PostCode":"2354","LatLong":"-30.7973,151.4401"},{"Name":"Retreat","PostCode":"2355","LatLong":"-30.6068,151.1068"},{"Name":"Bomera","PostCode":"2357","LatLong":"-31.2332,149.2463"},{"Name":"Gowang","PostCode":"2357","LatLong":"-31.4235,149.0846"},{"Name":"Box Ridge","PostCode":"2357","LatLong":"-31.25,148.8167"},{"Name":"Dandry","PostCode":"2357","LatLong":"-31.0277,149.4043"},{"Name":"Tannabar","PostCode":"2357","LatLong":"-31.2332,149.2463"},{"Name":"Wattle Springs","PostCode":"2357","LatLong":"-31.2332,149.2463"},{"Name":"Salisbury Plains","PostCode":"2358","LatLong":"-30.7667,151.5333"},{"Name":"Arding","PostCode":"2358","LatLong":"-30.5677,151.5254"},{"Name":"Torryburn","PostCode":"2358","LatLong":"-30.45,151.2167"},{"Name":"Gostwyck","PostCode":"2358","LatLong":"-30.6941,151.5834"},{"Name":"Yarrowyck","PostCode":"2358","LatLong":"-30.4639,151.3222"},{"Name":"Balala","PostCode":"2358","LatLong":"-30.6046,151.4612"},{"Name":"Rocky River","PostCode":"2358","LatLong":"-30.6167,151.5"},{"Name":"Mihi","PostCode":"2358","LatLong":"-30.6046,151.4612"},{"Name":"Bakers Creek","PostCode":"2359","LatLong":"-30.2667,151.0167"},{"Name":"Aberdeen","PostCode":"2359","LatLong":"-32.1659,150.89"},{"Name":"Camerons Creek","PostCode":"2359","LatLong":"-30.2194,151.0464"},{"Name":"Brodies Plains","PostCode":"2360","LatLong":"-29.8094,151.1956"},{"Name":"Copeton","PostCode":"2360","LatLong":"-29.9167,151.0167"},{"Name":"Long Plain","PostCode":"2360","LatLong":"-29.718,151.0965"},{"Name":"Oakwood","PostCode":"2360","LatLong":"-29.6458,151.0442"},{"Name":"Howell","PostCode":"2360","LatLong":"-29.95,151.0333"},{"Name":"Woodstock","PostCode":"2360","LatLong":"-29.718,151.0965"},{"Name":"Wandera","PostCode":"2360","LatLong":"-29.6833,151.1667"},{"Name":"Newstead","PostCode":"2360","LatLong":"-29.8333,151.35"},{"Name":"Rob Roy","PostCode":"2360","LatLong":"-29.75,151.0167"},{"Name":"Auburn Vale","PostCode":"2360","LatLong":"-29.821,151.0454"},{"Name":"Stanborough","PostCode":"2360","LatLong":"-29.95,151.15"},{"Name":"Cherry Tree Hill","PostCode":"2360","LatLong":"-29.5368,150.9946"},{"Name":"Paradise","PostCode":"2360","LatLong":"-29.718,151.0965"},{"Name":"Sapphire","PostCode":"2360","LatLong":"-29.6846,151.3375"},{"Name":"Kings Plains","PostCode":"2360","LatLong":"-29.718,151.0965"},{"Name":"Spring Mountain","PostCode":"2360","LatLong":"-29.718,151.0965"},{"Name":"Swanbrook","PostCode":"2360","LatLong":"-29.718,151.0965"},{"Name":"Atholwood","PostCode":"2361","LatLong":"-28.9985,151.0512"},{"Name":"Pindaroi","PostCode":"2361","LatLong":"-29.1295,151.1366"},{"Name":"Limestone","PostCode":"2361","LatLong":"-29.1295,151.1366"},{"Name":"Brockley","PostCode":"2365","LatLong":"-30.2833,151.8167"},{"Name":"Green Hills","PostCode":"2365","LatLong":"-32.9176,149.5836"},{"Name":"Maybole","PostCode":"2365","LatLong":"-29.8985,151.5846"},{"Name":"Baldersleigh","PostCode":"2365","LatLong":"-30.2555,151.426"},{"Name":"Oban","PostCode":"2365","LatLong":"-30.1333,151.8667"},{"Name":"Backwater","PostCode":"2365","LatLong":"-30.0652,151.8846"},{"Name":"Falconer","PostCode":"2365","LatLong":"-30.1052,151.7015"},{"Name":"The Gulf","PostCode":"2365","LatLong":"-29.3167,151.4833"},{"Name":"Tubbamurra","PostCode":"2365","LatLong":"-30.1152,151.7679"},{"Name":"South Guyra","PostCode":"2365","LatLong":"-30.1052,151.7015"},{"Name":"Georges Creek","PostCode":"2365","LatLong":"-30.7461,152.1945"},{"Name":"Bassendean","PostCode":"2365","LatLong":"-30.1052,151.7015"},{"Name":"Mount Mitchell","PostCode":"2365","LatLong":"-30.0167,151.85"},{"Name":"Tenterden","PostCode":"2365","LatLong":"-30.1318,151.4346"},{"Name":"Bald Blair","PostCode":"2365","LatLong":"-30.1052,151.7015"},{"Name":"New Valley","PostCode":"2365","LatLong":"-30.1052,151.7015"},{"Name":"The Basin","PostCode":"2365","LatLong":"-30.1052,151.7015"},{"Name":"Glen Nevis","PostCode":"2365","LatLong":"-30.1052,151.7015"},{"Name":"Briarbrook","PostCode":"2365","LatLong":"-30.1052,151.7015"},{"Name":"Brushy Creek","PostCode":"2365","LatLong":"-30.1052,151.7015"},{"Name":"Old Mill","PostCode":"2369","LatLong":"-29.9196,151.2146"},{"Name":"Kingsgate","PostCode":"2370","LatLong":"-29.8,151.9833"},{"Name":"Wellingrove","PostCode":"2370","LatLong":"-29.6334,151.5692"},{"Name":"Stonehenge","PostCode":"2370","LatLong":"-29.8164,151.7351"},{"Name":"Kookabookra","PostCode":"2370","LatLong":"-30.0333,152.0667"},{"Name":"Shannon Vale","PostCode":"2370","LatLong":"-29.6985,151.8679"},{"Name":"Glen Elgin","PostCode":"2370","LatLong":"-29.5833,152.1167"},{"Name":"Rangers Valley","PostCode":"2370","LatLong":"-29.5167,151.75"},{"Name":"Kingsland","PostCode":"2370","LatLong":"-29.7311,151.8242"},{"Name":"Reddestone","PostCode":"2370","LatLong":"-29.7311,151.8242"},{"Name":"Moogem","PostCode":"2370","LatLong":"-29.7311,151.8242"},{"Name":"Gibraltar Range","PostCode":"2370","LatLong":"-29.7311,151.8242"},{"Name":"Bald Nob","PostCode":"2370","LatLong":"-29.7311,151.8242"},{"Name":"Pinkett","PostCode":"2370","LatLong":"-29.7311,151.8242"},{"Name":"Diehard","PostCode":"2370","LatLong":"-29.7311,151.8242"},{"Name":"Yarrowford","PostCode":"2370","LatLong":"-29.7311,151.8242"},{"Name":"Morven","PostCode":"2370","LatLong":"-29.7311,151.8242"},{"Name":"Moggs Swamp","PostCode":"2370","LatLong":"-29.7311,151.8242"},{"Name":"Lambs Valley","PostCode":"2370","LatLong":"-29.7311,151.8242"},{"Name":"Rocky Creek","PostCode":"2371","LatLong":"-29.3,151.3667"},{"Name":"Capoompeta","PostCode":"2371","LatLong":"-29.3724,151.6768"},{"Name":"Wellington Vale","PostCode":"2371","LatLong":"-29.4152,151.7512"},{"Name":"Yellow Dam","PostCode":"2371","LatLong":"-29.3724,151.6768"},{"Name":"Timbarra","PostCode":"2372","LatLong":"-29.0167,152.1833"},{"Name":"Rivertree","PostCode":"2372","LatLong":"-29.1538,151.9669"},{"Name":"Carrolls Creek","PostCode":"2372","LatLong":"-28.8227,152.103"},{"Name":"Rocky River","PostCode":"2372","LatLong":"-30.6167,151.5"},{"Name":"Forest Land","PostCode":"2372","LatLong":"-29.1538,151.9669"},{"Name":"Tarban","PostCode":"2372","LatLong":"-28.9818,151.9012"},{"Name":"Silent Grove","PostCode":"2372","LatLong":"-29.1167,151.6667"},{"Name":"Dumaresq Valley","PostCode":"2372","LatLong":"-29.1538,151.9669"},{"Name":"Bookookoorara","PostCode":"2372","LatLong":"-29.1538,151.9669"},{"Name":"Sandy Hill","PostCode":"2372","LatLong":"-28.9167,152.25"},{"Name":"Woodside","PostCode":"2372","LatLong":"-29.1538,151.9669"},{"Name":"Mole River","PostCode":"2372","LatLong":"-29.1167,151.7667"},{"Name":"Willsons Downfall","PostCode":"2372","LatLong":"-29.1538,151.9669"},{"Name":"Back Creek","PostCode":"2372","LatLong":"-29.1538,151.9669"},{"Name":"Cullendore","PostCode":"2372","LatLong":"-29.1538,151.9669"},{"Name":"Boorook","PostCode":"2372","LatLong":"-29.1538,151.9669"},{"Name":"Nombi","PostCode":"2379","LatLong":"-31.1,149.9"},{"Name":"Napier Lane","PostCode":"2379","LatLong":"-31.1,149.9"},{"Name":"Goolhi","PostCode":"2379","LatLong":"-31.1,149.9"},{"Name":"Ghoolendaadi","PostCode":"2380","LatLong":"-30.9702,150.1854"},{"Name":"Milroy","PostCode":"2380","LatLong":"-31.15,150.05"},{"Name":"Blue Vale","PostCode":"2380","LatLong":"-30.9702,150.1854"},{"Name":"Emerald Hill","PostCode":"2380","LatLong":"-30.8833,150.0833"},{"Name":"Rangari","PostCode":"2380","LatLong":"-30.9702,150.1854"},{"Name":"Marys Mount","PostCode":"2380","LatLong":"-33.7549,150.7844"},{"Name":"Willala","PostCode":"2382","LatLong":"-30.8152,149.8679"},{"Name":"Maules Creek","PostCode":"2382","LatLong":"-30.7365,150.0637"},{"Name":"Wean","PostCode":"2382","LatLong":"-30.7,150.2833"},{"Name":"Drildool","PostCode":"2386","LatLong":"-30.1167,148.9667"},{"Name":"Nowley","PostCode":"2386","LatLong":"-30.1167,148.9667"},{"Name":"Bulyeroi","PostCode":"2387","LatLong":"-29.8,148.9167"},{"Name":"Merah North","PostCode":"2388","LatLong":"-30.1831,149.2951"},{"Name":"Spring Plains","PostCode":"2388","LatLong":"-31.4,150.25"},{"Name":"Yarrie Lake","PostCode":"2388","LatLong":"-30.35,149.5167"},{"Name":"The Pilliga","PostCode":"2388","LatLong":"-30.502,149.4814"},{"Name":"Boolcarroll","PostCode":"2388","LatLong":"-30.502,149.4814"},{"Name":"Narrabri West","PostCode":"2390","LatLong":"-30.3333,149.75"},{"Name":"Jacks Creek","PostCode":"2390","LatLong":"-30.4977,149.7394"},{"Name":"Bullawa Creek","PostCode":"2390","LatLong":"-30.3068,150.0012"},{"Name":"Back Creek","PostCode":"2390","LatLong":"-30.364,149.8906"},{"Name":"Kaputar","PostCode":"2390","LatLong":"-30.2941,150.1447"},{"Name":"Harparary","PostCode":"2390","LatLong":"-30.5333,150.0167"},{"Name":"Berrigal","PostCode":"2390","LatLong":"-30.364,149.8906"},{"Name":"Eulah Creek","PostCode":"2390","LatLong":"-30.364,149.8906"},{"Name":"Bohena Creek","PostCode":"2390","LatLong":"-30.4167,149.7"},{"Name":"Tarriaro","PostCode":"2390","LatLong":"-30.364,149.8906"},{"Name":"Rocky Creek","PostCode":"2390","LatLong":"-30.0333,150.2667"},{"Name":"Couradda","PostCode":"2390","LatLong":"-30.364,149.8906"},{"Name":"Ropers Road","PostCode":"2395","LatLong":"-31.5928,149.481"},{"Name":"Goorianawa","PostCode":"2396","LatLong":"-31.0833,148.9333"},{"Name":"Barwon","PostCode":"2396","LatLong":"-30.9329,149.0119"},{"Name":"Millie","PostCode":"2397","LatLong":"-29.8152,149.5679"},{"Name":"Jews Lagoon","PostCode":"2397","LatLong":"-29.8667,149.675"},{"Name":"Biniguy","PostCode":"2399","LatLong":"-29.5435,150.2033"},{"Name":"Bullarah","PostCode":"2400","LatLong":"-29.4657,150.0146"},{"Name":"Tulloona","PostCode":"2400","LatLong":"-29.4657,150.0146"},{"Name":"Mallowa","PostCode":"2400","LatLong":"-29.4657,150.0146"},{"Name":"Moree East","PostCode":"2400","LatLong":"-29.4657,150.0146"},{"Name":"Warialda Rail","PostCode":"2402","LatLong":"-29.5766,150.5319"},{"Name":"Myall Creek","PostCode":"2403","LatLong":"-29.75,150.7667"},{"Name":"Gragin","PostCode":"2403","LatLong":"-29.6791,150.7711"},{"Name":"Balfours Peak","PostCode":"2403","LatLong":"-29.6791,150.7711"},{"Name":"Upper Bingara","PostCode":"2404","LatLong":"-30.05,150.65"},{"Name":"Gineroi","PostCode":"2404","LatLong":"-29.7667,150.5"},{"Name":"Riverview","PostCode":"2404","LatLong":"-33.824,151.1602"},{"Name":"Elcombe","PostCode":"2404","LatLong":"-29.7667,150.3833"},{"Name":"Pallal","PostCode":"2404","LatLong":"-29.9167,150.3833"},{"Name":"Bangheet","PostCode":"2404","LatLong":"-29.8782,150.537"},{"Name":"Keera","PostCode":"2404","LatLong":"-29.9818,150.7679"},{"Name":"Weemelah","PostCode":"2406","LatLong":"-29.0185,149.2548"},{"Name":"Yallaroi","PostCode":"2408","LatLong":"-29.1167,150.4833"},{"Name":"Blue Nobby","PostCode":"2408","LatLong":"-29.0246,150.4374"},{"Name":"Boonal","PostCode":"2409","LatLong":"-28.6048,150.3593"},{"Name":"Twin Rivers","PostCode":"2410","LatLong":"-28.9,150.7833"},{"Name":"Upper Karuah River","PostCode":"2415","LatLong":"-32.3207,151.8968"},{"Name":"Weismantels","PostCode":"2415","LatLong":"-32.2608,151.9427"},{"Name":"Nooroo","PostCode":"2415","LatLong":"-32.3207,151.8968"},{"Name":"Bendolba","PostCode":"2420","LatLong":"-32.3518,151.7301"},{"Name":"Martins Creek","PostCode":"2420","LatLong":"-32.55,151.6167"},{"Name":"Alison","PostCode":"2420","LatLong":"-33.2768,151.4021"},{"Name":"Wallaringa","PostCode":"2420","LatLong":"-32.3982,151.6842"},{"Name":"Wirragulla","PostCode":"2420","LatLong":"-32.4596,151.746"},{"Name":"Brookfield","PostCode":"2420","LatLong":"-32.4985,151.7679"},{"Name":"Fosterton","PostCode":"2420","LatLong":"-32.3474,151.7612"},{"Name":"Sugarloaf","PostCode":"2420","LatLong":"-32.3982,151.6842"},{"Name":"Chichester","PostCode":"2420","LatLong":"-32.2,151.6167"},{"Name":"Main Creek","PostCode":"2420","LatLong":"-32.3982,151.6842"},{"Name":"Hanleys Creek","PostCode":"2420","LatLong":"-32.3982,151.6842"},{"Name":"Stroud Hill","PostCode":"2420","LatLong":"-32.3982,151.6842"},{"Name":"Flat Tops","PostCode":"2420","LatLong":"-32.3982,151.6842"},{"Name":"Cambra","PostCode":"2420","LatLong":"-32.3982,151.6842"},{"Name":"Underbank","PostCode":"2420","LatLong":"-32.3982,151.6842"},{"Name":"Munni","PostCode":"2420","LatLong":"-32.3982,151.6842"},{"Name":"Tabbil Creek","PostCode":"2420","LatLong":"-32.3982,151.6842"},{"Name":"Torryburn","PostCode":"2421","LatLong":"-30.45,151.2167"},{"Name":"Summer Hill","PostCode":"2421","LatLong":"-33.8915,151.1382"},{"Name":"Tocal","PostCode":"2421","LatLong":"-32.633,151.5913"},{"Name":"Webbers Creek","PostCode":"2421","LatLong":"-32.6061,151.6159"},{"Name":"Fishers Hill","PostCode":"2421","LatLong":"-32.6061,151.6159"},{"Name":"Giro","PostCode":"2422","LatLong":"-31.7152,151.8096"},{"Name":"Barrington Tops","PostCode":"2422","LatLong":"-31.9223,151.5346"},{"Name":"Bowman Farm","PostCode":"2422","LatLong":"-31.9758,151.9086"},{"Name":"Bulliac","PostCode":"2422","LatLong":"-31.9167,152.0333"},{"Name":"Dewitt","PostCode":"2422","LatLong":"-31.9758,151.9086"},{"Name":"Waukivory","PostCode":"2422","LatLong":"-32.1167,152.05"},{"Name":"Gangat","PostCode":"2422","LatLong":"-32.0235,152.0846"},{"Name":"Bakers Creek","PostCode":"2422","LatLong":"-30.2667,151.0167"},{"Name":"Craven Plateau","PostCode":"2422","LatLong":"-31.9758,151.9086"},{"Name":"Rookhurst","PostCode":"2422","LatLong":"-31.8833,151.8833"},{"Name":"Bowman","PostCode":"2422","LatLong":"-31.9223,151.7831"},{"Name":"Curricabark","PostCode":"2422","LatLong":"-31.7447,151.6389"},{"Name":"Kia Ora","PostCode":"2422","LatLong":"-31.9758,151.9086"},{"Name":"Cobark","PostCode":"2422","LatLong":"-31.9485,151.7096"},{"Name":"Glen Ward","PostCode":"2422","LatLong":"-31.9758,151.9086"},{"Name":"Coneac","PostCode":"2422","LatLong":"-31.9758,151.9086"},{"Name":"Woko","PostCode":"2422","LatLong":"-31.9758,151.9086"},{"Name":"Gloucester Tops","PostCode":"2422","LatLong":"-31.9223,151.5346"},{"Name":"Mograni","PostCode":"2422","LatLong":"-32.0333,152.0333"},{"Name":"Callaghans Creek","PostCode":"2422","LatLong":"-31.9758,151.9086"},{"Name":"Mares Run","PostCode":"2422","LatLong":"-31.9758,151.9086"},{"Name":"Baxters Ridge","PostCode":"2422","LatLong":"-31.9758,151.9086"},{"Name":"Moppy","PostCode":"2422","LatLong":"-31.9758,151.9086"},{"Name":"Wallanbah","PostCode":"2422","LatLong":"-31.9758,151.9086"},{"Name":"Terreel","PostCode":"2422","LatLong":"-31.9758,151.9086"},{"Name":"Bindera","PostCode":"2422","LatLong":"-31.9758,151.9086"},{"Name":"Titaatee Creek","PostCode":"2422","LatLong":"-31.9758,151.9086"},{"Name":"Forbesdale","PostCode":"2422","LatLong":"-31.9758,151.9086"},{"Name":"Tugrabakh","PostCode":"2422","LatLong":"-31.9758,151.9086"},{"Name":"Tibbuc","PostCode":"2422","LatLong":"-31.9758,151.9086"},{"Name":"Mernot","PostCode":"2422","LatLong":"-31.9758,151.9086"},{"Name":"Back Creek","PostCode":"2422","LatLong":"-31.9758,151.9086"},{"Name":"Faulkland","PostCode":"2422","LatLong":"-31.9758,151.9086"},{"Name":"Invergordon","PostCode":"2422","LatLong":"-31.9758,151.9086"},{"Name":"Berrico","PostCode":"2422","LatLong":"-31.9758,151.9086"},{"Name":"Mayers Flat","PostCode":"2423","LatLong":"-32.388,152.3318"},{"Name":"Crawford River","PostCode":"2423","LatLong":"-32.45,152.1333"},{"Name":"Topi Topi","PostCode":"2423","LatLong":"-32.3667,152.3833"},{"Name":"Yagon","PostCode":"2423","LatLong":"-32.3182,152.2701"},{"Name":"Violet Hill","PostCode":"2423","LatLong":"-32.3182,152.2701"},{"Name":"Myall Lake","PostCode":"2423","LatLong":"-32.3182,152.2701"},{"Name":"Warranulla","PostCode":"2423","LatLong":"-32.1963,152.1354"},{"Name":"Mungo Brush","PostCode":"2423","LatLong":"-32.3182,152.2701"},{"Name":"Bombah Point","PostCode":"2423","LatLong":"-32.3182,152.2701"},{"Name":"Tiri","PostCode":"2424","LatLong":"-31.8167,152.0792"},{"Name":"Cells River","PostCode":"2424","LatLong":"-31.8167,152.0792"},{"Name":"Caffreys Flat","PostCode":"2424","LatLong":"-31.8167,152.0792"},{"Name":"Cooplacurripa","PostCode":"2424","LatLong":"-31.8167,152.0792"},{"Name":"Knorrit Forest","PostCode":"2424","LatLong":"-31.8167,152.0792"},{"Name":"The Branch","PostCode":"2425","LatLong":"-32.5333,152.0167"},{"Name":"Moto","PostCode":"2426","LatLong":"-31.8127,152.589"},{"Name":"Whoota","PostCode":"2428","LatLong":"-32.3157,152.4818"},{"Name":"Blueys Beach","PostCode":"2428","LatLong":"-32.3472,152.5357"},{"Name":"Sandbar","PostCode":"2428","LatLong":"-32.28,152.5039"},{"Name":"Coomba Park","PostCode":"2428","LatLong":"-32.2377,152.4571"},{"Name":"Elizabeth Beach","PostCode":"2428","LatLong":"-32.3195,152.5275"},{"Name":"Booti Booti","PostCode":"2428","LatLong":"-32.3168,152.5221"},{"Name":"Wallis Lake","PostCode":"2428","LatLong":"-32.28,152.5039"},{"Name":"Darawank","PostCode":"2428","LatLong":"-32.1333,152.4833"},{"Name":"Tiona","PostCode":"2428","LatLong":"-32.28,152.5039"},{"Name":"Boomerang Beach","PostCode":"2428","LatLong":"-32.28,152.5039"},{"Name":"Coomba Bay","PostCode":"2428","LatLong":"-32.28,152.5039"},{"Name":"Wallingat","PostCode":"2428","LatLong":"-32.28,152.5039"},{"Name":"Shallow Bay","PostCode":"2428","LatLong":"-32.28,152.5039"},{"Name":"Kundibakh","PostCode":"2429","LatLong":"-31.9833,152.25"},{"Name":"Bulga Forest","PostCode":"2429","LatLong":"-31.8738,152.2973"},{"Name":"Bucca Wauka","PostCode":"2429","LatLong":"-32.1,152.1667"},{"Name":"Khatambuhl","PostCode":"2429","LatLong":"-31.8738,152.2973"},{"Name":"Killawarra","PostCode":"2429","LatLong":"-31.9049,152.2872"},{"Name":"Innes View","PostCode":"2429","LatLong":"-31.8738,152.2973"},{"Name":"Cedar Party","PostCode":"2429","LatLong":"-31.8,152.3833"},{"Name":"Dingo Forest","PostCode":"2429","LatLong":"-31.8738,152.2973"},{"Name":"Karaak Flat","PostCode":"2429","LatLong":"-31.8738,152.2973"},{"Name":"Dollys Flat","PostCode":"2429","LatLong":"-31.8738,152.2973"},{"Name":"Kippaxs","PostCode":"2429","LatLong":"-31.8738,152.2973"},{"Name":"The Bight","PostCode":"2429","LatLong":"-31.8738,152.2973"},{"Name":"Boorganna","PostCode":"2429","LatLong":"-31.8738,152.2973"},{"Name":"Tipperary","PostCode":"2429","LatLong":"-31.8738,152.2973"},{"Name":"Strathcedar","PostCode":"2429","LatLong":"-31.8738,152.2973"},{"Name":"Yarratt Forest","PostCode":"2429","LatLong":"-31.8738,152.2973"},{"Name":"Tallwoods Village","PostCode":"2430","LatLong":"-32.0554,152.5104"},{"Name":"Red Head","PostCode":"2430","LatLong":"-32.057,152.5357"},{"Name":"Mitchells Island","PostCode":"2430","LatLong":"-31.9,152.6167"},{"Name":"Lansdowne Forest","PostCode":"2430","LatLong":"-31.7469,152.5757"},{"Name":"Dumaresq Island","PostCode":"2430","LatLong":"-31.9412,152.5161"},{"Name":"Cabbage Tree Island","PostCode":"2430","LatLong":"-28.9804,153.4567"},{"Name":"Glenthorne","PostCode":"2430","LatLong":"-31.9279,152.4788"},{"Name":"Taree South","PostCode":"2430","LatLong":"-31.9412,152.5161"},{"Name":"Hillville","PostCode":"2430","LatLong":"-31.9833,152.3667"},{"Name":"Possum Brush","PostCode":"2430","LatLong":"-32.0651,152.4382"},{"Name":"Croki","PostCode":"2430","LatLong":"-31.8733,152.5926"},{"Name":"Pampoolah","PostCode":"2430","LatLong":"-31.9333,152.5333"},{"Name":"Bootawa","PostCode":"2430","LatLong":"-31.9412,152.5161"},{"Name":"Rainbow Flat","PostCode":"2430","LatLong":"-32.0333,152.4833"},{"Name":"Wallabi Point","PostCode":"2430","LatLong":"-31.9951,152.5685"},{"Name":"Black Head","PostCode":"2430","LatLong":"-31.9412,152.5161"},{"Name":"Oxley Island","PostCode":"2430","LatLong":"-31.9167,152.5667"},{"Name":"Saltwater","PostCode":"2430","LatLong":"-31.9412,152.5161"},{"Name":"Jones Island","PostCode":"2430","LatLong":"-31.9412,152.5161"},{"Name":"Brimbin","PostCode":"2430","LatLong":"-31.9412,152.5161"},{"Name":"Kiwarrak","PostCode":"2430","LatLong":"-31.9412,152.5161"},{"Name":"Kundle Kundle","PostCode":"2430","LatLong":"-31.9412,152.5161"},{"Name":"Melinga","PostCode":"2430","LatLong":"-31.9412,152.5161"},{"Name":"Mondrook","PostCode":"2430","LatLong":"-31.9412,152.5161"},{"Name":"Lansdowne","PostCode":"2430","LatLong":"-31.7849,152.5192"},{"Name":"Arakoon","PostCode":"2431","LatLong":"-30.8875,153.0721"},{"Name":"Rossglen","PostCode":"2439","LatLong":"-31.6658,152.7251"},{"Name":"Swans Crossing","PostCode":"2439","LatLong":"-31.6466,152.6875"},{"Name":"Upsalls Creek","PostCode":"2439","LatLong":"-31.6333,152.6667"},{"Name":"Logans Crossing","PostCode":"2439","LatLong":"-31.6466,152.6875"},{"Name":"Kerewong","PostCode":"2439","LatLong":"-31.6466,152.6875"},{"Name":"Black Creek","PostCode":"2439","LatLong":"-31.6466,152.6875"},{"Name":"Batar Creek","PostCode":"2439","LatLong":"-31.6466,152.6875"},{"Name":"Yarravel","PostCode":"2440","LatLong":"-31.043,152.7619"},{"Name":"Old Station","PostCode":"2440","LatLong":"-31.0123,152.7651"},{"Name":"Dondingalong","PostCode":"2440","LatLong":"-31.1332,152.7514"},{"Name":"Willi Willi","PostCode":"2440","LatLong":"-30.9333,152.45"},{"Name":"Euroka","PostCode":"2440","LatLong":"-31.077,152.8005"},{"Name":"Temagog","PostCode":"2440","LatLong":"-31.0123,152.7651"},{"Name":"Mooneba","PostCode":"2440","LatLong":"-31.0402,152.6846"},{"Name":"Austral Eden","PostCode":"2440","LatLong":"-31.0333,152.9167"},{"Name":"West Kempsey","PostCode":"2440","LatLong":"-30.8855,153.0413"},{"Name":"Pola Creek","PostCode":"2440","LatLong":"-31.0123,152.7651"},{"Name":"Belmore River","PostCode":"2440","LatLong":"-31.1167,152.9833"},{"Name":"Wittitrin","PostCode":"2440","LatLong":"-31.1333,152.6667"},{"Name":"Mungay Creek","PostCode":"2440","LatLong":"-31.0123,152.7651"},{"Name":"Aldavilla","PostCode":"2440","LatLong":"-31.0818,152.7679"},{"Name":"Rainbow Reach","PostCode":"2440","LatLong":"-31.0123,152.7651"},{"Name":"Deep Creek","PostCode":"2440","LatLong":"-30.3667,149.8333"},{"Name":"Moparrabah","PostCode":"2440","LatLong":"-31.0123,152.7651"},{"Name":"Hampden Hall","PostCode":"2440","LatLong":"-31.0123,152.7651"},{"Name":"Skillion Flat","PostCode":"2440","LatLong":"-31.0099,152.7329"},{"Name":"Yessabah","PostCode":"2440","LatLong":"-31.0123,152.7651"},{"Name":"Turners Flat","PostCode":"2440","LatLong":"-31.0152,152.7012"},{"Name":"Sherwood","PostCode":"2440","LatLong":"-31.0649,152.7288"},{"Name":"East Kempsey","PostCode":"2440","LatLong":"-31.0123,152.7651"},{"Name":"Burnt Bridge","PostCode":"2440","LatLong":"-31.108,152.8062"},{"Name":"Summer Island","PostCode":"2440","LatLong":"-31.0123,152.7651"},{"Name":"Kinchela","PostCode":"2440","LatLong":"-30.9939,152.9914"},{"Name":"Corangula","PostCode":"2440","LatLong":"-31.0123,152.7651"},{"Name":"Seven Oaks","PostCode":"2440","LatLong":"-31.0123,152.7651"},{"Name":"Barraganyatti","PostCode":"2441","LatLong":"-30.8568,152.9346"},{"Name":"Allgomera","PostCode":"2441","LatLong":"-30.8182,152.7955"},{"Name":"Cooperabung","PostCode":"2441","LatLong":"-31.3,152.8"},{"Name":"Yarrahapinni","PostCode":"2441","LatLong":"-30.8281,152.9538"},{"Name":"Marlo Merrican","PostCode":"2441","LatLong":"-31.0274,152.8364"},{"Name":"Bril Bril","PostCode":"2441","LatLong":"-31.0274,152.8364"},{"Name":"Kippara","PostCode":"2441","LatLong":"-31.2209,152.5225"},{"Name":"Fishermans Reach","PostCode":"2441","LatLong":"-31.0274,152.8364"},{"Name":"Upper Rollands Plains","PostCode":"2441","LatLong":"-31.2434,152.6205"},{"Name":"Hacks Ferry","PostCode":"2441","LatLong":"-31.0274,152.8364"},{"Name":"Tamban","PostCode":"2441","LatLong":"-30.8827,152.826"},{"Name":"Mid North Coast Mc","PostCode":"2442","LatLong":"-31.1374,152.7419"},{"Name":"Lakewood","PostCode":"2443","LatLong":"-31.6321,152.7582"},{"Name":"Crowdy Bay National Park","PostCode":"2443","LatLong":"-31.788,152.7311"},{"Name":"Middle Brother","PostCode":"2443","LatLong":"-31.6915,152.7267"},{"Name":"Stewarts River","PostCode":"2443","LatLong":"-31.7333,152.65"},{"Name":"Deauville","PostCode":"2443","LatLong":"-31.6915,152.7267"},{"Name":"Diamond Head","PostCode":"2443","LatLong":"-32.057,152.5357"},{"Name":"North Brother","PostCode":"2443","LatLong":"-31.6915,152.7267"},{"Name":"Bobs Creek","PostCode":"2443","LatLong":"-31.6915,152.7267"},{"Name":"Waitui","PostCode":"2443","LatLong":"-31.6915,152.7267"},{"Name":"Coralville","PostCode":"2443","LatLong":"-31.6915,152.7267"},{"Name":"Limeburners Creek","PostCode":"2444","LatLong":"-32.6167,151.9167"},{"Name":"Fernbank Creek","PostCode":"2444","LatLong":"-31.4212,152.8404"},{"Name":"North Shore","PostCode":"2444","LatLong":"-31.4024,152.9019"},{"Name":"Settlement City","PostCode":"2444","LatLong":"-31.7083,152.6444"},{"Name":"The Hatch","PostCode":"2444","LatLong":"-31.7083,152.6444"},{"Name":"Thrumster","PostCode":"2444","LatLong":"-31.7083,152.6444"},{"Name":"Riverside","PostCode":"2444","LatLong":"-31.7083,152.6444"},{"Name":"Lighthouse Beach","PostCode":"2444","LatLong":"-31.7083,152.6444"},{"Name":"Grants Beach","PostCode":"2445","LatLong":"-31.5712,152.8469"},{"Name":"Jolly Nose","PostCode":"2445","LatLong":"-31.5712,152.8469"},{"Name":"Forbes River","PostCode":"2446","LatLong":"-31.3667,152.3167"},{"Name":"Crosslands","PostCode":"2446","LatLong":"-31.4393,152.7154"},{"Name":"Redbank","PostCode":"2446","LatLong":"-31.4242,152.7393"},{"Name":"Werrikimbe","PostCode":"2446","LatLong":"-31.4343,152.6221"},{"Name":"Sancrox","PostCode":"2446","LatLong":"-31.4318,152.8012"},{"Name":"Banda Banda","PostCode":"2446","LatLong":"-31.2157,152.4566"},{"Name":"Frazers Creek","PostCode":"2446","LatLong":"-31.4343,152.6221"},{"Name":"Birdwood","PostCode":"2446","LatLong":"-31.3485,152.3346"},{"Name":"Gearys Flat","PostCode":"2446","LatLong":"-31.4343,152.6221"},{"Name":"Mount Seaview","PostCode":"2446","LatLong":"-31.3966,152.0798"},{"Name":"Rawdon Island","PostCode":"2446","LatLong":"-31.4333,152.7667"},{"Name":"Yarras","PostCode":"2446","LatLong":"-31.4189,152.3198"},{"Name":"Doyles River","PostCode":"2446","LatLong":"-31.4343,152.6221"},{"Name":"King Creek","PostCode":"2446","LatLong":"-31.4924,152.7566"},{"Name":"Mortons Creek","PostCode":"2446","LatLong":"-31.3829,152.6427"},{"Name":"Lake Innes","PostCode":"2446","LatLong":"-31.5038,152.8165"},{"Name":"Hartys Plains","PostCode":"2446","LatLong":"-31.4343,152.6221"},{"Name":"Brombin","PostCode":"2446","LatLong":"-31.4578,152.6315"},{"Name":"Yippin Creek","PostCode":"2446","LatLong":"-31.4343,152.6221"},{"Name":"Pipeclay","PostCode":"2446","LatLong":"-31.4343,152.6221"},{"Name":"Lower Pappinbarra","PostCode":"2446","LatLong":"-31.4343,152.6221"},{"Name":"Upper Pappinbarra","PostCode":"2446","LatLong":"-31.4343,152.6221"},{"Name":"Kindee","PostCode":"2446","LatLong":"-31.4343,152.6221"},{"Name":"Bago","PostCode":"2446","LatLong":"-31.4343,152.6221"},{"Name":"Rosewood","PostCode":"2446","LatLong":"-31.4343,152.6221"},{"Name":"Debenham","PostCode":"2446","LatLong":"-31.4343,152.6221"},{"Name":"Cairncross","PostCode":"2446","LatLong":"-31.4343,152.6221"},{"Name":"Hyndmans Creek","PostCode":"2446","LatLong":"-31.4343,152.6221"},{"Name":"Talarm","PostCode":"2447","LatLong":"-30.7016,152.8501"},{"Name":"Burrapine","PostCode":"2447","LatLong":"-30.7176,152.6371"},{"Name":"Wirrimbi","PostCode":"2447","LatLong":"-30.6667,152.9333"},{"Name":"Newee Creek","PostCode":"2447","LatLong":"-30.6316,152.9275"},{"Name":"Bakers Creek","PostCode":"2447","LatLong":"-30.2667,151.0167"},{"Name":"Upper Taylors Arm","PostCode":"2447","LatLong":"-30.6867,152.7061"},{"Name":"Utungun","PostCode":"2447","LatLong":"-30.7427,152.8276"},{"Name":"Donnellyville","PostCode":"2447","LatLong":"-30.7554,152.9155"},{"Name":"Congarinni North","PostCode":"2447","LatLong":"-30.6867,152.7061"},{"Name":"Gumma","PostCode":"2447","LatLong":"-30.7172,152.9694"},{"Name":"Congarinni","PostCode":"2447","LatLong":"-30.6867,152.7061"},{"Name":"Way Way","PostCode":"2447","LatLong":"-30.6867,152.7061"},{"Name":"Yarranbella","PostCode":"2447","LatLong":"-30.6867,152.7061"},{"Name":"North Macksville","PostCode":"2447","LatLong":"-30.6867,152.7061"},{"Name":"Hyland Park","PostCode":"2448","LatLong":"-30.6124,153.0001"},{"Name":"Valla","PostCode":"2448","LatLong":"-30.5926,153.0113"},{"Name":"South Arm","PostCode":"2449","LatLong":"-30.6888,152.7396"},{"Name":"Girralong","PostCode":"2449","LatLong":"-30.5696,152.6554"},{"Name":"Killiekrankie","PostCode":"2449","LatLong":"-30.6389,152.7853"},{"Name":"Kennaicle Creek","PostCode":"2449","LatLong":"-30.6389,152.7853"},{"Name":"Tewinga","PostCode":"2449","LatLong":"-30.6389,152.7853"},{"Name":"Buckra Bendinni","PostCode":"2449","LatLong":"-30.6389,152.7853"},{"Name":"Sherwood","PostCode":"2450","LatLong":"-31.0649,152.7288"},{"Name":"Brooklana","PostCode":"2450","LatLong":"-30.2488,152.8432"},{"Name":"North Boambee Valley","PostCode":"2450","LatLong":"-30.2807,153.0196"},{"Name":"Sapphire Beach","PostCode":"2450","LatLong":"-30.2325,153.1483"},{"Name":"Bonville","PostCode":"2450","LatLong":"-30.3828,153.0596"},{"Name":"Bucca","PostCode":"2450","LatLong":"-30.1574,153.0958"},{"Name":"Boambee East","PostCode":"2452","LatLong":"-30.3466,153.0732"},{"Name":"Marengo","PostCode":"2453","LatLong":"-30.1725,152.3615"},{"Name":"Billys Creek","PostCode":"2453","LatLong":"-30.1674,152.5747"},{"Name":"Deer Vale","PostCode":"2453","LatLong":"-30.3485,152.5512"},{"Name":"Clouds Creek","PostCode":"2453","LatLong":"-30.1019,152.6498"},{"Name":"North Dorrigo","PostCode":"2453","LatLong":"-30.2955,152.6862"},{"Name":"Dorrigo Mountain","PostCode":"2453","LatLong":"-30.282,152.61"},{"Name":"Fernbrook","PostCode":"2453","LatLong":"-30.282,152.61"},{"Name":"Bielsdown Hills","PostCode":"2453","LatLong":"-30.282,152.61"},{"Name":"Cascade","PostCode":"2453","LatLong":"-30.2317,152.7898"},{"Name":"Moonpar","PostCode":"2453","LatLong":"-30.282,152.61"},{"Name":"Never Never","PostCode":"2453","LatLong":"-30.282,152.61"},{"Name":"Tallowwood Ridge","PostCode":"2453","LatLong":"-30.282,152.61"},{"Name":"Wild Cattle Creek","PostCode":"2453","LatLong":"-30.282,152.61"},{"Name":"Darkwood","PostCode":"2454","LatLong":"-30.4535,152.5487"},{"Name":"Brierfield","PostCode":"2454","LatLong":"-30.5,152.9"},{"Name":"Gleniffer","PostCode":"2454","LatLong":"-30.3885,152.8871"},{"Name":"Brinerville","PostCode":"2454","LatLong":"-30.441,152.9121"},{"Name":"Bundagen","PostCode":"2454","LatLong":"-30.4132,153.0584"},{"Name":"Valery","PostCode":"2454","LatLong":"-30.4055,152.9515"},{"Name":"Spicketts Creek","PostCode":"2454","LatLong":"-30.441,152.9121"},{"Name":"Mullaway","PostCode":"2456","LatLong":"-30.0804,153.1959"},{"Name":"Arrawarra","PostCode":"2456","LatLong":"-30.0606,153.1907"},{"Name":"Upper Corindi","PostCode":"2456","LatLong":"-30.0388,153.1131"},{"Name":"Dirty Creek","PostCode":"2456","LatLong":"-30.0867,153.1898"},{"Name":"Lionsville","PostCode":"2460","LatLong":"-29.1919,152.4907"},{"Name":"Whiteman Creek","PostCode":"2460","LatLong":"-29.5833,152.8833"},{"Name":"Collum Collum","PostCode":"2460","LatLong":"-29.6305,152.875"},{"Name":"Kyarran","PostCode":"2460","LatLong":"-29.5808,152.9743"},{"Name":"Kungala","PostCode":"2460","LatLong":"-29.9535,153.0086"},{"Name":"Upper Copmanhurst","PostCode":"2460","LatLong":"-29.6305,152.875"},{"Name":"Gurranang","PostCode":"2460","LatLong":"-29.4676,152.9929"},{"Name":"Mountain View","PostCode":"2460","LatLong":"-32.41,149.1625"},{"Name":"Braunstone","PostCode":"2460","LatLong":"-29.8027,152.9581"},{"Name":"Coombadjha","PostCode":"2460","LatLong":"-29.6305,152.875"},{"Name":"Banyabba","PostCode":"2460","LatLong":"-29.342,153.0165"},{"Name":"Tyndale","PostCode":"2460","LatLong":"-29.5167,153.2"},{"Name":"Dalmorton","PostCode":"2460","LatLong":"-29.8631,152.4629"},{"Name":"Dilkoon","PostCode":"2460","LatLong":"-29.4985,153.0012"},{"Name":"Smiths Creek","PostCode":"2460","LatLong":"-28.4277,153.378"},{"Name":"Ramornie","PostCode":"2460","LatLong":"-29.65,152.7833"},{"Name":"Waterview","PostCode":"2460","LatLong":"-29.6652,152.8679"},{"Name":"Chambigne","PostCode":"2460","LatLong":"-29.7333,152.7833"},{"Name":"Alumy Creek","PostCode":"2460","LatLong":"-29.6485,152.9512"},{"Name":"Southgate","PostCode":"2460","LatLong":"-29.5833,153.0333"},{"Name":"Lanitza","PostCode":"2460","LatLong":"-29.8868,153.0017"},{"Name":"Clarenza","PostCode":"2460","LatLong":"-29.7037,153.0006"},{"Name":"Stockyard Creek","PostCode":"2460","LatLong":"-29.6305,152.875"},{"Name":"Buccarumbi","PostCode":"2460","LatLong":"-29.8318,152.5846"},{"Name":"Bom Bom","PostCode":"2460","LatLong":"-29.6305,152.875"},{"Name":"Eatonsville","PostCode":"2460","LatLong":"-29.6333,152.8333"},{"Name":"Deep Creek","PostCode":"2460","LatLong":"-30.3667,149.8333"},{"Name":"Fine Flower","PostCode":"2460","LatLong":"-29.3833,152.6667"},{"Name":"The Pinnacles","PostCode":"2460","LatLong":"-29.6305,152.875"},{"Name":"Bookram","PostCode":"2460","LatLong":"-29.6305,152.875"},{"Name":"Clifden","PostCode":"2460","LatLong":"-29.5667,152.9167"},{"Name":"Blaxlands Creek","PostCode":"2460","LatLong":"-29.6305,152.875"},{"Name":"Lower Southgate","PostCode":"2460","LatLong":"-29.55,153.0833"},{"Name":"Elland","PostCode":"2460","LatLong":"-29.6305,152.875"},{"Name":"Carrs Creek","PostCode":"2460","LatLong":"-29.6488,152.9284"},{"Name":"Punchbowl","PostCode":"2460","LatLong":"-29.6305,152.875"},{"Name":"Crowther Island","PostCode":"2460","LatLong":"-29.6305,152.875"},{"Name":"Chaelundi","PostCode":"2460","LatLong":"-29.6305,152.875"},{"Name":"Carrs Peninsular","PostCode":"2460","LatLong":"-29.6305,152.875"},{"Name":"Carrs Island","PostCode":"2460","LatLong":"-29.6305,152.875"},{"Name":"Calamia","PostCode":"2460","LatLong":"-29.6305,152.875"},{"Name":"Barcoongere","PostCode":"2460","LatLong":"-29.6305,152.875"},{"Name":"Glenugie","PostCode":"2460","LatLong":"-29.6305,152.875"},{"Name":"Wells Crossing","PostCode":"2460","LatLong":"-29.6305,152.875"},{"Name":"Shannondale","PostCode":"2460","LatLong":"-29.6305,152.875"},{"Name":"The Whiteman","PostCode":"2460","LatLong":"-29.6305,152.875"},{"Name":"Rushforth","PostCode":"2460","LatLong":"-29.6305,152.875"},{"Name":"Kremnos","PostCode":"2460","LatLong":"-29.6305,152.875"},{"Name":"Warragai Creek","PostCode":"2460","LatLong":"-29.6305,152.875"},{"Name":"Mylneford","PostCode":"2460","LatLong":"-29.6305,152.875"},{"Name":"Great Marlow","PostCode":"2460","LatLong":"-29.6305,152.875"},{"Name":"Barretts Creek","PostCode":"2460","LatLong":"-29.6305,152.875"},{"Name":"Lilydale","PostCode":"2460","LatLong":"-29.6305,152.875"},{"Name":"Levenstrath","PostCode":"2460","LatLong":"-29.6305,152.875"},{"Name":"Koolkhan","PostCode":"2460","LatLong":"-29.6305,152.875"},{"Name":"Fortis Creek","PostCode":"2460","LatLong":"-29.6305,152.875"},{"Name":"Moleville Creek","PostCode":"2460","LatLong":"-29.6305,152.875"},{"Name":"Carnham","PostCode":"2460","LatLong":"-29.6305,152.875"},{"Name":"Upper Fine Flower","PostCode":"2460","LatLong":"-29.6305,152.875"},{"Name":"Towallum","PostCode":"2460","LatLong":"-29.6305,152.875"},{"Name":"Southampton","PostCode":"2460","LatLong":"-29.6305,152.875"},{"Name":"Sandy Crossing","PostCode":"2460","LatLong":"-29.6305,152.875"},{"Name":"Pulganbar","PostCode":"2460","LatLong":"-29.6305,152.875"},{"Name":"Newbold","PostCode":"2460","LatLong":"-29.6305,152.875"},{"Name":"Malabugilmah","PostCode":"2460","LatLong":"-29.6305,152.875"},{"Name":"Heifer Station","PostCode":"2460","LatLong":"-29.6305,152.875"},{"Name":"Eighteen Mile","PostCode":"2460","LatLong":"-29.6305,152.875"},{"Name":"Dumbudgery","PostCode":"2460","LatLong":"-29.6305,152.875"},{"Name":"Wombat Creek","PostCode":"2460","LatLong":"-29.6305,152.875"},{"Name":"Washpool","PostCode":"2460","LatLong":"-29.6305,152.875"},{"Name":"Trenayr","PostCode":"2460","LatLong":"-29.6305,152.875"},{"Name":"Diggers Camp","PostCode":"2462","LatLong":"-29.8141,153.2853"},{"Name":"Lavadia","PostCode":"2462","LatLong":"-29.7667,153.1"},{"Name":"Coldstream","PostCode":"2462","LatLong":"-29.5833,153.1333"},{"Name":"Gilletts Ridge","PostCode":"2462","LatLong":"-29.7122,153.1253"},{"Name":"Swan Creek","PostCode":"2462","LatLong":"-29.7122,153.1253"},{"Name":"Minnie Water","PostCode":"2462","LatLong":"-29.7759,153.2973"},{"Name":"Calliope","PostCode":"2462","LatLong":"-29.7122,153.1253"},{"Name":"Lake Hiawatha","PostCode":"2462","LatLong":"-29.7122,153.1253"},{"Name":"Gulmarrad","PostCode":"2463","LatLong":"-29.487,153.2334"},{"Name":"Shark Creek","PostCode":"2463","LatLong":"-29.5167,153.2"},{"Name":"The Sandon","PostCode":"2463","LatLong":"-29.4726,153.2191"},{"Name":"Ashby","PostCode":"2463","LatLong":"-29.4318,153.1929"},{"Name":"Woodford Island","PostCode":"2463","LatLong":"-29.4726,153.2191"},{"Name":"Townsend","PostCode":"2463","LatLong":"-29.4662,153.2207"},{"Name":"Ashby Island","PostCode":"2463","LatLong":"-29.4726,153.2191"},{"Name":"Ilarwill","PostCode":"2463","LatLong":"-29.4818,153.1846"},{"Name":"Palmers Island","PostCode":"2463","LatLong":"-29.4167,153.2833"},{"Name":"Jacky Bulbin Flat","PostCode":"2463","LatLong":"-29.4726,153.2191"},{"Name":"James Creek","PostCode":"2463","LatLong":"-29.4726,153.2191"},{"Name":"Ashby Heights","PostCode":"2463","LatLong":"-29.4726,153.2191"},{"Name":"Palmers Channel","PostCode":"2463","LatLong":"-29.4726,153.2191"},{"Name":"Sandon","PostCode":"2463","LatLong":"-29.4726,153.2191"},{"Name":"Taloumbi","PostCode":"2463","LatLong":"-29.4726,153.2191"},{"Name":"Freeburn Island","PostCode":"2464","LatLong":"-29.4042,153.3322"},{"Name":"Angourie","PostCode":"2464","LatLong":"-29.4763,153.3588"},{"Name":"Micalo Island","PostCode":"2464","LatLong":"-29.4927,153.3425"},{"Name":"Wooloweyah","PostCode":"2464","LatLong":"-29.4809,153.3428"},{"Name":"Yuraygir","PostCode":"2464","LatLong":"-29.5765,153.307"},{"Name":"The Freshwater","PostCode":"2466","LatLong":"-29.4067,153.3524"},{"Name":"Woody Head","PostCode":"2466","LatLong":"-29.4067,153.3524"},{"Name":"Camira","PostCode":"2469","LatLong":"-29.2538,152.9636"},{"Name":"Whiporie","PostCode":"2469","LatLong":"-29.2879,152.9926"},{"Name":"Louisa Creek","PostCode":"2469","LatLong":"-29.0454,152.8384"},{"Name":"Woombah","PostCode":"2469","LatLong":"-29.3667,153.2833"},{"Name":"Paddys Flat","PostCode":"2469","LatLong":"-28.7152,152.4179"},{"Name":"Bungawalbin","PostCode":"2469","LatLong":"-29.0333,153.2833"},{"Name":"Bean Creek","PostCode":"2469","LatLong":"-29.0454,152.8384"},{"Name":"Keybarbin","PostCode":"2469","LatLong":"-29.15,152.6"},{"Name":"Ewingar","PostCode":"2469","LatLong":"-29.0454,152.8384"},{"Name":"Drake","PostCode":"2469","LatLong":"-28.9283,152.3723"},{"Name":"Clearfield","PostCode":"2469","LatLong":"-29.1445,152.936"},{"Name":"Mororo","PostCode":"2469","LatLong":"-29.3333,153.25"},{"Name":"Culmaran Creek","PostCode":"2469","LatLong":"-29.0454,152.8384"},{"Name":"Bottle Creek","PostCode":"2469","LatLong":"-28.7888,152.6521"},{"Name":"Goodwood Island","PostCode":"2469","LatLong":"-29.3792,153.3012"},{"Name":"Myrtle Creek","PostCode":"2469","LatLong":"-29.1122,152.9448"},{"Name":"Mummulgum","PostCode":"2469","LatLong":"-28.8496,152.8048"},{"Name":"Theresa Creek","PostCode":"2469","LatLong":"-29.0454,152.8384"},{"Name":"Gibberagee","PostCode":"2469","LatLong":"-29.2318,153.1012"},{"Name":"Coongbar","PostCode":"2469","LatLong":"-29.0454,152.8384"},{"Name":"Wyan","PostCode":"2469","LatLong":"-29.0667,152.8667"},{"Name":"Haystack","PostCode":"2469","LatLong":"-29.0454,152.8384"},{"Name":"Lower Peacock","PostCode":"2469","LatLong":"-29.0454,152.8384"},{"Name":"Deep Creek","PostCode":"2469","LatLong":"-30.3667,149.8333"},{"Name":"Joes Box","PostCode":"2469","LatLong":"-29.0454,152.8384"},{"Name":"Peacock Creek","PostCode":"2469","LatLong":"-29.0454,152.8384"},{"Name":"Alice","PostCode":"2469","LatLong":"-29.0555,152.5879"},{"Name":"Pikapene","PostCode":"2469","LatLong":"-29.0454,152.8384"},{"Name":"Mookima Wybra","PostCode":"2469","LatLong":"-29.0454,152.8384"},{"Name":"Busbys Flat","PostCode":"2469","LatLong":"-29.0485,152.8012"},{"Name":"Lower Duck Creek","PostCode":"2469","LatLong":"-29.0454,152.8384"},{"Name":"Sandilands","PostCode":"2469","LatLong":"-29.0454,152.8384"},{"Name":"Drake Village","PostCode":"2469","LatLong":"-29.0454,152.8384"},{"Name":"Simpkins Creek","PostCode":"2469","LatLong":"-29.0454,152.8384"},{"Name":"Mount Marsh","PostCode":"2469","LatLong":"-29.0454,152.8384"},{"Name":"Six Mile Swamp","PostCode":"2469","LatLong":"-29.0454,152.8384"},{"Name":"Pagans Flat","PostCode":"2469","LatLong":"-29.0454,152.8384"},{"Name":"Bulldog","PostCode":"2469","LatLong":"-29.0454,152.8384"},{"Name":"Upper Duck Creek","PostCode":"2469","LatLong":"-29.0454,152.8384"},{"Name":"Hogarth Range","PostCode":"2469","LatLong":"-29.0454,152.8384"},{"Name":"Warregah Island","PostCode":"2469","LatLong":"-29.0454,152.8384"},{"Name":"Lower Bottle Creek","PostCode":"2469","LatLong":"-29.0454,152.8384"},{"Name":"Jacksons Flat","PostCode":"2469","LatLong":"-29.0454,152.8384"},{"Name":"Tunglebung","PostCode":"2469","LatLong":"-29.0454,152.8384"},{"Name":"Kippenduff","PostCode":"2469","LatLong":"-29.0454,152.8384"},{"Name":"Bingeebeebra Creek","PostCode":"2469","LatLong":"-29.0454,152.8384"},{"Name":"Cambridge Plateau","PostCode":"2469","LatLong":"-29.0454,152.8384"},{"Name":"Yabbra","PostCode":"2469","LatLong":"-29.0454,152.8384"},{"Name":"Capeen Creek","PostCode":"2469","LatLong":"-29.0454,152.8384"},{"Name":"Gorge Creek","PostCode":"2469","LatLong":"-29.0454,152.8384"},{"Name":"Duck Creek","PostCode":"2469","LatLong":"-29.0454,152.8384"},{"Name":"North Casino","PostCode":"2470","LatLong":"-28.8732,152.9852"},{"Name":"Upper Mongogarie","PostCode":"2470","LatLong":"-28.9833,152.85"},{"Name":"Babyl Creek","PostCode":"2470","LatLong":"-28.8732,152.9852"},{"Name":"Tomki","PostCode":"2470","LatLong":"-28.8618,153.1323"},{"Name":"Yorklea","PostCode":"2470","LatLong":"-28.9481,153.0584"},{"Name":"Lower Dyraaba","PostCode":"2470","LatLong":"-28.8732,152.9852"},{"Name":"Woolners Arm","PostCode":"2470","LatLong":"-28.6849,152.8415"},{"Name":"Codrington","PostCode":"2471","LatLong":"-28.9494,153.2418"},{"Name":"East Coraki","PostCode":"2471","LatLong":"-28.9775,153.2497"},{"Name":"West Bungawalbin","PostCode":"2471","LatLong":"-28.9775,153.2497"},{"Name":"Greenridge","PostCode":"2471","LatLong":"-28.9775,153.2497"},{"Name":"North Woodburn","PostCode":"2471","LatLong":"-28.9775,153.2497"},{"Name":"Green Forest","PostCode":"2471","LatLong":"-28.9775,153.2497"},{"Name":"Bora Ridge","PostCode":"2471","LatLong":"-28.9775,153.2497"},{"Name":"West Coraki","PostCode":"2471","LatLong":"-28.9775,153.2497"},{"Name":"Tabbimoble","PostCode":"2472","LatLong":"-29.1985,153.2679"},{"Name":"New Italy","PostCode":"2472","LatLong":"-29.1318,153.2679"},{"Name":"Buckendoon","PostCode":"2472","LatLong":"-29.0485,153.3512"},{"Name":"Moonem","PostCode":"2472","LatLong":"-29.0832,153.3442"},{"Name":"The Gap","PostCode":"2472","LatLong":"-29.0832,153.3442"},{"Name":"Trustums Hill","PostCode":"2472","LatLong":"-29.0832,153.3442"},{"Name":"Esk","PostCode":"2472","LatLong":"-29.0832,153.3442"},{"Name":"Kilgin","PostCode":"2472","LatLong":"-29.0832,153.3442"},{"Name":"Doonbah","PostCode":"2473","LatLong":"-29.1178,153.4307"},{"Name":"South Evans Head","PostCode":"2473","LatLong":"-29.1178,153.4307"},{"Name":"Bundjalung","PostCode":"2473","LatLong":"-29.1178,153.4307"},{"Name":"Iron Gates","PostCode":"2473","LatLong":"-29.1178,153.4307"},{"Name":"Cougal","PostCode":"2474","LatLong":"-28.3667,152.9667"},{"Name":"Loadstone","PostCode":"2474","LatLong":"-28.3907,152.9904"},{"Name":"Upper Eden Creek","PostCode":"2474","LatLong":"-28.536,152.9961"},{"Name":"Smiths Creek","PostCode":"2474","LatLong":"-28.4277,153.378"},{"Name":"Cedar Point","PostCode":"2474","LatLong":"-28.6843,153.0021"},{"Name":"Edenville","PostCode":"2474","LatLong":"-28.536,152.9961"},{"Name":"Wadeville","PostCode":"2474","LatLong":"-28.5607,153.1354"},{"Name":"Horseshoe Creek","PostCode":"2474","LatLong":"-28.5352,153.0376"},{"Name":"Roseberry","PostCode":"2474","LatLong":"-28.4888,152.909"},{"Name":"West Wiangaree","PostCode":"2474","LatLong":"-28.536,152.9961"},{"Name":"Barkers Vale","PostCode":"2474","LatLong":"-28.5366,153.1207"},{"Name":"Afterlee","PostCode":"2474","LatLong":"-28.5741,152.8287"},{"Name":"Old Grevillia","PostCode":"2474","LatLong":"-28.536,152.9961"},{"Name":"Unumgar","PostCode":"2474","LatLong":"-28.4096,152.7429"},{"Name":"Green Pigeon","PostCode":"2474","LatLong":"-28.4806,153.0856"},{"Name":"Roseberry Creek","PostCode":"2474","LatLong":"-28.536,152.9961"},{"Name":"Homeleigh","PostCode":"2474","LatLong":"-28.5685,153.0643"},{"Name":"Upper Horseshoe Creek","PostCode":"2474","LatLong":"-28.5387,153.0651"},{"Name":"Sherwood","PostCode":"2474","LatLong":"-31.0649,152.7288"},{"Name":"Warrazambil Creek","PostCode":"2474","LatLong":"-28.536,152.9961"},{"Name":"Little Back Creek","PostCode":"2474","LatLong":"-28.536,152.9961"},{"Name":"Horse Station Creek","PostCode":"2474","LatLong":"-28.536,152.9961"},{"Name":"Border Ranges","PostCode":"2474","LatLong":"-28.536,152.9961"},{"Name":"Fawcetts Plain","PostCode":"2474","LatLong":"-28.536,152.9961"},{"Name":"Dairy Flat","PostCode":"2474","LatLong":"-28.536,152.9961"},{"Name":"Findon Creek","PostCode":"2474","LatLong":"-28.536,152.9961"},{"Name":"Terrace Creek","PostCode":"2474","LatLong":"-28.536,152.9961"},