{"Structure":"State/Province/Place","States":[{"Name":"Amazonas","Code":"01","Provinces":[{"Name":"Leticia","Code":"91001","Places":[{"PostCode":"910001","LatLong":"-4.2153,-69.9406"},{"PostCode":"910007","LatLong":"-4.2153,-69.9406"},{"PostCode":"910008","LatLong":"-4.2153,-69.9406"}]},{"Name":"El Encanto","Code":"91263","Places":[{"PostCode":"913010","LatLong":"-1.7477,-73.2083"},{"PostCode":"913017","LatLong":"-1.7477,-73.2083"},{"PostCode":"913018","LatLong":"-1.7477,-73.2083"},{"PostCode":"913019","LatLong":"-1.7477,-73.2083"}]},{"Name":"La Chorrera","Code":"91405","Places":[{"PostCode":"914050","LatLong":"-0.7333,-73.0167"},{"PostCode":"914057","LatLong":"-0.7333,-73.0167"}]},{"Name":"La Pedrera","Code":"91407","Places":[{"PostCode":"917010","LatLong":"-1.3239,-69.5744"},{"PostCode":"917017","LatLong":"-1.3239,-69.5744"},{"PostCode":"917018","LatLong":"-1.3239,-69.5744"}]},{"Name":"La Victoria","Code":"91430","Places":[{"PostCode":"916017","LatLong":"0.0551,-71.222"}]},{"Name":"Miriti - Paraná","Code":"91460","Places":[{"Name":"Miriti - Parana","PostCode":"916057","LatLong":"-0.6853,-71.1859"},{"Name":"Miriti - Parana","PostCode":"916058","LatLong":"-0.6853,-71.1859"}]},{"Name":"Puerto Alegría","Code":"91530","Places":[{"Name":"Puerto Alegria","PostCode":"913050","LatLong":"-1.0333,-74.0333"},{"Name":"Puerto Alegria","PostCode":"913057","LatLong":"-1.0333,-74.0333"}]},{"Name":"Puerto Arica","Code":"91536","Places":[{"PostCode":"912010","LatLong":"-2.1485,-71.7548"},{"PostCode":"912017","LatLong":"-2.1485,-71.7548"},{"PostCode":"912018","LatLong":"-2.1485,-71.7548"},{"PostCode":"912019","LatLong":"-2.1485,-71.7548"}]},{"Name":"Puerto Nariño","Code":"91540","Places":[{"PostCode":"911010","LatLong":"-3.7889,-70.3558"},{"PostCode":"911017","LatLong":"-3.7889,-70.3558"},{"PostCode":"911018","LatLong":"-3.7889,-70.3558"}]},{"Name":"Puerto Santander","Code":"91669","Places":[{"PostCode":"915010","LatLong":"-0.6217,-72.384"},{"PostCode":"915017","LatLong":"-0.6217,-72.384"},{"PostCode":"915018","LatLong":"-0.6217,-72.384"},{"PostCode":"915019","LatLong":"-0.6217,-72.384"}]},{"Name":"Tarapacá","Code":"91798","Places":[{"Name":"Tarapaca","PostCode":"911030","LatLong":"-2.8786,-69.7442"},{"Name":"Tarapaca","PostCode":"911037","LatLong":"-2.8786,-69.7442"},{"Name":"Tarapaca","PostCode":"911038","LatLong":"-2.8786,-69.7442"},{"Name":"Tarapaca","PostCode":"911039","LatLong":"-2.8786,-69.7442"}]}]},{"Name":"Antioquia","Code":"02","Provinces":[{"Name":"Medellín","Code":"05001","Places":[{"Name":"Medellin","PostCode":"050001","LatLong":"6.2518,-75.5636"},{"Name":"Medellin","PostCode":"050002","LatLong":"6.2518,-75.5636"},{"Name":"Medellin","PostCode":"050003","LatLong":"6.2518,-75.5636"},{"Name":"Medellin","PostCode":"050004","LatLong":"6.2518,-75.5636"},{"Name":"Medellin","PostCode":"050005","LatLong":"6.2518,-75.5636"},{"Name":"Medellin","PostCode":"050006","LatLong":"6.2518,-75.5636"},{"Name":"Medellin","PostCode":"050007","LatLong":"6.2518,-75.5636"},{"Name":"Medellin","PostCode":"050010","LatLong":"6.2518,-75.5636"},{"Name":"Medellin","PostCode":"050011","LatLong":"6.2518,-75.5636"},{"Name":"Medellin","PostCode":"050012","LatLong":"6.2518,-75.5636"},{"Name":"Medellin","PostCode":"050013","LatLong":"6.2518,-75.5636"},{"Name":"Medellin","PostCode":"050014","LatLong":"6.2518,-75.5636"},{"Name":"Medellin","PostCode":"050015","LatLong":"6.2518,-75.5636"},{"Name":"Medellin","PostCode":"050016","LatLong":"6.2518,-75.5636"},{"Name":"Medellin","PostCode":"050017","LatLong":"6.2518,-75.5636"},{"Name":"Medellin","PostCode":"050018","LatLong":"6.2518,-75.5636"},{"Name":"Medellin","PostCode":"050020","LatLong":"6.2518,-75.5636"},{"Name":"Medellin","PostCode":"050021","LatLong":"6.2518,-75.5636"},{"Name":"Medellin","PostCode":"050022","LatLong":"6.2518,-75.5636"},{"Name":"Medellin","PostCode":"050023","LatLong":"6.2518,-75.5636"},{"Name":"Medellin","PostCode":"050024","LatLong":"6.2518,-75.5636"},{"Name":"Medellin","PostCode":"050025","LatLong":"6.2518,-75.5636"},{"Name":"Medellin","PostCode":"050026","LatLong":"6.2518,-75.5636"},{"Name":"Medellin","PostCode":"050027","LatLong":"6.2518,-75.5636"},{"Name":"Medellin","PostCode":"050028","LatLong":"6.2518,-75.5636"},{"Name":"Medellin","PostCode":"050029","LatLong":"6.2518,-75.5636"},{"Name":"Medellin","PostCode":"050030","LatLong":"6.2518,-75.5636"},{"Name":"Medellin","PostCode":"050031","LatLong":"6.2518,-75.5636"},{"Name":"Medellin","PostCode":"050032","LatLong":"6.2518,-75.5636"},{"Name":"Medellin","PostCode":"050033","LatLong":"6.2518,-75.5636"},{"Name":"Medellin","PostCode":"050034","LatLong":"6.2518,-75.5636"},{"Name":"Medellin","PostCode":"050035","LatLong":"6.2518,-75.5636"},{"Name":"Medellin","PostCode":"050036","LatLong":"6.2518,-75.5636"},{"Name":"Medellin","PostCode":"050037","LatLong":"6.2518,-75.5636"},{"Name":"Medellin","PostCode":"050040","LatLong":"6.2518,-75.5636"},{"Name":"Medellin","PostCode":"050041","LatLong":"6.2518,-75.5636"},{"Name":"Medellin","PostCode":"050042","LatLong":"6.2518,-75.5636"},{"Name":"Medellin","PostCode":"050043","LatLong":"6.2518,-75.5636"},{"Name":"Medellin","PostCode":"050044","LatLong":"6.2518,-75.5636"},{"Name":"Medellin","PostCode":"050047","LatLong":"6.2518,-75.5636"},{"Name":"Medellin","PostCode":"050048","LatLong":"6.2518,-75.5636"}]},{"Name":"Abejorral","Code":"05002","Places":[{"PostCode":"055030","LatLong":"5.7893,-75.4273"},{"PostCode":"055037","LatLong":"5.7893,-75.4273"},{"PostCode":"055038","LatLong":"5.7893,-75.4273"}]},{"Name":"Abriaquí","Code":"05004","Places":[{"Name":"Abriaqui","PostCode":"057460","LatLong":"6.6315,-76.0644"},{"Name":"Abriaqui","PostCode":"057467","LatLong":"6.6315,-76.0644"}]},{"Name":"Alejandría","Code":"05021","Places":[{"Name":"Alejandria","PostCode":"053820","LatLong":"6.3774,-75.1406"},{"Name":"Alejandria","PostCode":"053827","LatLong":"6.3774,-75.1406"}]},{"Name":"Amagá","Code":"05030","Places":[{"Name":"Amaga","PostCode":"055840","LatLong":"6.04,-75.7032"},{"Name":"Amaga","PostCode":"055847","LatLong":"6.04,-75.7032"},{"Name":"Amaga","PostCode":"055848","LatLong":"6.04,-75.7032"}]},{"Name":"Amalfi","Code":"05031","Places":[{"PostCode":"052840","LatLong":"6.9102,-75.0776"},{"PostCode":"052847","LatLong":"6.9102,-75.0776"},{"PostCode":"052848","LatLong":"6.9102,-75.0776"}]},{"Name":"Andes","Code":"05034","Places":[{"PostCode":"056060","LatLong":"5.6561,-75.8788"},{"PostCode":"056067","LatLong":"5.6561,-75.8788"},{"PostCode":"056068","LatLong":"5.6561,-75.8788"}]},{"Name":"Angelópolis","Code":"05036","Places":[{"Name":"Angelopolis","PostCode":"055830","LatLong":"6.1107,-75.7092"},{"Name":"Angelopolis","PostCode":"055837","LatLong":"6.1107,-75.7092"}]},{"Name":"Angostura","Code":"05038","Places":[{"PostCode":"051810","LatLong":"6.8851,-75.3347"},{"PostCode":"051817","LatLong":"6.8851,-75.3347"},{"PostCode":"051818","LatLong":"6.8851,-75.3347"}]},{"Name":"Anorí","Code":"05040","Places":[{"Name":"Anori","PostCode":"052850","LatLong":"7.1833,-75.0667"},{"Name":"Anori","PostCode":"052857","LatLong":"7.1833,-75.0667"}]},{"Name":"Santafé de Antioquia","Code":"05042","Places":[{"Name":"Santafe De Antioquia","PostCode":"057050","LatLong":"6.5332,-75.9028"},{"Name":"Santafe De Antioquia","PostCode":"057057","LatLong":"6.5332,-75.9028"},{"Name":"Santafe De Antioquia","PostCode":"057058","LatLong":"6.5332,-75.9028"}]},{"Name":"Anza","Code":"05044","Places":[{"PostCode":"056850","LatLong":"6.3032,-75.8538"},{"PostCode":"056857","LatLong":"6.3032,-75.8538"},{"PostCode":"056858","LatLong":"6.3032,-75.8538"}]},{"Name":"Apartadó","Code":"05045","Places":[{"Name":"Apartado","PostCode":"057840","LatLong":"7.883,-76.6259"},{"Name":"Apartado","PostCode":"057841","LatLong":"7.883,-76.6259"},{"Name":"Apartado","PostCode":"057847","LatLong":"7.883,-76.6259"}]},{"Name":"Arboletes","Code":"05051","Places":[{"PostCode":"057820","LatLong":"8.8505,-76.4269"},{"PostCode":"057827","LatLong":"8.8505,-76.4269"},{"PostCode":"057828","LatLong":"8.8505,-76.4269"},{"PostCode":"057829","LatLong":"8.8505,-76.4269"}]},{"Name":"Argelia","Code":"05055","Places":[{"PostCode":"054830","LatLong":"5.7313,-75.1426"},{"PostCode":"054837","LatLong":"5.7313,-75.1426"},{"PostCode":"054838","LatLong":"5.7313,-75.1426"}]},{"Name":"Armenia","Code":"05059","Places":[{"PostCode":"055860","LatLong":"6.1564,-75.7872"},{"PostCode":"055867","LatLong":"6.1564,-75.7872"}]},{"Name":"Barbosa","Code":"05079","Places":[{"PostCode":"051020","LatLong":"6.4381,-75.3314"},{"PostCode":"051027","LatLong":"6.4381,-75.3314"},{"PostCode":"051028","LatLong":"6.4381,-75.3314"}]},{"Name":"Belmira","Code":"05086","Places":[{"PostCode":"051420","LatLong":"6.6051,-75.6662"},{"PostCode":"051427","LatLong":"6.6051,-75.6662"}]},{"Name":"Bello","Code":"05088","Places":[{"PostCode":"051050","LatLong":"6.3373,-75.558"},{"PostCode":"051051","LatLong":"6.3373,-75.558"},{"PostCode":"051052","LatLong":"6.3373,-75.558"},{"PostCode":"051053","LatLong":"6.3373,-75.558"},{"PostCode":"051054","LatLong":"6.3373,-75.558"},{"PostCode":"051057","LatLong":"6.3373,-75.558"},{"PostCode":"051058","LatLong":"6.3373,-75.558"},{"PostCode":"051059","LatLong":"6.3373,-75.558"}]},{"Name":"Betania","Code":"05091","Places":[{"PostCode":"056070","LatLong":"5.746,-75.9777"},{"PostCode":"056077","LatLong":"5.746,-75.9777"}]},{"Name":"Betulia","Code":"05093","Places":[{"PostCode":"056860","LatLong":"6.1128,-75.9838"},{"PostCode":"056867","LatLong":"6.1128,-75.9838"},{"PostCode":"056868","LatLong":"6.1128,-75.9838"}]},{"Name":"Ciudad Bolívar","Code":"05101","Places":[{"Name":"Ciudad Bolivar","PostCode":"056460","LatLong":"5.8539,-76.0253"},{"Name":"Ciudad Bolivar","PostCode":"056467","LatLong":"5.8539,-76.0253"},{"Name":"Ciudad Bolivar","PostCode":"056468","LatLong":"5.8539,-76.0253"}]},{"Name":"Briceño","Code":"05107","Places":[{"PostCode":"052060","LatLong":"7.111,-75.5515"},{"PostCode":"052067","LatLong":"7.111,-75.5515"},{"PostCode":"052068","LatLong":"7.111,-75.5515"}]},{"Name":"Buriticá","Code":"05113","Places":[{"Name":"Buritica","PostCode":"057030","LatLong":"6.7187,-75.9073"},{"Name":"Buritica","PostCode":"057037","LatLong":"6.7187,-75.9073"},{"Name":"Buritica","PostCode":"057038","LatLong":"6.7187,-75.9073"}]},{"Name":"Cáceres","Code":"05120","Places":[{"Name":"Caceres","PostCode":"052450","LatLong":"7.5808,-75.3484"},{"Name":"Caceres","PostCode":"052457","LatLong":"7.5808,-75.3484"},{"Name":"Caceres","PostCode":"052458","LatLong":"7.5808,-75.3484"}]},{"Name":"Caicedo","Code":"05125","Places":[{"PostCode":"056840","LatLong":"6.4051,-75.9825"},{"PostCode":"056847","LatLong":"6.4051,-75.9825"}]},{"Name":"Caldas","Code":"05129","Places":[{"PostCode":"055440","LatLong":"6.0911,-75.6357"},{"PostCode":"055447","LatLong":"6.0911,-75.6357"},{"PostCode":"055448","LatLong":"6.0911,-75.6357"}]},{"Name":"Campamento","Code":"05134","Places":[{"PostCode":"052020","LatLong":"6.9792,-75.2972"},{"PostCode":"052027","LatLong":"6.9792,-75.2972"}]},{"Name":"Cañasgordas","Code":"05138","Places":[{"PostCode":"057060","LatLong":"6.7499,-76.0254"},{"PostCode":"057067","LatLong":"6.7499,-76.0254"},{"PostCode":"057068","LatLong":"6.7499,-76.0254"}]},{"Name":"Caracolí","Code":"05142","Places":[{"Name":"Caracoli","PostCode":"053450","LatLong":"6.4119,-74.7606"},{"Name":"Caracoli","PostCode":"053457","LatLong":"6.4119,-74.7606"}]},{"Name":"Caramanta","Code":"05145","Places":[{"PostCode":"056040","LatLong":"5.5478,-75.6437"},{"PostCode":"056047","LatLong":"5.5478,-75.6437"}]},{"Name":"Carepa","Code":"05147","Places":[{"PostCode":"057850","LatLong":"7.7585,-76.6525"},{"PostCode":"057857","LatLong":"7.7585,-76.6525"},{"PostCode":"057858","LatLong":"7.7585,-76.6525"}]},{"Name":"El Carmen de Viboral","Code":"05148","Places":[{"Name":"El Carmen De Viboral","PostCode":"054030","LatLong":"6.0824,-75.3351"},{"Name":"El Carmen De Viboral","PostCode":"054037","LatLong":"6.0824,-75.3351"},{"Name":"El Carmen De Viboral","PostCode":"054038","LatLong":"6.0824,-75.3351"}]},{"Name":"Carolina","Code":"05150","Places":[{"PostCode":"051840","LatLong":"6.7244,-75.2817"},{"PostCode":"051847","LatLong":"6.7244,-75.2817"}]},{"Name":"Caucasia","Code":"05154","Places":[{"PostCode":"052410","LatLong":"7.9865,-75.1935"},{"PostCode":"052417","LatLong":"7.9865,-75.1935"},{"PostCode":"052418","LatLong":"7.9865,-75.1935"}]},{"Name":"Chigorodó","Code":"05172","Places":[{"Name":"Chigorodo","PostCode":"057410","LatLong":"7.6664,-76.6811"},{"Name":"Chigorodo","PostCode":"057417","LatLong":"7.6664,-76.6811"},{"Name":"Chigorodo","PostCode":"057418","LatLong":"7.6664,-76.6811"}]},{"Name":"Cisneros","Code":"05190","Places":[{"PostCode":"053050","LatLong":"6.5383,-75.0886"},{"PostCode":"053057","LatLong":"6.5383,-75.0886"}]},{"Name":"Cocorná","Code":"05197","Places":[{"Name":"Cocorna","PostCode":"054440","LatLong":"6.0573,-75.1852"},{"Name":"Cocorna","PostCode":"054447","LatLong":"6.0573,-75.1852"},{"Name":"Cocorna","PostCode":"054448","LatLong":"6.0573,-75.1852"}]},{"Name":"Concepción","Code":"05206","Places":[{"Name":"Concepcion","PostCode":"053810","LatLong":"6.3941,-75.2583"},{"Name":"Concepcion","PostCode":"053817","LatLong":"6.3941,-75.2583"}]},{"Name":"Concordia","Code":"05209","Places":[{"PostCode":"056410","LatLong":"6.0464,-75.9071"},{"PostCode":"056417","LatLong":"6.0464,-75.9071"}]},{"Name":"Copacabana","Code":"05212","Places":[{"PostCode":"051040","LatLong":"6.3463,-75.5089"},{"PostCode":"051047","LatLong":"6.3463,-75.5089"},{"PostCode":"051048","LatLong":"6.3463,-75.5089"}]},{"Name":"Dabeiba","Code":"05234","Places":[{"PostCode":"057430","LatLong":"7.0002,-76.2691"},{"PostCode":"057437","LatLong":"7.0002,-76.2691"},{"PostCode":"057438","LatLong":"7.0002,-76.2691"}]},{"Name":"Don Matías","Code":"05237","Places":[{"Name":"Don Matias","PostCode":"051850","LatLong":"6.4857,-75.395"},{"Name":"Don Matias","PostCode":"051857","LatLong":"6.4857,-75.395"},{"Name":"Don Matias","PostCode":"051858","LatLong":"6.4857,-75.395"}]},{"Name":"Ebéjico","Code":"05240","Places":[{"Name":"Ebejico","PostCode":"055810","LatLong":"6.326,-75.7683"},{"Name":"Ebejico","PostCode":"055817","LatLong":"6.326,-75.7683"},{"Name":"Ebejico","PostCode":"055818","LatLong":"6.326,-75.7683"}]},{"Name":"El Bagre","Code":"05250","Places":[{"PostCode":"052430","LatLong":"7.6035,-74.8095"},{"PostCode":"052437","LatLong":"7.6035,-74.8095"},{"PostCode":"052438","LatLong":"7.6035,-74.8095"}]},{"Name":"Entrerrios","Code":"05264","Places":[{"PostCode":"051430","LatLong":"6.5654,-75.5169"},{"PostCode":"051437","LatLong":"6.5654,-75.5169"}]},{"Name":"Envigado","Code":"05266","Places":[{"PostCode":"055420","LatLong":"6.1759,-75.5917"},{"PostCode":"055421","LatLong":"6.1759,-75.5917"},{"PostCode":"055422","LatLong":"6.1759,-75.5917"},{"PostCode":"055427","LatLong":"6.1759,-75.5917"},{"PostCode":"055428","LatLong":"6.1759,-75.5917"}]},{"Name":"Fredonia","Code":"05282","Places":[{"PostCode":"055070","LatLong":"5.9258,-75.6706"},{"PostCode":"055077","LatLong":"5.9258,-75.6706"},{"PostCode":"055078","LatLong":"5.9258,-75.6706"}]},{"Name":"Frontino","Code":"05284","Places":[{"PostCode":"057450","LatLong":"6.7713,-76.1332"},{"PostCode":"057457","LatLong":"6.7713,-76.1332"},{"PostCode":"057458","LatLong":"6.7713,-76.1332"}]},{"Name":"Giraldo","Code":"05306","Places":[{"PostCode":"057040","LatLong":"6.6831,-75.9892"},{"PostCode":"057047","LatLong":"6.6831,-75.9892"}]},{"Name":"Girardota","Code":"05308","Places":[{"PostCode":"051030","LatLong":"6.3771,-75.4478"},{"PostCode":"051037","LatLong":"6.3771,-75.4478"},{"PostCode":"051038","LatLong":"6.3771,-75.4478"}]},{"Name":"Gómez Plata","Code":"05310","Places":[{"Name":"Gomez Plata","PostCode":"051830","LatLong":"6.6818,-75.2191"},{"Name":"Gomez Plata","PostCode":"051837","LatLong":"6.6818,-75.2191"},{"Name":"Gomez Plata","PostCode":"051838","LatLong":"6.6818,-75.2191"}]},{"Name":"Granada","Code":"05313","Places":[{"PostCode":"054410","LatLong":"6.1435,-75.1853"},{"PostCode":"054417","LatLong":"6.1435,-75.1853"}]},{"Name":"Guadalupe","Code":"05315","Places":[{"PostCode":"051820","LatLong":"6.8145,-75.2406"},{"PostCode":"051827","LatLong":"6.8145,-75.2406"}]},{"Name":"Guarne","Code":"05318","Places":[{"PostCode":"054050","LatLong":"6.2805,-75.4435"},{"PostCode":"054057","LatLong":"6.2805,-75.4435"},{"PostCode":"054058","LatLong":"6.2805,-75.4435"}]},{"Name":"Guatapé","Code":"05321","Places":[{"Name":"Guatape","PostCode":"053840","LatLong":"6.2343,-75.1633"},{"Name":"Guatape","PostCode":"053847","LatLong":"6.2343,-75.1633"}]},{"Name":"Heliconia","Code":"05347","Places":[{"PostCode":"055820","LatLong":"6.2083,-75.7357"},{"PostCode":"055827","LatLong":"6.2083,-75.7357"}]},{"Name":"Hispania","Code":"05353","Places":[{"PostCode":"056450","LatLong":"5.7993,-75.9072"},{"PostCode":"056457","LatLong":"5.7993,-75.9072"}]},{"Name":"Itagui","Code":"05360","Places":[{"Name":"Itagüi","PostCode":"055410","LatLong":"6.1846,-75.5991"},{"Name":"Itagüi","PostCode":"055411","LatLong":"6.1846,-75.5991"},{"Name":"Itagüi","PostCode":"055412","LatLong":"6.1846,-75.5991"},{"Name":"Itagüi","PostCode":"055413","LatLong":"6.1846,-75.5991"},{"Name":"Itagüi","PostCode":"055417","LatLong":"6.1846,-75.5991"}]},{"Name":"Ituango","Code":"05361","Places":[{"PostCode":"052070","LatLong":"7.1712,-75.764"},{"PostCode":"052077","LatLong":"7.1712,-75.764"},{"PostCode":"052078","LatLong":"7.1712,-75.764"},{"PostCode":"052079","LatLong":"7.1712,-75.764"}]},{"Name":"Jardín","Code":"05364","Places":[{"Name":"Jardin","PostCode":"056050","LatLong":"5.599,-75.8198"},{"Name":"Jardin","PostCode":"056057","LatLong":"5.599,-75.8198"}]},{"Name":"Jericó","Code":"05368","Places":[{"Name":"Jerico","PostCode":"056010","LatLong":"5.7921,-75.786"},{"Name":"Jerico","PostCode":"056017","LatLong":"5.7921,-75.786"}]},{"Name":"La Ceja","Code":"05376","Places":[{"PostCode":"055010","LatLong":"6.0313,-75.4333"},{"PostCode":"055017","LatLong":"6.0313,-75.4333"},{"PostCode":"055018","LatLong":"6.0313,-75.4333"}]},{"Name":"La Estrella","Code":"05380","Places":[{"PostCode":"055460","LatLong":"6.1577,-75.6432"},{"PostCode":"055467","LatLong":"6.1577,-75.6432"},{"PostCode":"055468","LatLong":"6.1577,-75.6432"}]},{"Name":"La Pintada","Code":"05390","Places":[{"PostCode":"055060","LatLong":"5.7487,-75.6063"},{"PostCode":"055067","LatLong":"5.7487,-75.6063"},{"PostCode":"055068","LatLong":"5.7487,-75.6063"}]},{"Name":"La Unión","Code":"05400","Places":[{"Name":"La Union","PostCode":"055020","LatLong":"5.9743,-75.362"},{"Name":"La Union","PostCode":"055027","LatLong":"5.9743,-75.362"},{"Name":"La Union","PostCode":"055028","LatLong":"5.9743,-75.362"}]},{"Name":"Liborina","Code":"05411","Places":[{"PostCode":"051460","LatLong":"6.6779,-75.8122"},{"PostCode":"051467","LatLong":"6.6779,-75.8122"},{"PostCode":"051468","LatLong":"6.6779,-75.8122"}]},{"Name":"Maceo","Code":"05425","Places":[{"PostCode":"053460","LatLong":"6.552,-74.7874"},{"PostCode":"053467","LatLong":"6.552,-74.7874"}]},{"Name":"Marinilla","Code":"05440","Places":[{"PostCode":"054020","LatLong":"6.1736,-75.3362"},{"PostCode":"054027","LatLong":"6.1736,-75.3362"},{"PostCode":"054028","LatLong":"6.1736,-75.3362"}]},{"Name":"Montebello","Code":"05467","Places":[{"PostCode":"055040","LatLong":"5.9449,-75.5243"},{"PostCode":"055047","LatLong":"5.9449,-75.5243"},{"PostCode":"055048","LatLong":"5.9449,-75.5243"}]},{"Name":"Murindó","Code":"05475","Places":[{"Name":"Murindo","PostCode":"056810","LatLong":"6.9848,-76.7544"},{"Name":"Murindo","PostCode":"056817","LatLong":"6.9848,-76.7544"},{"Name":"Murindo","PostCode":"056818","LatLong":"6.9848,-76.7544"}]},{"Name":"Mutatá","Code":"05480","Places":[{"Name":"Mutata","PostCode":"057420","LatLong":"7.2441,-76.4356"},{"Name":"Mutata","PostCode":"057427","LatLong":"7.2441,-76.4356"},{"Name":"Mutata","PostCode":"057428","LatLong":"7.2441,-76.4356"}]},{"Name":"Nariño","Code":"05483","Places":[{"PostCode":"054840","LatLong":"5.6089,-75.1766"},{"PostCode":"054847","LatLong":"5.6089,-75.1766"},{"PostCode":"054848","LatLong":"5.6089,-75.1766"}]},{"Name":"Necoclí","Code":"05490","Places":[{"Name":"Necocli","PostCode":"057870","LatLong":"8.4263,-76.7893"},{"Name":"Necocli","PostCode":"057877","LatLong":"8.4263,-76.7893"},{"Name":"Necocli","PostCode":"057878","LatLong":"8.4263,-76.7893"}]},{"Name":"Nechí","Code":"05495","Places":[{"Name":"Nechi","PostCode":"052420","LatLong":"8.0942,-74.7757"},{"Name":"Nechi","PostCode":"052427","LatLong":"8.0942,-74.7757"},{"Name":"Nechi","PostCode":"052428","LatLong":"8.0942,-74.7757"}]},{"Name":"Olaya","Code":"05501","Places":[{"PostCode":"051450","LatLong":"6.6299,-75.803"},{"PostCode":"051457","LatLong":"6.6299,-75.803"}]},{"Name":"Peñol","Code":"05541","Places":[{"PostCode":"053850","LatLong":"6.2464,-75.221"},{"PostCode":"053857","LatLong":"6.2464,-75.221"}]},{"Name":"Peque","Code":"05543","Places":[{"PostCode":"057010","LatLong":"7.0212,-75.9093"},{"PostCode":"057017","LatLong":"7.0212,-75.9093"},{"PostCode":"057018","LatLong":"7.0212,-75.9093"}]},{"Name":"Pueblorrico","Code":"05576","Places":[{"PostCode":"056440","LatLong":"5.7918,-75.841"},{"PostCode":"056447","LatLong":"5.7918,-75.841"}]},{"Name":"Puerto Berrío","Code":"05579","Places":[{"Name":"Puerto Berrio","PostCode":"053420","LatLong":"6.4916,-74.4033"},{"Name":"Puerto Berrio","PostCode":"053427","LatLong":"6.4916,-74.4033"},{"Name":"Puerto Berrio","PostCode":"053428","LatLong":"6.4916,-74.4033"}]},{"Name":"Puerto Nare","Code":"05585","Places":[{"PostCode":"053430","LatLong":"6.2053,-74.5997"},{"PostCode":"053437","LatLong":"6.2053,-74.5997"}]},{"Name":"Puerto Triunfo","Code":"05591","Places":[{"PostCode":"053440","LatLong":"5.8726,-74.6403"},{"PostCode":"053447","LatLong":"5.8726,-74.6403"},{"PostCode":"053448","LatLong":"5.8726,-74.6403"}]},{"Name":"Remedios","Code":"05604","Places":[{"PostCode":"052820","LatLong":"7.0308,-74.5333"},{"PostCode":"052827","LatLong":"7.0308,-74.5333"},{"PostCode":"052828","LatLong":"7.0308,-74.5333"}]},{"Name":"Retiro","Code":"05607","Places":[{"PostCode":"055430","LatLong":"6.0547,-75.5137"},{"PostCode":"055437","LatLong":"6.0547,-75.5137"},{"PostCode":"055438","LatLong":"6.0547,-75.5137"}]},{"Name":"Rionegro","Code":"05615","Places":[{"PostCode":"054040","LatLong":"6.1551,-75.3737"},{"PostCode":"054047","LatLong":"6.1551,-75.3737"},{"PostCode":"054048","LatLong":"6.1551,-75.3737"}]},{"Name":"Sabanalarga","Code":"05628","Places":[{"PostCode":"057020","LatLong":"6.8489,-75.8171"},{"PostCode":"057027","LatLong":"6.8489,-75.8171"},{"PostCode":"057028","LatLong":"6.8489,-75.8171"}]},{"Name":"Sabaneta","Code":"05631","Places":[{"PostCode":"055450","LatLong":"6.1515,-75.6166"},{"PostCode":"055457","LatLong":"6.1515,-75.6166"}]},{"Name":"Salgar","Code":"05642","Places":[{"PostCode":"056470","LatLong":"5.965,-75.9654"},{"PostCode":"056477","LatLong":"5.965,-75.9654"},{"PostCode":"056478","LatLong":"5.965,-75.9654"}]},{"Name":"San Andrés de Cuerquía","Code":"05647","Places":[{"Name":"San Andres De Cuerquia","PostCode":"052040","LatLong":"6.9189,-75.6641"},{"Name":"San Andres De Cuerquia","PostCode":"052047","LatLong":"6.9189,-75.6641"}]},{"Name":"San Carlos","Code":"05649","Places":[{"PostCode":"054420","LatLong":"6.1879,-74.9931"},{"PostCode":"054427","LatLong":"6.1879,-74.9931"},{"PostCode":"054428","LatLong":"6.1879,-74.9931"}]},{"Name":"San Francisco","Code":"05652","Places":[{"PostCode":"054810","LatLong":"5.9643,-75.1016"},{"PostCode":"054817","LatLong":"5.9643,-75.1016"},{"PostCode":"054818","LatLong":"5.9643,-75.1016"}]},{"Name":"San Jerónimo","Code":"05656","Places":[{"Name":"San Jeronimo","PostCode":"051070","LatLong":"6.4434,-75.7281"},{"Name":"San Jeronimo","PostCode":"051077","LatLong":"6.4434,-75.7281"}]},{"Name":"San José de La Montaña","Code":"05658","Places":[{"Name":"San Jose De La Montaña","PostCode":"051410","LatLong":"6.8503,-75.6833"},{"Name":"San Jose De La Montaña","PostCode":"051417","LatLong":"6.8503,-75.6833"}]},{"Name":"San Juan de Urabá","Code":"05659","Places":[{"Name":"San Juan De Uraba","PostCode":"057810","LatLong":"8.7592,-76.5297"},{"Name":"San Juan De Uraba","PostCode":"057817","LatLong":"8.7592,-76.5297"}]},{"Name":"San Luis","Code":"05660","Places":[{"PostCode":"054430","LatLong":"6.0434,-74.9937"},{"PostCode":"054437","LatLong":"6.0434,-74.9937"},{"PostCode":"054438","LatLong":"6.0434,-74.9937"}]},{"Name":"San Pedro","Code":"05664","Places":[{"Name":"San Pedro De Los Milagros","PostCode":"051010","LatLong":"6.4582,-75.5638"},{"Name":"San Pedro De Los Milagros","PostCode":"051017","LatLong":"6.4582,-75.5638"}]},{"Name":"San Pedro de Uraba","Code":"05665","Places":[{"Name":"San Pedro De Uraba","PostCode":"057830","LatLong":"8.2751,-76.3764"},{"Name":"San Pedro De Uraba","PostCode":"057837","LatLong":"8.2751,-76.3764"},{"Name":"San Pedro De Uraba","PostCode":"057838","LatLong":"8.2751,-76.3764"},{"Name":"San Pedro De Uraba","PostCode":"057839","LatLong":"8.2751,-76.3764"}]},{"Name":"San Rafael","Code":"05667","Places":[{"PostCode":"053830","LatLong":"6.2944,-75.0259"},{"PostCode":"053837","LatLong":"6.2944,-75.0259"},{"PostCode":"053838","LatLong":"6.2944,-75.0259"}]},{"Name":"San Roque","Code":"05670","Places":[{"PostCode":"053030","LatLong":"6.4851,-75.0196"},{"PostCode":"053037","LatLong":"6.4851,-75.0196"}]},{"Name":"San Vicente","Code":"05674","Places":[{"PostCode":"054010","LatLong":"6.2328,-75.3361"},{"PostCode":"054017","LatLong":"6.2328,-75.3361"},{"PostCode":"054018","LatLong":"6.2328,-75.3361"}]},{"Name":"Santa Bárbara","Code":"05679","Places":[{"Name":"Santa Barbara","PostCode":"055050","LatLong":"5.8746,-75.5671"},{"Name":"Santa Barbara","PostCode":"055057","LatLong":"5.8746,-75.5671"},{"Name":"Santa Barbara","PostCode":"055058","LatLong":"5.8746,-75.5671"}]},{"Name":"Santa Rosa de Osos","Code":"05686","Places":[{"Name":"Santa Rosa De Osos","PostCode":"051860","LatLong":"6.6474,-75.4603"},{"Name":"Santa Rosa De Osos","PostCode":"051867","LatLong":"6.6474,-75.4603"},{"Name":"Santa Rosa De Osos","PostCode":"051868","LatLong":"6.6474,-75.4603"}]},{"Name":"Santo Domingo","Code":"05690","Places":[{"PostCode":"053040","LatLong":"6.4728,-75.1655"},{"PostCode":"053047","LatLong":"6.4728,-75.1655"},{"PostCode":"053048","LatLong":"6.4728,-75.1655"}]},{"Name":"El Santuario","Code":"05697","Places":[{"PostCode":"054450","LatLong":"6.1383,-75.2642"},{"PostCode":"054457","LatLong":"6.1383,-75.2642"}]},{"Name":"Segovia","Code":"05736","Places":[{"PostCode":"052810","LatLong":"7.0799,-74.6989"},{"PostCode":"052817","LatLong":"7.0799,-74.6989"},{"PostCode":"052818","LatLong":"7.0799,-74.6989"}]},{"Name":"Sonson","Code":"05756","Places":[{"PostCode":"054820","LatLong":"5.7106,-75.3107"},{"PostCode":"054827","LatLong":"5.7106,-75.3107"},{"PostCode":"054828","LatLong":"5.7106,-75.3107"},{"PostCode":"054829","LatLong":"5.7106,-75.3107"}]},{"Name":"Sopetrán","Code":"05761","Places":[{"Name":"Sopetran","PostCode":"051440","LatLong":"6.5213,-75.7455"},{"Name":"Sopetran","PostCode":"051447","LatLong":"6.5213,-75.7455"},{"Name":"Sopetran","PostCode":"051448","LatLong":"6.5213,-75.7455"}]},{"Name":"Támesis","Code":"05789","Places":[{"Name":"Tamesis","PostCode":"056020","LatLong":"5.6646,-75.7134"},{"Name":"Tamesis","PostCode":"056027","LatLong":"5.6646,-75.7134"},{"Name":"Tamesis","PostCode":"056028","LatLong":"5.6646,-75.7134"}]},{"Name":"Tarazá","Code":"05790","Places":[{"Name":"Taraza","PostCode":"052460","LatLong":"7.5836,-75.4007"},{"Name":"Taraza","PostCode":"052467","LatLong":"7.5836,-75.4007"},{"Name":"Taraza","PostCode":"052468","LatLong":"7.5836,-75.4007"}]},{"Name":"Tarso","Code":"05792","Places":[{"PostCode":"056430","LatLong":"5.8647,-75.8219"},{"PostCode":"056437","LatLong":"5.8647,-75.8219"},{"PostCode":"056438","LatLong":"5.8647,-75.8219"}]},{"Name":"Titiribí","Code":"05809","Places":[{"Name":"Titiribi","PostCode":"055850","LatLong":"6.0628,-75.7937"},{"Name":"Titiribi","PostCode":"055857","LatLong":"6.0628,-75.7937"},{"Name":"Titiribi","PostCode":"055858","LatLong":"6.0628,-75.7937"}]},{"Name":"Toledo","Code":"05819","Places":[{"PostCode":"052050","LatLong":"7.0131,-75.6953"},{"PostCode":"052057","LatLong":"7.0131,-75.6953"}]},{"Name":"Turbo","Code":"05837","Places":[{"PostCode":"057860","LatLong":"8.0926,-76.7282"},{"PostCode":"057867","LatLong":"8.0926,-76.7282"},{"PostCode":"057868","LatLong":"8.0926,-76.7282"},{"PostCode":"057869","LatLong":"8.0926,-76.7282"}]},{"Name":"Uramita","Code":"05842","Places":[{"PostCode":"057440","LatLong":"6.8994,-76.1742"},{"PostCode":"057447","LatLong":"6.8994,-76.1742"}]},{"Name":"Urrao","Code":"05847","Places":[{"PostCode":"056830","LatLong":"6.317,-76.1342"},{"PostCode":"056837","LatLong":"6.317,-76.1342"},{"PostCode":"056838","LatLong":"6.317,-76.1342"}]},{"Name":"Valdivia","Code":"05854","Places":[{"PostCode":"052010","LatLong":"7.2889,-75.3978"},{"PostCode":"052017","LatLong":"7.2889,-75.3978"},{"PostCode":"052018","LatLong":"7.2889,-75.3978"}]},{"Name":"Valparaíso","Code":"05856","Places":[{"Name":"Valparaiso","PostCode":"056030","LatLong":"5.615,-75.6242"},{"Name":"Valparaiso","PostCode":"056037","LatLong":"5.615,-75.6242"}]},{"Name":"Vegachí","Code":"05858","Places":[{"Name":"Vegachi","PostCode":"052830","LatLong":"6.8361,-74.7532"},{"Name":"Vegachi","PostCode":"052837","LatLong":"6.8361,-74.7532"}]},{"Name":"Venecia","Code":"05861","Places":[{"PostCode":"056420","LatLong":"5.9628,-75.7381"},{"PostCode":"056427","LatLong":"5.9628,-75.7381"}]},{"Name":"Vigía del Fuerte","Code":"05873","Places":[{"Name":"Vigia Del Fuerte","PostCode":"056820","LatLong":"6.5789,-76.8863"},{"Name":"Vigia Del Fuerte","PostCode":"056827","LatLong":"6.5789,-76.8863"},{"Name":"Vigia Del Fuerte","PostCode":"056828","LatLong":"6.5789,-76.8863"}]},{"Name":"Yalí","Code":"05885","Places":[{"Name":"Yali","PostCode":"053010","LatLong":"6.6746,-74.8343"},{"Name":"Yali","PostCode":"053017","LatLong":"6.6746,-74.8343"}]},{"Name":"Yarumal","Code":"05887","Places":[{"PostCode":"052030","LatLong":"7.0303,-75.5906"},{"PostCode":"052037","LatLong":"7.0303,-75.5906"},{"PostCode":"052038","LatLong":"7.0303,-75.5906"}]},{"Name":"Yolombó","Code":"05890","Places":[{"Name":"Yolombo","PostCode":"053020","LatLong":"6.5984,-75.0114"},{"Name":"Yolombo","PostCode":"053027","LatLong":"6.5984,-75.0114"},{"Name":"Yolombo","PostCode":"053028","LatLong":"6.5984,-75.0114"}]},{"Name":"Yondó","Code":"05893","Places":[{"Name":"Yondo","PostCode":"053410","LatLong":"6.2859,-74.6188"},{"Name":"Yondo","PostCode":"053417","LatLong":"6.2859,-74.6188"},{"Name":"Yondo","PostCode":"053418","LatLong":"6.2859,-74.6188"}]},{"Name":"Zaragoza","Code":"05895","Places":[{"PostCode":"052440","LatLong":"7.4897,-74.8692"},{"PostCode":"052447","LatLong":"7.4897,-74.8692"},{"PostCode":"052448","LatLong":"7.4897,-74.8692"}]}]},{"Name":"Arauca","Code":"03","Provinces":[{"Name":"Arauca","Code":"81001","Places":[{"PostCode":"810001","LatLong":"7.0847,-70.7591"},{"PostCode":"810007","LatLong":"7.0847,-70.7591"},{"PostCode":"810008","LatLong":"7.0847,-70.7591"},{"PostCode":"810009","LatLong":"7.0847,-70.7591"}]},{"Name":"Arauquita","Code":"81065","Places":[{"PostCode":"816010","LatLong":"7.0292,-71.4281"},{"PostCode":"816017","LatLong":"7.0292,-71.4281"},{"PostCode":"816018","LatLong":"7.0292,-71.4281"},{"PostCode":"816019","LatLong":"7.0292,-71.4281"}]},{"Name":"Cravo Norte","Code":"81220","Places":[{"PostCode":"812010","LatLong":"6.3017,-70.2042"},{"PostCode":"812017","LatLong":"6.3017,-70.2042"},{"PostCode":"812018","LatLong":"6.3017,-70.2042"},{"PostCode":"812019","LatLong":"6.3017,-70.2042"}]},{"Name":"Fortul","Code":"81300","Places":[{"PostCode":"814050","LatLong":"6.6965,-71.8569"},{"PostCode":"814057","LatLong":"6.6965,-71.8569"},{"PostCode":"814058","LatLong":"6.6965,-71.8569"}]},{"Name":"Puerto Rondón","Code":"81591","Places":[{"Name":"Puerto Rondon","PostCode":"813010","LatLong":"6.2805,-71.1"},{"Name":"Puerto Rondon","PostCode":"813017","LatLong":"6.2805,-71.1"},{"Name":"Puerto Rondon","PostCode":"813018","LatLong":"6.2805,-71.1"}]},{"Name":"Saravena","Code":"81736","Places":[{"PostCode":"815010","LatLong":"6.9632,-71.8823"},{"PostCode":"815017","LatLong":"6.9632,-71.8823"},{"PostCode":"815018","LatLong":"6.9632,-71.8823"}]},{"Name":"Tame","Code":"81794","Places":[{"PostCode":"814010","LatLong":"6.4606,-71.7362"},{"PostCode":"814017","LatLong":"6.4606,-71.7362"},{"PostCode":"814018","LatLong":"6.4606,-71.7362"}]}]},{"Name":"Atlantico","Code":"04","Provinces":[{"Name":"Barranquilla","Code":"08001","Places":[{"PostCode":"080001","LatLong":"10.9685,-74.7813"},{"PostCode":"080002","LatLong":"10.9685,-74.7813"},{"PostCode":"080003","LatLong":"10.9685,-74.7813"},{"PostCode":"080004","LatLong":"10.9685,-74.7813"},{"PostCode":"080005","LatLong":"10.9685,-74.7813"},{"PostCode":"080006","LatLong":"10.9685,-74.7813"},{"PostCode":"080007","LatLong":"10.9685,-74.7813"},{"PostCode":"080010","LatLong":"10.9685,-74.7813"},{"PostCode":"080011","LatLong":"10.9685,-74.7813"},{"PostCode":"080012","LatLong":"10.9685,-74.7813"},{"PostCode":"080013","LatLong":"10.9685,-74.7813"},{"PostCode":"080014","LatLong":"10.9685,-74.7813"},{"PostCode":"080015","LatLong":"10.9685,-74.7813"},{"PostCode":"080016","LatLong":"10.9685,-74.7813"},{"PostCode":"080020","LatLong":"10.9685,-74.7813"}]},{"Name":"Baranoa","Code":"08078","Places":[{"PostCode":"082020","LatLong":"10.7941,-74.9164"},{"PostCode":"082027","LatLong":"10.7941,-74.9164"},{"PostCode":"082028","LatLong":"10.7941,-74.9164"}]},{"Name":"Campo de La Cruz","Code":"08137","Places":[{"Name":"Campo De La Cruz","PostCode":"084040","LatLong":"10.3781,-74.8836"},{"Name":"Campo De La Cruz","PostCode":"084047","LatLong":"10.3781,-74.8836"}]},{"Name":"Candelaria","Code":"08141","Places":[{"PostCode":"084020","LatLong":"10.4591,-74.8797"},{"PostCode":"084027","LatLong":"10.4591,-74.8797"}]},{"Name":"Galapa","Code":"08296","Places":[{"PostCode":"082001","LatLong":"10.8969,-74.886"},{"PostCode":"082007","LatLong":"10.8969,-74.886"}]},{"Name":"Juan de Acosta","Code":"08372","Places":[{"Name":"Juan De Acosta","PostCode":"081040","LatLong":"10.8281,-75.0334"},{"Name":"Juan De Acosta","PostCode":"081047","LatLong":"10.8281,-75.0334"},{"Name":"Juan De Acosta","PostCode":"081048","LatLong":"10.8281,-75.0334"}]},{"Name":"Luruaco","Code":"08421","Places":[{"PostCode":"085060","LatLong":"10.6171,-75.1515"},{"PostCode":"085067","LatLong":"10.6171,-75.1515"},{"PostCode":"085068","LatLong":"10.6171,-75.1515"}]},{"Name":"Malambo","Code":"08433","Places":[{"PostCode":"083020","LatLong":"10.8595,-74.7739"},{"PostCode":"083021","LatLong":"10.8595,-74.7739"},{"PostCode":"083027","LatLong":"10.8595,-74.7739"},{"PostCode":"083028","LatLong":"10.8595,-74.7739"}]},{"Name":"Manatí","Code":"08436","Places":[{"Name":"Manati","PostCode":"085020","LatLong":"10.4459,-74.9587"},{"Name":"Manati","PostCode":"085027","LatLong":"10.4459,-74.9587"}]},{"Name":"Palmar de Varela","Code":"08520","Places":[{"Name":"Palmar De Varela","PostCode":"083080","LatLong":"10.7405,-74.7544"},{"Name":"Palmar De Varela","PostCode":"083087","LatLong":"10.7405,-74.7544"}]},{"Name":"Piojó","Code":"08549","Places":[{"Name":"Piojo","PostCode":"081060","LatLong":"10.7485,-75.1078"},{"Name":"Piojo","PostCode":"081067","LatLong":"10.7485,-75.1078"}]},{"Name":"Polonuevo","Code":"08558","Places":[{"PostCode":"082040","LatLong":"10.777,-74.8534"},{"PostCode":"082047","LatLong":"10.777,-74.8534"}]},{"Name":"Ponedera","Code":"08560","Places":[{"PostCode":"084001","LatLong":"10.641,-74.7503"},{"PostCode":"084007","LatLong":"10.641,-74.7503"},{"PostCode":"084008","LatLong":"10.641,-74.7503"}]},{"Name":"Puerto Colombia","Code":"08573","Places":[{"PostCode":"081001","LatLong":"10.9878,-74.9547"},{"PostCode":"081007","LatLong":"10.9878,-74.9547"},{"PostCode":"081008","LatLong":"10.9878,-74.9547"}]},{"Name":"Repelón","Code":"08606","Places":[{"Name":"Repelon","PostCode":"085040","LatLong":"10.4919,-75.1292"},{"Name":"Repelon","PostCode":"085047","LatLong":"10.4919,-75.1292"},{"Name":"Repelon","PostCode":"085048","LatLong":"10.4919,-75.1292"}]},{"Name":"Sabanagrande","Code":"08634","Places":[{"PostCode":"083040","LatLong":"10.7912,-74.7606"},{"PostCode":"083047","LatLong":"10.7912,-74.7606"}]},{"Name":"Sabanalarga","Code":"08638","Places":[{"PostCode":"085001","LatLong":"10.6296,-74.9206"},{"PostCode":"085007","LatLong":"10.6296,-74.9206"},{"PostCode":"085008","LatLong":"10.6296,-74.9206"},{"PostCode":"085009","LatLong":"10.6296,-74.9206"}]},{"Name":"Santa Lucía","Code":"08675","Places":[{"Name":"Santa Lucia","PostCode":"084080","LatLong":"10.3242,-74.9602"},{"Name":"Santa Lucia","PostCode":"084087","LatLong":"10.3242,-74.9602"}]},{"Name":"Santo Tomás","Code":"08685","Places":[{"Name":"Santo Tomas","PostCode":"083060","LatLong":"10.7577,-74.7545"},{"Name":"Santo Tomas","PostCode":"083067","LatLong":"10.7577,-74.7545"}]},{"Name":"Soledad","Code":"08758","Places":[{"PostCode":"083001","LatLong":"10.9184,-74.7646"},{"PostCode":"083002","LatLong":"10.9184,-74.7646"},{"PostCode":"083003","LatLong":"10.9184,-74.7646"},{"PostCode":"083004","LatLong":"10.9184,-74.7646"},{"PostCode":"083005","LatLong":"10.9184,-74.7646"},{"PostCode":"083006","LatLong":"10.9184,-74.7646"},{"PostCode":"083007","LatLong":"10.9184,-74.7646"},{"PostCode":"083010","LatLong":"10.9184,-74.7646"}]},{"Name":"Suan","Code":"08770","Places":[{"PostCode":"084060","LatLong":"10.3335,-74.8802"},{"PostCode":"084067","LatLong":"10.3335,-74.8802"}]},{"Name":"Tubará","Code":"08832","Places":[{"Name":"Tubara","PostCode":"081020","LatLong":"10.8756,-74.9787"},{"Name":"Tubara","PostCode":"081027","LatLong":"10.8756,-74.9787"},{"Name":"Tubara","PostCode":"081028","LatLong":"10.8756,-74.9787"}]},{"Name":"Usiacurí","Code":"08849","Places":[{"Name":"Usiacuri","PostCode":"082060","LatLong":"10.75,-74.9833"},{"Name":"Usiacuri","PostCode":"082067","LatLong":"10.75,-74.9833"}]}]},{"Name":"Caqueta","Code":"08","Provinces":[{"Name":"Florencia","Code":"18001","Places":[{"PostCode":"180001","LatLong":"1.6144,-75.6062"},{"PostCode":"180002","LatLong":"1.6144,-75.6062"},{"PostCode":"180007","LatLong":"1.6144,-75.6062"},{"PostCode":"180008","LatLong":"1.6144,-75.6062"},{"PostCode":"180009","LatLong":"1.6144,-75.6062"},{"PostCode":"180017","LatLong":"1.6144,-75.6062"}]},{"Name":"Albania","Code":"18029","Places":[{"PostCode":"186030","LatLong":"1.3287,-75.8782"},{"PostCode":"186037","LatLong":"1.3287,-75.8782"},{"PostCode":"186038","LatLong":"1.3287,-75.8782"}]},{"Name":"Belén de Los Andaquies","Code":"18094","Places":[{"Name":"Belen De Los Andaquies","PostCode":"186010","LatLong":"1.4183,-75.8775"},{"Name":"Belen De Los Andaquies","PostCode":"186017","LatLong":"1.4183,-75.8775"},{"Name":"Belen De Los Andaquies","PostCode":"186018","LatLong":"1.4183,-75.8775"}]},{"Name":"Cartagena del Chairá","Code":"18150","Places":[{"Name":"Cartagena Del Chaira","PostCode":"183010","LatLong":"1.3349,-74.8429"},{"Name":"Cartagena Del Chaira","PostCode":"183017","LatLong":"1.3349,-74.8429"},{"Name":"Cartagena Del Chaira","PostCode":"183018","LatLong":"1.3349,-74.8429"},{"Name":"Cartagena Del Chaira","PostCode":"183019","LatLong":"1.3349,-74.8429"},{"Name":"Cartagena Del Chaira","PostCode":"183027","LatLong":"1.3349,-74.8429"}]},{"Name":"Curillo","Code":"18205","Places":[{"PostCode":"186050","LatLong":"1.0333,-75.9191"},{"PostCode":"186057","LatLong":"1.0333,-75.9191"},{"PostCode":"186058","LatLong":"1.0333,-75.9191"},{"PostCode":"186059","LatLong":"1.0333,-75.9191"}]},{"Name":"El Doncello","Code":"18247","Places":[{"PostCode":"181010","LatLong":"1.6782,-75.2847"},{"PostCode":"181017","LatLong":"1.6782,-75.2847"},{"PostCode":"181018","LatLong":"1.6782,-75.2847"},{"PostCode":"181019","LatLong":"1.6782,-75.2847"}]},{"Name":"El Paujil","Code":"18256","Places":[{"PostCode":"181030","LatLong":"1.5701,-75.3286"},{"PostCode":"181037","LatLong":"1.5701,-75.3286"},{"PostCode":"181038","LatLong":"1.5701,-75.3286"},{"PostCode":"181039","LatLong":"1.5701,-75.3286"}]},{"Name":"La Montañita","Code":"18410","Places":[{"PostCode":"181050","LatLong":"1.4766,-75.4398"},{"PostCode":"181057","LatLong":"1.4766,-75.4398"},{"PostCode":"181058","LatLong":"1.4766,-75.4398"},{"PostCode":"181059","LatLong":"1.4766,-75.4398"},{"PostCode":"181067","LatLong":"1.4766,-75.4398"}]},{"Name":"Milán","Code":"18460","Places":[{"Name":"Milan","PostCode":"185030","LatLong":"1.292,-75.5117"},{"Name":"Milan","PostCode":"185037","LatLong":"1.292,-75.5117"},{"Name":"Milan","PostCode":"185038","LatLong":"1.292,-75.5117"}]},{"Name":"Morelia","Code":"18479","Places":[{"PostCode":"185010","LatLong":"1.4875,-75.7258"},{"PostCode":"185017","LatLong":"1.4875,-75.7258"},{"PostCode":"185018","LatLong":"1.4875,-75.7258"}]},{"Name":"Puerto Rico","Code":"18592","Places":[{"PostCode":"182050","LatLong":"1.9142,-75.145"},{"PostCode":"182057","LatLong":"1.9142,-75.145"},{"PostCode":"182058","LatLong":"1.9142,-75.145"},{"PostCode":"182059","LatLong":"1.9142,-75.145"}]},{"Name":"San José del Fragua","Code":"18610","Places":[{"Name":"San Jose Del Fragua","PostCode":"186070","LatLong":"1.332,-75.973"},{"Name":"San Jose Del Fragua","PostCode":"186077","LatLong":"1.332,-75.973"},{"Name":"San Jose Del Fragua","PostCode":"186078","LatLong":"1.332,-75.973"}]},{"Name":"San Vicente del Caguán","Code":"18753","Places":[{"Name":"San Vicente Del Caguan","PostCode":"182010","LatLong":"2.1217,-74.7661"},{"Name":"San Vicente Del Caguan","PostCode":"182017","LatLong":"2.1217,-74.7661"},{"Name":"San Vicente Del Caguan","PostCode":"182018","LatLong":"2.1217,-74.7661"},{"Name":"San Vicente Del Caguan","PostCode":"182019","LatLong":"2.1217,-74.7661"}]},{"Name":"Solano","Code":"18756","Places":[{"PostCode":"184010","LatLong":"0.6994,-75.2535"},{"PostCode":"184017","LatLong":"0.6994,-75.2535"},{"PostCode":"184018","LatLong":"0.6994,-75.2535"},{"PostCode":"184019","LatLong":"0.6994,-75.2535"}]},{"Name":"Solita","Code":"18785","Places":[{"PostCode":"185070","LatLong":"0.874,-75.6188"},{"PostCode":"185077","LatLong":"0.874,-75.6188"},{"PostCode":"185078","LatLong":"0.874,-75.6188"}]},{"Name":"Valparaíso","Code":"18860","Places":[{"Name":"Valparaiso","PostCode":"185050","LatLong":"1.1951,-75.7071"},{"Name":"Valparaiso","PostCode":"185057","LatLong":"1.1951,-75.7071"},{"Name":"Valparaiso","PostCode":"185058","LatLong":"1.1951,-75.7071"}]}]},{"Name":"Cauca","Code":"09","Provinces":[{"Name":"Popayán","Code":"19001","Places":[{"Name":"Popayan","PostCode":"190001","LatLong":"2.4382,-76.6132"},{"Name":"Popayan","PostCode":"190002","LatLong":"2.4382,-76.6132"},{"Name":"Popayan","PostCode":"190003","LatLong":"2.4382,-76.6132"},{"Name":"Popayan","PostCode":"190004","LatLong":"2.4382,-76.6132"},{"Name":"Popayan","PostCode":"190007","LatLong":"2.4382,-76.6132"},{"Name":"Popayan","PostCode":"190008","LatLong":"2.4382,-76.6132"},{"Name":"Popayan","PostCode":"190009","LatLong":"2.4382,-76.6132"},{"Name":"Popayan","PostCode":"190017","LatLong":"2.4382,-76.6132"},{"Name":"Popayan","PostCode":"190018","LatLong":"2.4382,-76.6132"}]},{"Name":"Almaguer","Code":"19022","Places":[{"PostCode":"194080","LatLong":"1.917,-76.8523"},{"PostCode":"194087","LatLong":"1.917,-76.8523"},{"PostCode":"194088","LatLong":"1.917,-76.8523"},{"PostCode":"194089","LatLong":"1.917,-76.8523"}]},{"Name":"Argelia","Code":"19050","Places":[{"PostCode":"195560","LatLong":"2.2556,-77.2488"},{"PostCode":"195567","LatLong":"2.2556,-77.2488"}]},{"Name":"Balboa","Code":"19075","Places":[{"PostCode":"195530","LatLong":"2.0396,-77.2168"},{"PostCode":"195537","LatLong":"2.0396,-77.2168"},{"PostCode":"195538","LatLong":"2.0396,-77.2168"},{"PostCode":"195539","LatLong":"2.0396,-77.2168"},{"PostCode":"195547","LatLong":"2.0396,-77.2168"}]},{"Name":"Bolívar","Code":"19100","Places":[{"Name":"Bolivar","PostCode":"195001","LatLong":"1.8399,-76.9689"},{"Name":"Bolivar","PostCode":"195007","LatLong":"1.8399,-76.9689"},{"Name":"Bolivar","PostCode":"195008","LatLong":"1.8399,-76.9689"},{"Name":"Bolivar","PostCode":"195009","LatLong":"1.8399,-76.9689"},{"Name":"Bolivar","PostCode":"195017","LatLong":"1.8399,-76.9689"},{"Name":"Bolivar","PostCode":"195018","LatLong":"1.8399,-76.9689"},{"Name":"Bolivar","PostCode":"195019","LatLong":"1.8399,-76.9689"}]},{"Name":"Buenos Aires","Code":"19110","Places":[{"PostCode":"191001","LatLong":"3.014,-76.6461"},{"PostCode":"191007","LatLong":"3.014,-76.6461"},{"PostCode":"191008","LatLong":"3.014,-76.6461"},{"PostCode":"191009","LatLong":"3.014,-76.6461"},{"PostCode":"191017","LatLong":"3.014,-76.6461"}]},{"Name":"Cajibío","Code":"19130","Places":[{"Name":"Cajibio","PostCode":"190501","LatLong":"2.6227,-76.5704"},{"Name":"Cajibio","PostCode":"190507","LatLong":"2.6227,-76.5704"},{"Name":"Cajibio","PostCode":"190508","LatLong":"2.6227,-76.5704"},{"Name":"Cajibio","PostCode":"190509","LatLong":"2.6227,-76.5704"},{"Name":"Cajibio","PostCode":"190517","LatLong":"2.6227,-76.5704"},{"Name":"Cajibio","PostCode":"190518","LatLong":"2.6227,-76.5704"}]},{"Name":"Caldono","Code":"19137","Places":[{"PostCode":"192040","LatLong":"2.7974,-76.4832"},{"PostCode":"192047","LatLong":"2.7974,-76.4832"},{"PostCode":"192048","LatLong":"2.7974,-76.4832"},{"PostCode":"192049","LatLong":"2.7974,-76.4832"},{"PostCode":"192057","LatLong":"2.7974,-76.4832"}]},{"Name":"Caloto","Code":"19142","Places":[{"PostCode":"191070","LatLong":"3.0359,-76.4079"},{"PostCode":"191077","LatLong":"3.0359,-76.4079"},{"PostCode":"191078","LatLong":"3.0359,-76.4079"},{"PostCode":"191079","LatLong":"3.0359,-76.4079"},{"PostCode":"191088","LatLong":"3.0359,-76.4079"}]},{"Name":"Corinto","Code":"19212","Places":[{"PostCode":"191560","LatLong":"3.173,-76.2627"},{"PostCode":"191567","LatLong":"3.173,-76.2627"},{"PostCode":"191568","LatLong":"3.173,-76.2627"},{"PostCode":"191569","LatLong":"3.173,-76.2627"}]},{"Name":"El Tambo","Code":"19256","Places":[{"PostCode":"193570","LatLong":"2.452,-76.8103"},{"PostCode":"193577","LatLong":"2.452,-76.8103"},{"PostCode":"193578","LatLong":"2.452,-76.8103"},{"PostCode":"193579","LatLong":"2.452,-76.8103"},{"PostCode":"193587","LatLong":"2.452,-76.8103"},{"PostCode":"193588","LatLong":"2.452,-76.8103"},{"PostCode":"193589","LatLong":"2.452,-76.8103"},{"PostCode":"193597","LatLong":"2.452,-76.8103"}]},{"Name":"Florencia","Code":"19290","Places":[{"PostCode":"195040","LatLong":"1.6832,-77.0733"},{"PostCode":"195047","LatLong":"1.6832,-77.0733"}]},{"Name":"Guachene","Code":"19300","Places":[{"PostCode":"191087","LatLong":"3.1333,-76.3927"}]},{"Name":"Guapi","Code":"19318","Places":[{"PostCode":"196001","LatLong":"2.5708,-77.8854"},{"PostCode":"196007","LatLong":"2.5708,-77.8854"},{"PostCode":"196008","LatLong":"2.5708,-77.8854"},{"PostCode":"196009","LatLong":"2.5708,-77.8854"}]},{"Name":"Inzá","Code":"19355","Places":[{"Name":"Inza","PostCode":"192531","LatLong":"2.5545,-76.0672"},{"Name":"Inza","PostCode":"192537","LatLong":"2.5545,-76.0672"},{"Name":"Inza","PostCode":"192538","LatLong":"2.5545,-76.0672"},{"Name":"Inza","PostCode":"192539","LatLong":"2.5545,-76.0672"},{"Name":"Inza","PostCode":"192547","LatLong":"2.5545,-76.0672"},{"Name":"Inza","PostCode":"192548","LatLong":"2.5545,-76.0672"}]},{"Name":"Jambaló","Code":"19364","Places":[{"Name":"Jambalo","PostCode":"192020","LatLong":"2.7798,-76.3282"},{"Name":"Jambalo","PostCode":"192027","LatLong":"2.7798,-76.3282"},{"Name":"Jambalo","PostCode":"192028","LatLong":"2.7798,-76.3282"},{"Name":"Jambalo","PostCode":"192029","LatLong":"2.7798,-76.3282"}]},{"Name":"La Sierra","Code":"19392","Places":[{"PostCode":"194001","LatLong":"2.1783,-76.7626"},{"PostCode":"194007","LatLong":"2.1783,-76.7626"},{"PostCode":"194008","LatLong":"2.1783,-76.7626"}]},{"Name":"La Vega","Code":"19397","Places":[{"PostCode":"194020","LatLong":"2.0063,-76.7803"},{"PostCode":"194027","LatLong":"2.0063,-76.7803"},{"PostCode":"194028","LatLong":"2.0063,-76.7803"},{"PostCode":"194029","LatLong":"2.0063,-76.7803"},{"PostCode":"194037","LatLong":"2.0063,-76.7803"},{"PostCode":"194038","LatLong":"2.0063,-76.7803"}]},{"Name":"López","Code":"19418","Places":[{"Name":"Lopez","PostCode":"196060","LatLong":"2.8454,-77.2479"},{"Name":"Lopez","PostCode":"196067","LatLong":"2.8454,-77.2479"},{"Name":"Lopez","PostCode":"196068","LatLong":"2.8454,-77.2479"}]},{"Name":"Mercaderes","Code":"19450","Places":[{"PostCode":"195060","LatLong":"1.8017,-77.1703"},{"PostCode":"195067","LatLong":"1.8017,-77.1703"},{"PostCode":"195068","LatLong":"1.8017,-77.1703"},{"PostCode":"195069","LatLong":"1.8017,-77.1703"}]},{"Name":"Miranda","Code":"19455","Places":[{"PostCode":"191520","LatLong":"3.2499,-76.2281"},{"PostCode":"191527","LatLong":"3.2499,-76.2281"},{"PostCode":"191528","LatLong":"3.2499,-76.2281"},{"PostCode":"191529","LatLong":"3.2499,-76.2281"}]},{"Name":"Morales","Code":"19473","Places":[{"PostCode":"190550","LatLong":"2.757,-76.6172"},{"PostCode":"190557","LatLong":"2.757,-76.6172"},{"PostCode":"190558","LatLong":"2.757,-76.6172"},{"PostCode":"190559","LatLong":"2.757,-76.6172"},{"PostCode":"190567","LatLong":"2.757,-76.6172"}]},{"Name":"Padilla","Code":"19513","Places":[{"PostCode":"191540","LatLong":"3.2204,-76.3139"},{"PostCode":"191547","LatLong":"3.2204,-76.3139"}]},{"Name":"Paez","Code":"19517","Places":[{"PostCode":"192501","LatLong":"2.6547,-75.9928"},{"PostCode":"192507","LatLong":"2.6547,-75.9928"},{"PostCode":"192508","LatLong":"2.6547,-75.9928"},{"PostCode":"192509","LatLong":"2.6547,-75.9928"},{"PostCode":"192517","LatLong":"2.6547,-75.9928"},{"PostCode":"192518","LatLong":"2.6547,-75.9928"}]},{"Name":"Patía","Code":"19532","Places":[{"Name":"Patia","PostCode":"195501","LatLong":"2.0689,-77.0527"},{"Name":"Patia","PostCode":"195507","LatLong":"2.0689,-77.0527"},{"Name":"Patia","PostCode":"195508","LatLong":"2.0689,-77.0527"},{"Name":"Patia","PostCode":"195509","LatLong":"2.0689,-77.0527"}]},{"Name":"Piamonte","Code":"19533","Places":[{"PostCode":"194550","LatLong":"1.12,-76.3213"},{"PostCode":"194557","LatLong":"1.12,-76.3213"},{"PostCode":"194558","LatLong":"1.12,-76.3213"}]},{"Name":"Piendamó","Code":"19548","Places":[{"Name":"Piendamo","PostCode":"190530","LatLong":"2.6392,-76.5306"},{"Name":"Piendamo","PostCode":"190537","LatLong":"2.6392,-76.5306"},{"Name":"Piendamo","PostCode":"190538","LatLong":"2.6392,-76.5306"},{"Name":"Piendamo","PostCode":"190539","LatLong":"2.6392,-76.5306"},{"Name":"Piendamo","PostCode":"190547","LatLong":"2.6392,-76.5306"},{"Name":"Piendamo","PostCode":"190548","LatLong":"2.6392,-76.5306"}]},{"Name":"Puerto Tejada","Code":"19573","Places":[{"PostCode":"191501","LatLong":"3.2311,-76.4167"},{"PostCode":"191507","LatLong":"3.2311,-76.4167"}]},{"Name":"Puracé","Code":"19585","Places":[{"Name":"Purace","PostCode":"193001","LatLong":"2.3425,-76.4958"},{"Name":"Purace","PostCode":"193007","LatLong":"2.3425,-76.4958"},{"Name":"Purace","PostCode":"193008","LatLong":"2.3425,-76.4958"},{"Name":"Purace","PostCode":"193009","LatLong":"2.3425,-76.4958"}]},{"Name":"Rosas","Code":"19622","Places":[{"PostCode":"193550","LatLong":"2.2609,-76.7399"},{"PostCode":"193557","LatLong":"2.2609,-76.7399"},{"PostCode":"193558","LatLong":"2.2609,-76.7399"}]},{"Name":"San Sebastián","Code":"19693","Places":[{"Name":"San Sebastian","PostCode":"194501","LatLong":"1.8386,-76.7719"},{"Name":"San Sebastian","PostCode":"194507","LatLong":"1.8386,-76.7719"},{"Name":"San Sebastian","PostCode":"194508","LatLong":"1.8386,-76.7719"},{"Name":"San Sebastian","PostCode":"194509","LatLong":"1.8386,-76.7719"}]},{"Name":"Santander de Quilichao","Code":"19698","Places":[{"Name":"Santander De Quilichao","PostCode":"191030","LatLong":"3.0095,-76.4849"},{"Name":"Santander De Quilichao","PostCode":"191037","LatLong":"3.0095,-76.4849"},{"Name":"Santander De Quilichao","PostCode":"191038","LatLong":"3.0095,-76.4849"},{"Name":"Santander De Quilichao","PostCode":"191039","LatLong":"3.0095,-76.4849"},{"Name":"Santander De Quilichao","PostCode":"191047","LatLong":"3.0095,-76.4849"},{"Name":"Santander De Quilichao","PostCode":"191048","LatLong":"3.0095,-76.4849"},{"Name":"Santander De Quilichao","PostCode":"191049","LatLong":"3.0095,-76.4849"}]},{"Name":"Santa Rosa","Code":"19701","Places":[{"PostCode":"194520","LatLong":"1.7027,-76.5739"},{"PostCode":"194527","LatLong":"1.7027,-76.5739"},{"PostCode":"194528","LatLong":"1.7027,-76.5739"}]},{"Name":"Silvia","Code":"19743","Places":[{"PostCode":"192070","LatLong":"2.6156,-76.3826"},{"PostCode":"192077","LatLong":"2.6156,-76.3826"},{"PostCode":"192078","LatLong":"2.6156,-76.3826"},{"PostCode":"192079","LatLong":"2.6156,-76.3826"},{"PostCode":"192087","LatLong":"2.6156,-76.3826"}]},{"Name":"Sotara","Code":"19760","Places":[{"PostCode":"193501","LatLong":"2.2546,-76.6109"},{"PostCode":"193507","LatLong":"2.2546,-76.6109"},{"PostCode":"193508","LatLong":"2.2546,-76.6109"}]},{"Name":"Suárez","Code":"19780","Places":[{"Name":"Suarez","PostCode":"190580","LatLong":"2.954,-76.6964"},{"Name":"Suarez","PostCode":"190587","LatLong":"2.954,-76.6964"},{"Name":"Suarez","PostCode":"190588","LatLong":"2.954,-76.6964"},{"Name":"Suarez","PostCode":"190589","LatLong":"2.954,-76.6964"},{"Name":"Suarez","PostCode":"190597","LatLong":"2.954,-76.6964"}]},{"Name":"Sucre","Code":"19785","Places":[{"PostCode":"194060","LatLong":"2.038,-76.9245"},{"PostCode":"194067","LatLong":"2.038,-76.9245"},{"PostCode":"194068","LatLong":"2.038,-76.9245"}]},{"Name":"Timbío","Code":"19807","Places":[{"Name":"Timbio","PostCode":"193520","LatLong":"2.3502,-76.6834"},{"Name":"Timbio","PostCode":"193527","LatLong":"2.3502,-76.6834"},{"Name":"Timbio","PostCode":"193528","LatLong":"2.3502,-76.6834"},{"Name":"Timbio","PostCode":"193529","LatLong":"2.3502,-76.6834"},{"Name":"Timbio","PostCode":"193537","LatLong":"2.3502,-76.6834"}]},{"Name":"Timbiquí","Code":"19809","Places":[{"Name":"Timbiqui","PostCode":"196030","LatLong":"2.7717,-77.6654"},{"Name":"Timbiqui","PostCode":"196037","LatLong":"2.7717,-77.6654"},{"Name":"Timbiqui","PostCode":"196038","LatLong":"2.7717,-77.6654"}]},{"Name":"Toribio","Code":"19821","Places":[{"PostCode":"192001","LatLong":"2.9548,-76.2684"},{"PostCode":"192007","LatLong":"2.9548,-76.2684"},{"PostCode":"192008","LatLong":"2.9548,-76.2684"},{"PostCode":"192009","LatLong":"2.9548,-76.2684"}]},{"Name":"Totoró","Code":"19824","Places":[{"Name":"Totoro","PostCode":"192570","LatLong":"2.5159,-76.4044"},{"Name":"Totoro","PostCode":"192577","LatLong":"2.5159,-76.4044"},{"Name":"Totoro","PostCode":"192578","LatLong":"2.5159,-76.4044"},{"Name":"Totoro","PostCode":"192579","LatLong":"2.5159,-76.4044"}]},{"Name":"Villa Rica","Code":"19845","Places":[{"PostCode":"191060","LatLong":"3.1748,-76.462"},{"PostCode":"191067","LatLong":"3.1748,-76.462"}]}]},{"Name":"Cesar","Code":"10","Provinces":[{"Name":"Valledupar","Code":"20001","Places":[{"PostCode":"200001","LatLong":"10.4631,-73.2532"},{"PostCode":"200002","LatLong":"10.4631,-73.2532"},{"PostCode":"200003","LatLong":"10.4631,-73.2532"},{"PostCode":"200004","LatLong":"10.4631,-73.2532"},{"PostCode":"200005","LatLong":"10.4631,-73.2532"},{"PostCode":"200007","LatLong":"10.4631,-73.2532"},{"PostCode":"200008","LatLong":"10.4631,-73.2532"},{"PostCode":"200009","LatLong":"10.4631,-73.2532"},{"PostCode":"200017","LatLong":"10.4631,-73.2532"},{"PostCode":"200018","LatLong":"10.4631,-73.2532"}]},{"Name":"Aguachica","Code":"20011","Places":[{"PostCode":"205010","LatLong":"8.3084,-73.6166"},{"PostCode":"205017","LatLong":"8.3084,-73.6166"},{"PostCode":"205018","LatLong":"8.3084,-73.6166"}]},{"Name":"Agustín Codazzi","Code":"20013","Places":[{"Name":"Agustin Codazzi","PostCode":"202050","LatLong":"10.0367,-73.2356"},{"Name":"Agustin Codazzi","PostCode":"202057","LatLong":"10.0367,-73.2356"},{"Name":"Agustin Codazzi","PostCode":"202058","LatLong":"10.0367,-73.2356"}]},{"Name":"Astrea","Code":"20032","Places":[{"PostCode":"201040","LatLong":"9.4983,-73.9759"},{"PostCode":"201047","LatLong":"9.4983,-73.9759"},{"PostCode":"201048","LatLong":"9.4983,-73.9759"}]},{"Name":"Becerril","Code":"20045","Places":[{"PostCode":"203001","LatLong":"9.7041,-73.2793"},{"PostCode":"203007","LatLong":"9.7041,-73.2793"}]},{"Name":"Bosconia","Code":"20060","Places":[{"PostCode":"201020","LatLong":"9.9689,-73.8836"},{"PostCode":"201027","LatLong":"9.9689,-73.8836"}]},{"Name":"Chimichagua","Code":"20175","Places":[{"PostCode":"201050","LatLong":"9.2578,-73.8123"},{"PostCode":"201057","LatLong":"9.2578,-73.8123"},{"PostCode":"201058","LatLong":"9.2578,-73.8123"}]},{"Name":"Chiriguaná","Code":"20178","Places":[{"Name":"Chiriguana","PostCode":"203040","LatLong":"9.3624,-73.6031"},{"Name":"Chiriguana","PostCode":"203047","LatLong":"9.3624,-73.6031"},{"Name":"Chiriguana","PostCode":"203048","LatLong":"9.3624,-73.6031"}]},{"Name":"Curumaní","Code":"20228","Places":[{"Name":"Curumani","PostCode":"203060","LatLong":"9.1999,-73.5427"},{"Name":"Curumani","PostCode":"203067","LatLong":"9.1999,-73.5427"}]},{"Name":"El Copey","Code":"20238","Places":[{"PostCode":"201010","LatLong":"10.1503,-73.9614"},{"PostCode":"201017","LatLong":"10.1503,-73.9614"},{"PostCode":"201018","LatLong":"10.1503,-73.9614"}]},{"Name":"El Paso","Code":"20250","Places":[{"PostCode":"201030","LatLong":"9.6572,-73.7468"},{"PostCode":"201037","LatLong":"9.6572,-73.7468"},{"PostCode":"201038","LatLong":"9.6572,-73.7468"}]},{"Name":"Gamarra","Code":"20295","Places":[{"PostCode":"205001","LatLong":"8.3228,-73.7427"},{"PostCode":"205007","LatLong":"8.3228,-73.7427"},{"PostCode":"205008","LatLong":"8.3228,-73.7427"}]},{"Name":"González","Code":"20310","Places":[{"Name":"Gonzalez","PostCode":"205030","LatLong":"8.3894,-73.3799"},{"Name":"Gonzalez","PostCode":"205037","LatLong":"8.3894,-73.3799"}]},{"Name":"La Gloria","Code":"20383","Places":[{"PostCode":"204060","LatLong":"8.6187,-73.8027"},{"PostCode":"204067","LatLong":"8.6187,-73.8027"},{"PostCode":"204068","LatLong":"8.6187,-73.8027"}]},{"Name":"La Jagua de Ibirico","Code":"20400","Places":[{"Name":"La Jagua De Ibirico","PostCode":"203020","LatLong":"9.5623,-73.3341"},{"Name":"La Jagua De Ibirico","PostCode":"203027","LatLong":"9.5623,-73.3341"}]},{"Name":"Manaure","Code":"20443","Places":[{"PostCode":"202001","LatLong":"10.3909,-72.992"},{"PostCode":"202007","LatLong":"10.3909,-72.992"}]},{"Name":"Pailitas","Code":"20517","Places":[{"PostCode":"204001","LatLong":"8.9565,-73.6255"},{"PostCode":"204007","LatLong":"8.9565,-73.6255"}]},{"Name":"Pelaya","Code":"20550","Places":[{"PostCode":"204040","LatLong":"8.6882,-73.6645"},{"PostCode":"204047","LatLong":"8.6882,-73.6645"}]},{"Name":"Pueblo Bello","Code":"20570","Places":[{"PostCode":"201001","LatLong":"10.4171,-73.5804"},{"PostCode":"201007","LatLong":"10.4171,-73.5804"},{"PostCode":"201008","LatLong":"10.4171,-73.5804"}]},{"Name":"Río de Oro","Code":"20614","Places":[{"Name":"Rio De Oro","PostCode":"205040","LatLong":"8.2919,-73.3849"},{"Name":"Rio De Oro","PostCode":"205047","LatLong":"8.2919,-73.3849"},{"Name":"Rio De Oro","PostCode":"205048","LatLong":"8.2919,-73.3849"}]},{"Name":"La Paz","Code":"20621","Places":[{"PostCode":"202010","LatLong":"10.3844,-73.1733"},{"PostCode":"202017","LatLong":"10.3844,-73.1733"},{"PostCode":"202018","LatLong":"10.3844,-73.1733"}]},{"Name":"San Alberto","Code":"20710","Places":[{"PostCode":"205070","LatLong":"7.7611,-73.3922"},{"PostCode":"205077","LatLong":"7.7611,-73.3922"},{"PostCode":"205078","LatLong":"7.7611,-73.3922"}]},{"Name":"San Diego","Code":"20750","Places":[{"PostCode":"202030","LatLong":"10.3362,-73.182"},{"PostCode":"202037","LatLong":"10.3362,-73.182"},{"PostCode":"202038","LatLong":"10.3362,-73.182"}]},{"Name":"San Martín","Code":"20770","Places":[{"Name":"San Martin","PostCode":"205050","LatLong":"8.0015,-73.5113"},{"Name":"San Martin","PostCode":"205057","LatLong":"8.0015,-73.5113"},{"Name":"San Martin","PostCode":"205058","LatLong":"8.0015,-73.5113"},{"Name":"San Martin","PostCode":"205059","LatLong":"8.0015,-73.5113"}]},{"Name":"Tamalameque","Code":"20787","Places":[{"PostCode":"204020","LatLong":"8.8522,-73.8123"},{"PostCode":"204027","LatLong":"8.8522,-73.8123"},{"PostCode":"204028","LatLong":"8.8522,-73.8123"}]}]},{"Name":"Choco","Code":"11","Provinces":[{"Name":"Quibdó","Code":"27001","Places":[{"Name":"Quibdo","PostCode":"270001","LatLong":"5.6919,-76.6583"},{"Name":"Quibdo","PostCode":"270002","LatLong":"5.6919,-76.6583"},{"Name":"Quibdo","PostCode":"270007","LatLong":"5.6919,-76.6583"},{"Name":"Quibdo","PostCode":"270008","LatLong":"5.6919,-76.6583"},{"Name":"Quibdo","PostCode":"270009","LatLong":"5.6919,-76.6583"}]},{"Name":"Acandí","Code":"27006","Places":[{"Name":"Acandi","PostCode":"278010","LatLong":"8.5116,-77.2772"},{"Name":"Acandi","PostCode":"278017","LatLong":"8.5116,-77.2772"},{"Name":"Acandi","PostCode":"278018","LatLong":"8.5116,-77.2772"}]},{"Name":"Alto Baudo","Code":"27025","Places":[{"PostCode":"276070","LatLong":"5.516,-76.9745"},{"PostCode":"276077","LatLong":"5.516,-76.9745"},{"PostCode":"276078","LatLong":"5.516,-76.9745"}]},{"Name":"Atrato","Code":"27050","Places":[{"PostCode":"272010","LatLong":"5.5514,-76.6138"},{"PostCode":"272017","LatLong":"5.5514,-76.6138"},{"PostCode":"272018","LatLong":"5.5514,-76.6138"}]},{"Name":"Bagadó","Code":"27073","Places":[{"Name":"Bagado","PostCode":"271050","LatLong":"5.4116,-76.4152"},{"Name":"Bagado","PostCode":"271057","LatLong":"5.4116,-76.4152"},{"Name":"Bagado","PostCode":"271058","LatLong":"5.4116,-76.4152"}]},{"Name":"Bahía Solano","Code":"27075","Places":[{"Name":"Bahia Solano","PostCode":"276030","LatLong":"6.2262,-77.4044"},{"Name":"Bahia Solano","PostCode":"276037","LatLong":"6.2262,-77.4044"},{"Name":"Bahia Solano","PostCode":"276038","LatLong":"6.2262,-77.4044"}]},{"Name":"Bajo Baudó","Code":"27077","Places":[{"Name":"Bajo Baudo","PostCode":"275030","LatLong":"4.9533,-77.366"},{"Name":"Bajo Baudo","PostCode":"275037","LatLong":"4.9533,-77.366"},{"Name":"Bajo Baudo","PostCode":"275038","LatLong":"4.9533,-77.366"}]},{"Name":"Bojaya","Code":"27099","Places":[{"PostCode":"277050","LatLong":"6.5213,-76.9723"},{"PostCode":"277057","LatLong":"6.5213,-76.9723"}]},{"Name":"El Cantón del San Pablo","Code":"27135","Places":[{"Name":"El Canton Del San Pablo","PostCode":"272040","LatLong":"5.3596,-76.7723"},{"Name":"El Canton Del San Pablo","PostCode":"272047","LatLong":"5.3596,-76.7723"},{"Name":"El Canton Del San Pablo","PostCode":"272048","LatLong":"5.3596,-76.7723"}]},{"Name":"Carmen del Darien","Code":"27150","Places":[{"Name":"Carmen Del Darien","PostCode":"277030","LatLong":"7.0746,-77.0607"},{"Name":"Carmen Del Darien","PostCode":"277037","LatLong":"7.0746,-77.0607"},{"Name":"Carmen Del Darien","PostCode":"277038","LatLong":"7.0746,-77.0607"}]},{"Name":"Cértegui","Code":"27160","Places":[{"Name":"Certegui","PostCode":"272020","LatLong":"5.3707,-76.6044"},{"Name":"Certegui","PostCode":"272027","LatLong":"5.3707,-76.6044"}]},{"Name":"Condoto","Code":"27205","Places":[{"PostCode":"273030","LatLong":"5.0935,-76.6497"},{"PostCode":"273037","LatLong":"5.0935,-76.6497"},{"PostCode":"273038","LatLong":"5.0935,-76.6497"}]},{"Name":"El Carmen de Atrato","Code":"27245","Places":[{"Name":"El Carmen De Atrato","PostCode":"271010","LatLong":"5.8108,-76.192"},{"Name":"El Carmen De Atrato","PostCode":"271017","LatLong":"5.8108,-76.192"},{"Name":"El Carmen De Atrato","PostCode":"271018","LatLong":"5.8108,-76.192"}]},{"Name":"El Litoral del San Juan","Code":"27250","Places":[{"Name":"El Litoral Del San Juan","PostCode":"275050","LatLong":"4.251,-76.9682"},{"Name":"El Litoral Del San Juan","PostCode":"275057","LatLong":"4.251,-76.9682"},{"Name":"El Litoral Del San Juan","PostCode":"275058","LatLong":"4.251,-76.9682"}]},{"Name":"Istmina","Code":"27361","Places":[{"PostCode":"274010","LatLong":"5.1605,-76.684"},{"PostCode":"274017","LatLong":"5.1605,-76.684"},{"PostCode":"274018","LatLong":"5.1605,-76.684"},{"PostCode":"274019","LatLong":"5.1605,-76.684"}]},{"Name":"Juradó","Code":"27372","Places":[{"Name":"Jurado","PostCode":"276010","LatLong":"7.1042,-77.762"},{"Name":"Jurado","PostCode":"276017","LatLong":"7.1042,-77.762"},{"Name":"Jurado","PostCode":"276018","LatLong":"7.1042,-77.762"},{"Name":"Jurado","PostCode":"276019","LatLong":"7.1042,-77.762"}]},{"Name":"Lloró","Code":"27413","Places":[{"Name":"Lloro","PostCode":"271030","LatLong":"5.496,-76.5494"},{"Name":"Lloro","PostCode":"271037","LatLong":"5.496,-76.5494"}]},{"Name":"Medio Atrato","Code":"27425","Places":[{"PostCode":"270070","LatLong":"6.0265,-76.6945"},{"PostCode":"270077","LatLong":"6.0265,-76.6945"},{"PostCode":"270078","LatLong":"6.0265,-76.6945"}]},{"Name":"Medio Baudó","Code":"27430","Places":[{"Name":"Medio Baudo","PostCode":"275010","LatLong":"5.1107,-76.9962"},{"Name":"Medio Baudo","PostCode":"275017","LatLong":"5.1107,-76.9962"},{"Name":"Medio Baudo","PostCode":"275018","LatLong":"5.1107,-76.9962"}]},{"Name":"Medio San Juan","Code":"27450","Places":[{"PostCode":"274030","LatLong":"4.8113,-76.8044"},{"PostCode":"274037","LatLong":"4.8113,-76.8044"},{"PostCode":"274038","LatLong":"4.8113,-76.8044"},{"PostCode":"274039","LatLong":"4.8113,-76.8044"}]},{"Name":"Nóvita","Code":"27491","Places":[{"Name":"Novita","PostCode":"273050","LatLong":"4.9551,-76.6053"},{"Name":"Novita","PostCode":"273057","LatLong":"4.9551,-76.6053"},{"Name":"Novita","PostCode":"273058","LatLong":"4.9551,-76.6053"}]},{"Name":"Nuquí","Code":"27495","Places":[{"Name":"Nuqui","PostCode":"276050","LatLong":"5.6741,-77.2909"},{"Name":"Nuqui","PostCode":"276057","LatLong":"5.6741,-77.2909"},{"Name":"Nuqui","PostCode":"276058","LatLong":"5.6741,-77.2909"}]},{"Name":"Río Iro","Code":"27580","Places":[{"Name":"Rio Iro","PostCode":"273010","LatLong":"5.1767,-76.4802"},{"Name":"Rio Iro","PostCode":"273017","LatLong":"5.1767,-76.4802"}]},{"Name":"Río Quito","Code":"27600","Places":[{"Name":"Rio Quito","PostCode":"272050","LatLong":"5.5665,-76.8134"},{"Name":"Rio Quito","PostCode":"272057","LatLong":"5.5665,-76.8134"},{"Name":"Rio Quito","PostCode":"272058","LatLong":"5.5665,-76.8134"}]},{"Name":"Riosucio","Code":"27615","Places":[{"PostCode":"277010","LatLong":"7.4435,-77.1196"},{"PostCode":"277017","LatLong":"7.4435,-77.1196"},{"PostCode":"277018","LatLong":"7.4435,-77.1196"},{"PostCode":"278050","LatLong":"7.4435,-77.1196"},{"PostCode":"278057","LatLong":"7.4435,-77.1196"},{"PostCode":"278058","LatLong":"7.4435,-77.1196"}]},{"Name":"San José del Palmar","Code":"27660","Places":[{"Name":"San Jose Del Palmar","PostCode":"273070","LatLong":"4.8885,-76.2965"},{"Name":"San Jose Del Palmar","PostCode":"273077","LatLong":"4.8885,-76.2965"},{"Name":"San Jose Del Palmar","PostCode":"273078","LatLong":"4.8885,-76.2965"}]},{"Name":"Sipí","Code":"27745","Places":[{"Name":"Sipi","PostCode":"274050","LatLong":"4.6581,-76.4767"},{"Name":"Sipi","PostCode":"274057","LatLong":"4.6581,-76.4767"},{"Name":"Sipi","PostCode":"274058","LatLong":"4.6581,-76.4767"}]},{"Name":"Tadó","Code":"27787","Places":[{"Name":"Tado","PostCode":"271070","LatLong":"5.266,-76.5649"},{"Name":"Tado","PostCode":"271077","LatLong":"5.266,-76.5649"}]},{"Name":"Unguía","Code":"27800","Places":[{"Name":"Unguia","PostCode":"278030","LatLong":"8.0436,-77.0914"},{"Name":"Unguia","PostCode":"278037","LatLong":"8.0436,-77.0914"},{"Name":"Unguia","PostCode":"278038","LatLong":"8.0436,-77.0914"}]},{"Name":"Unión Panamericana","Code":"27810","Places":[{"Name":"Union Panamericana","PostCode":"272030","LatLong":"5.2854,-76.645"},{"Name":"Union Panamericana","PostCode":"272037","LatLong":"5.2854,-76.645"}]}]},{"Name":"Cordoba","Code":"12","Provinces":[{"Name":"Montería","Code":"23001","Places":[{"Name":"Monteria","PostCode":"230001","LatLong":"8.748,-75.8814"},{"Name":"Monteria","PostCode":"230002","LatLong":"8.748,-75.8814"},{"Name":"Monteria","PostCode":"230003","LatLong":"8.748,-75.8814"},{"Name":"Monteria","PostCode":"230004","LatLong":"8.748,-75.8814"},{"Name":"Monteria","PostCode":"230007","LatLong":"8.748,-75.8814"},{"Name":"Monteria","PostCode":"230008","LatLong":"8.748,-75.8814"},{"Name":"Monteria","PostCode":"230009","LatLong":"8.748,-75.8814"},{"Name":"Monteria","PostCode":"230017","LatLong":"8.748,-75.8814"},{"Name":"Monteria","PostCode":"230018","LatLong":"8.748,-75.8814"},{"Name":"Monteria","PostCode":"230019","LatLong":"8.748,-75.8814"},{"Name":"Monteria","PostCode":"230027","LatLong":"8.748,-75.8814"},{"Name":"Monteria","PostCode":"230028","LatLong":"8.748,-75.8814"},{"Name":"Monteria","PostCode":"230029","LatLong":"8.748,-75.8814"}]},{"Name":"Ayapel","Code":"23068","Places":[{"PostCode":"233530","LatLong":"8.3137,-75.1398"},{"PostCode":"233537","LatLong":"8.3137,-75.1398"},{"PostCode":"233538","LatLong":"8.3137,-75.1398"},{"PostCode":"233539","LatLong":"8.3137,-75.1398"}]},{"Name":"Buenavista","Code":"23079","Places":[{"PostCode":"233020","LatLong":"8.1915,-75.4338"},{"PostCode":"233027","LatLong":"8.1915,-75.4338"},{"PostCode":"233028","LatLong":"8.1915,-75.4338"}]},{"Name":"Canalete","Code":"23090","Places":[{"PostCode":"235040","LatLong":"8.7856,-76.2406"},{"PostCode":"235047","LatLong":"8.7856,-76.2406"},{"PostCode":"235048","LatLong":"8.7856,-76.2406"}]},{"Name":"Cereté","Code":"23162","Places":[{"Name":"Cerete","PostCode":"230550","LatLong":"8.8848,-75.7905"},{"Name":"Cerete","PostCode":"230557","LatLong":"8.8848,-75.7905"},{"Name":"Cerete","PostCode":"230558","LatLong":"8.8848,-75.7905"},{"Name":"Cerete","PostCode":"230559","LatLong":"8.8848,-75.7905"}]},{"Name":"Chimá","Code":"23168","Places":[{"Name":"Chima","PostCode":"232010","LatLong":"9.1489,-75.6284"},{"Name":"Chima","PostCode":"232017","LatLong":"9.1489,-75.6284"},{"Name":"Chima","PostCode":"232018","LatLong":"9.1489,-75.6284"}]},{"Name":"Chinú","Code":"23182","Places":[{"Name":"Chinu","PostCode":"232050","LatLong":"9.1057,-75.3981"},{"Name":"Chinu","PostCode":"232057","LatLong":"9.1057,-75.3981"},{"Name":"Chinu","PostCode":"232058","LatLong":"9.1057,-75.3981"},{"Name":"Chinu","PostCode":"232059","LatLong":"9.1057,-75.3981"}]},{"Name":"Ciénaga de Oro","Code":"23189","Places":[{"Name":"Cienaga De Oro","PostCode":"232520","LatLong":"8.8744,-75.6203"},{"Name":"Cienaga De Oro","PostCode":"232527","LatLong":"8.8744,-75.6203"},{"Name":"Cienaga De Oro","PostCode":"232528","LatLong":"8.8744,-75.6203"},{"Name":"Cienaga De Oro","PostCode":"232529","LatLong":"8.8744,-75.6203"},{"Name":"Cienaga De Oro","PostCode":"232537","LatLong":"8.8744,-75.6203"},{"Name":"Cienaga De Oro","PostCode":"232538","LatLong":"8.8744,-75.6203"}]},{"Name":"Cotorra","Code":"23300","Places":[{"PostCode":"230501","LatLong":"9.0389,-75.7897"},{"PostCode":"230507","LatLong":"9.0389,-75.7897"}]},{"Name":"La Apartada","Code":"23350","Places":[{"PostCode":"233501","LatLong":"8.0479,-75.301"},{"PostCode":"233507","LatLong":"8.0479,-75.301"}]},{"Name":"Lorica","Code":"23417","Places":[{"PostCode":"231020","LatLong":"9.2365,-75.8135"},{"PostCode":"231027","LatLong":"9.2365,-75.8135"},{"PostCode":"231028","LatLong":"9.2365,-75.8135"},{"PostCode":"231029","LatLong":"9.2365,-75.8135"},{"PostCode":"231037","LatLong":"9.2365,-75.8135"},{"PostCode":"231038","LatLong":"9.2365,-75.8135"},{"PostCode":"231039","LatLong":"9.2365,-75.8135"},{"PostCode":"231047","LatLong":"9.2365,-75.8135"},{"PostCode":"231048","LatLong":"9.2365,-75.8135"}]},{"Name":"Los Córdobas","Code":"23419","Places":[{"Name":"Los Cordobas","PostCode":"235020","LatLong":"8.894,-76.3546"},{"Name":"Los Cordobas","PostCode":"235027","LatLong":"8.894,-76.3546"},{"Name":"Los Cordobas","PostCode":"235028","LatLong":"8.894,-76.3546"}]},{"Name":"Momil","Code":"23464","Places":[{"PostCode":"232001","LatLong":"9.2377,-75.6749"},{"PostCode":"232007","LatLong":"9.2377,-75.6749"},{"PostCode":"232008","LatLong":"9.2377,-75.6749"}]},{"Name":"Montelíbano","Code":"23466","Places":[{"Name":"Montelibano","PostCode":"234001","LatLong":"7.9792,-75.4202"},{"Name":"Montelibano","PostCode":"234007","LatLong":"7.9792,-75.4202"},{"Name":"Montelibano","PostCode":"234008","LatLong":"7.9792,-75.4202"}]},{"Name":"Moñitos","Code":"23500","Places":[{"PostCode":"231001","LatLong":"9.2455,-76.1302"},{"PostCode":"231007","LatLong":"9.2455,-76.1302"},{"PostCode":"231008","LatLong":"9.2455,-76.1302"}]},{"Name":"Planeta Rica","Code":"23555","Places":[{"PostCode":"233040","LatLong":"8.4115,-75.5851"},{"PostCode":"233047","LatLong":"8.4115,-75.5851"},{"PostCode":"233048","LatLong":"8.4115,-75.5851"},{"PostCode":"233049","LatLong":"8.4115,-75.5851"},{"PostCode":"233057","LatLong":"8.4115,-75.5851"}]},{"Name":"Pueblo Nuevo","Code":"23570","Places":[{"PostCode":"233001","LatLong":"8.5012,-75.508"},{"PostCode":"233007","LatLong":"8.5012,-75.508"},{"PostCode":"233008","LatLong":"8.5012,-75.508"},{"PostCode":"233009","LatLong":"8.5012,-75.508"}]},{"Name":"Puerto Escondido","Code":"23574","Places":[{"PostCode":"235001","LatLong":"9.0181,-76.2641"},{"PostCode":"235007","LatLong":"9.0181,-76.2641"},{"PostCode":"235008","LatLong":"9.0181,-76.2641"}]},{"Name":"Puerto Libertador","Code":"23580","Places":[{"PostCode":"234030","LatLong":"7.7097,-75.7688"},{"PostCode":"234037","LatLong":"7.7097,-75.7688"},{"PostCode":"234038","LatLong":"7.7097,-75.7688"},{"PostCode":"234039","LatLong":"7.7097,-75.7688"}]},{"Name":"Purísima","Code":"23586","Places":[{"Name":"Purisima","PostCode":"231540","LatLong":"9.2366,-75.7219"},{"Name":"Purisima","PostCode":"231547","LatLong":"9.2366,-75.7219"}]},{"Name":"Sahagún","Code":"23660","Places":[{"Name":"Sahagun","PostCode":"232540","LatLong":"8.9462,-75.4427"},{"Name":"Sahagun","PostCode":"232547","LatLong":"8.9462,-75.4427"},{"Name":"Sahagun","PostCode":"232548","LatLong":"8.9462,-75.4427"},{"Name":"Sahagun","PostCode":"232549","LatLong":"8.9462,-75.4427"},{"Name":"Sahagun","PostCode":"232557","LatLong":"8.9462,-75.4427"},{"Name":"Sahagun","PostCode":"232558","LatLong":"8.9462,-75.4427"},{"Name":"Sahagun","PostCode":"232559","LatLong":"8.9462,-75.4427"}]},{"Name":"San Andrés Sotavento","Code":"23670","Places":[{"Name":"San Andres Sotavento","PostCode":"232030","LatLong":"9.1218,-75.5163"},{"Name":"San Andres Sotavento","PostCode":"232038","LatLong":"9.1218,-75.5163"},{"Name":"San Andres Sotavento","PostCode":"232039","LatLong":"9.1218,-75.5163"}]},{"Name":"San Antero","Code":"23672","Places":[{"PostCode":"231520","LatLong":"9.3741,-75.7589"},{"PostCode":"231527","LatLong":"9.3741,-75.7589"},{"PostCode":"231528","LatLong":"9.3741,-75.7589"}]},{"Name":"San Bernardo del Viento","Code":"23675","Places":[{"Name":"San Bernardo Del Viento","PostCode":"231501","LatLong":"9.3533,-75.9524"},{"Name":"San Bernardo Del Viento","PostCode":"231507","LatLong":"9.3533,-75.9524"},{"Name":"San Bernardo Del Viento","PostCode":"231508","LatLong":"9.3533,-75.9524"},{"Name":"San Bernardo Del Viento","PostCode":"231509","LatLong":"9.3533,-75.9524"}]},{"Name":"San Carlos","Code":"23678","Places":[{"PostCode":"232501","LatLong":"8.7958,-75.6995"},{"PostCode":"232507","LatLong":"8.7958,-75.6995"},{"PostCode":"232508","LatLong":"8.7958,-75.6995"},{"PostCode":"232509","LatLong":"8.7958,-75.6995"},{"PostCode":"232517","LatLong":"8.7958,-75.6995"}]},{"Name":"San Jose De Ure","Code":"23682","Places":[{"PostCode":"234010","LatLong":"7.7533,-75.5659"},{"PostCode":"234017","LatLong":"7.7533,-75.5659"}]},{"Name":"San Pelayo","Code":"23686","Places":[{"PostCode":"230520","LatLong":"8.9583,-75.8363"},{"PostCode":"230527","LatLong":"8.9583,-75.8363"},{"PostCode":"230528","LatLong":"8.9583,-75.8363"},{"PostCode":"230529","LatLong":"8.9583,-75.8363"},{"PostCode":"230537","LatLong":"8.9583,-75.8363"},{"PostCode":"230538","LatLong":"8.9583,-75.8363"}]},{"Name":"Tierralta","Code":"23807","Places":[{"PostCode":"234501","LatLong":"8.1736,-76.0592"},{"PostCode":"234507","LatLong":"8.1736,-76.0592"},{"PostCode":"234508","LatLong":"8.1736,-76.0592"},{"PostCode":"234509","LatLong":"8.1736,-76.0592"},{"PostCode":"234517","LatLong":"8.1736,-76.0592"},{"PostCode":"234518","LatLong":"8.1736,-76.0592"}]},{"Name":"Tuchin","Code":"23815","Places":[{"PostCode":"232020","LatLong":"9.1866,-75.5547"},{"PostCode":"232027","LatLong":"9.1866,-75.5547"}]},{"Name":"Valencia","Code":"23855","Places":[{"PostCode":"234530","LatLong":"8.258,-76.1493"},{"PostCode":"234537","LatLong":"8.258,-76.1493"},{"PostCode":"234538","LatLong":"8.258,-76.1493"},{"PostCode":"234539","LatLong":"8.258,-76.1493"}]}]},{"Name":"Guaviare","Code":"14","Provinces":[{"Name":"San José del Guaviare","Code":"95001","Places":[{"Name":"San Jose Del Guaviare","PostCode":"950001","LatLong":"2.5729,-72.6459"},{"Name":"San Jose Del Guaviare","PostCode":"950007","LatLong":"2.5729,-72.6459"},{"Name":"San Jose Del Guaviare","PostCode":"950008","LatLong":"2.5729,-72.6459"},{"Name":"San Jose Del Guaviare","PostCode":"950009","LatLong":"2.5729,-72.6459"}]},{"Name":"Calamar","Code":"95015","Places":[{"PostCode":"953001","LatLong":"1.9596,-72.6531"},{"PostCode":"953007","LatLong":"1.9596,-72.6531"},{"PostCode":"953008","LatLong":"1.9596,-72.6531"},{"PostCode":"953009","LatLong":"1.9596,-72.6531"},{"PostCode":"953017","LatLong":"1.9596,-72.6531"},{"PostCode":"953018","LatLong":"1.9596,-72.6531"}]},{"Name":"El Retorno","Code":"95025","Places":[{"PostCode":"951001","LatLong":"2.3302,-72.6276"},{"PostCode":"951007","LatLong":"2.3302,-72.6276"},{"PostCode":"951008","LatLong":"2.3302,-72.6276"},{"PostCode":"951009","LatLong":"2.3302,-72.6276"},{"PostCode":"951017","LatLong":"2.3302,-72.6276"}]},{"Name":"Miraflores","Code":"95200","Places":[{"PostCode":"952001","LatLong":"1.3367,-71.9511"},{"PostCode":"952007","LatLong":"1.3367,-71.9511"},{"PostCode":"952008","LatLong":"1.3367,-71.9511"},{"PostCode":"952009","LatLong":"1.3367,-71.9511"},{"PostCode":"952017","LatLong":"1.3367,-71.9511"}]}]},{"Name":"Guainia","Code":"15","Provinces":[{"Name":"Inírida","Code":"94001","Places":[{"Name":"Inirida","PostCode":"940001","LatLong":"3.8653,-67.9239"},{"Name":"Inirida","PostCode":"940007","LatLong":"3.8653,-67.9239"},{"Name":"Inirida","PostCode":"940008","LatLong":"3.8653,-67.9239"},{"Name":"Inirida","PostCode":"940009","LatLong":"3.8653,-67.9239"},{"Name":"Inirida","PostCode":"940017","LatLong":"3.8653,-67.9239"},{"Name":"Inirida","PostCode":"940018","LatLong":"3.8653,-67.9239"},{"Name":"Inirida","PostCode":"940019","LatLong":"3.8653,-67.9239"},{"Name":"Inirida","PostCode":"940027","LatLong":"3.8653,-67.9239"},{"Name":"Inirida","PostCode":"940028","LatLong":"3.8653,-67.9239"}]},{"Name":"Barranco Minas","Code":"94343","Places":[{"PostCode":"944010","LatLong":"3.4842,-69.8108"},{"PostCode":"944017","LatLong":"3.4842,-69.8108"},{"PostCode":"944018","LatLong":"3.4842,-69.8108"},{"PostCode":"944019","LatLong":"3.4842,-69.8108"}]},{"Name":"Mapiripana","Code":"94663","Places":[{"PostCode":"944057","LatLong":"2.8101,-70.2856"},{"PostCode":"944058","LatLong":"2.8101,-70.2856"},{"PostCode":"944059","LatLong":"2.8101,-70.2856"}]},{"Name":"San Felipe","Code":"94883","Places":[{"PostCode":"942010","LatLong":"1.9141,-67.07"},{"PostCode":"942017","LatLong":"1.9141,-67.07"},{"PostCode":"942018","LatLong":"1.9141,-67.07"}]},{"Name":"Puerto Colombia","Code":"94884","Places":[{"PostCode":"941037","LatLong":"2.7221,-67.5658"},{"PostCode":"941038","LatLong":"2.7221,-67.5658"},{"PostCode":"941039","LatLong":"2.7221,-67.5658"},{"PostCode":"941047","LatLong":"2.7221,-67.5658"}]},{"Name":"La Guadalupe","Code":"94885","Places":[{"Name":"Guadalupe","PostCode":"942057","LatLong":"1.2451,-66.8647"}]},{"Name":"Cacahual","Code":"94886","Places":[{"PostCode":"941010","LatLong":"3.5142,-67.4153"},{"PostCode":"941017","LatLong":"3.5142,-67.4153"},{"PostCode":"941018","LatLong":"3.5142,-67.4153"}]},{"Name":"Pana Pana","Code":"94887","Places":[{"PostCode":"943017","LatLong":"1.8442,-69.0064"},{"PostCode":"943018","LatLong":"1.8442,-69.0064"},{"PostCode":"943019","LatLong":"1.8442,-69.0064"}]},{"Name":"Morichal","Code":"94888","Places":[{"PostCode":"943057","LatLong":"2.4298,-69.8328"},{"PostCode":"943058","LatLong":"2.4298,-69.8328"},{"PostCode":"943059","LatLong":"2.4298,-69.8328"},{"PostCode":"943067","LatLong":"2.4298,-69.8328"}]}]},{"Name":"Huila","Code":"16","Provinces":[{"Name":"Neiva","Code":"41001","Places":[{"PostCode":"410001","LatLong":"2.9273,-75.2819"},{"PostCode":"410002","LatLong":"2.9273,-75.2819"},{"PostCode":"410003","LatLong":"2.9273,-75.2819"},{"PostCode":"410004","LatLong":"2.9273,-75.2819"},{"PostCode":"410005","LatLong":"2.9273,-75.2819"},{"PostCode":"410006","LatLong":"2.9273,-75.2819"},{"PostCode":"410007","LatLong":"2.9273,-75.2819"},{"PostCode":"410008","LatLong":"2.9273,-75.2819"},{"PostCode":"410009","LatLong":"2.9273,-75.2819"},{"PostCode":"410010","LatLong":"2.9273,-75.2819"},{"PostCode":"410017","LatLong":"2.9273,-75.2819"},{"PostCode":"410018","LatLong":"2.9273,-75.2819"}]},{"Name":"Acevedo","Code":"41006","Places":[{"PostCode":"417070","LatLong":"1.6867,-76.0207"},{"PostCode":"417077","LatLong":"1.6867,-76.0207"},{"PostCode":"417078","LatLong":"1.6867,-76.0207"},{"PostCode":"417079","LatLong":"1.6867,-76.0207"},{"PostCode":"417087","LatLong":"1.6867,-76.0207"},{"PostCode":"417088","LatLong":"1.6867,-76.0207"}]},{"Name":"Agrado","Code":"41013","Places":[{"PostCode":"414040","LatLong":"2.2573,-75.7714"},{"PostCode":"414047","LatLong":"2.2573,-75.7714"}]},{"Name":"Aipe","Code":"41016","Places":[{"PostCode":"411001","LatLong":"3.2222,-75.2367"},{"PostCode":"411007","LatLong":"3.2222,-75.2367"},{"PostCode":"411008","LatLong":"3.2222,-75.2367"}]},{"Name":"Algeciras","Code":"41020","Places":[{"PostCode":"413040","LatLong":"2.5238,-75.3173"},{"PostCode":"413047","LatLong":"2.5238,-75.3173"},{"PostCode":"413048","LatLong":"2.5238,-75.3173"}]},{"Name":"Altamira","Code":"41026","Places":[{"PostCode":"416020","LatLong":"2.0628,-75.7872"},{"PostCode":"416027","LatLong":"2.0628,-75.7872"}]},{"Name":"Baraya","Code":"41078","Places":[{"PostCode":"411060","LatLong":"3.1533,-75.0531"},{"PostCode":"411067","LatLong":"3.1533,-75.0531"}]},{"Name":"Campoalegre","Code":"41132","Places":[{"PostCode":"413020","LatLong":"2.6849,-75.3231"},{"PostCode":"413027","LatLong":"2.6849,-75.3231"},{"PostCode":"413028","LatLong":"2.6849,-75.3231"}]},{"Name":"Colombia","Code":"41206","Places":[{"PostCode":"411080","LatLong":"3.3761,-74.8015"},{"PostCode":"411087","LatLong":"3.3761,-74.8015"},{"PostCode":"411088","LatLong":"3.3761,-74.8015"}]},{"Name":"Elías","Code":"41244","Places":[{"Name":"Elias","PostCode":"417001","LatLong":"2.0117,-75.9397"},{"Name":"Elias","PostCode":"417007","LatLong":"2.0117,-75.9397"}]},{"Name":"Garzón","Code":"41298","Places":[{"Name":"Garzon","PostCode":"414020","LatLong":"2.1959,-75.6278"},{"Name":"Garzon","PostCode":"414027","LatLong":"2.1959,-75.6278"},{"Name":"Garzon","PostCode":"414028","LatLong":"2.1959,-75.6278"},{"Name":"Garzon","PostCode":"414029","LatLong":"2.1959,-75.6278"}]},{"Name":"Gigante","Code":"41306","Places":[{"PostCode":"414001","LatLong":"2.3868,-75.5474"},{"PostCode":"414007","LatLong":"2.3868,-75.5474"},{"PostCode":"414008","LatLong":"2.3868,-75.5474"},{"PostCode":"414009","LatLong":"2.3868,-75.5474"}]},{"Name":"Guadalupe","Code":"41319","Places":[{"PostCode":"416040","LatLong":"2.0248,-75.7559"},{"PostCode":"416047","LatLong":"2.0248,-75.7559"},{"PostCode":"416048","LatLong":"2.0248,-75.7559"}]},{"Name":"Hobo","Code":"41349","Places":[{"PostCode":"413060","LatLong":"2.5833,-75.45"},{"PostCode":"413067","LatLong":"2.5833,-75.45"}]},{"Name":"Iquira","Code":"41357","Places":[{"PostCode":"412060","LatLong":"2.6487,-75.6346"},{"PostCode":"412067","LatLong":"2.6487,-75.6346"},{"PostCode":"412068","LatLong":"2.6487,-75.6346"}]},{"Name":"Isnos","Code":"41359","Places":[{"PostCode":"418040","LatLong":"1.9287,-76.211"},{"PostCode":"418047","LatLong":"1.9287,-76.211"},{"PostCode":"418048","LatLong":"1.9287,-76.211"},{"PostCode":"418049","LatLong":"1.9287,-76.211"}]},{"Name":"La Argentina","Code":"41378","Places":[{"PostCode":"415080","LatLong":"2.1976,-75.9799"},{"PostCode":"415087","LatLong":"2.1976,-75.9799"},{"PostCode":"415088","LatLong":"2.1976,-75.9799"}]},{"Name":"La Plata","Code":"41396","Places":[{"PostCode":"415060","LatLong":"2.3934,-75.8923"},{"PostCode":"415068","LatLong":"2.3934,-75.8923"},{"PostCode":"415069","LatLong":"2.3934,-75.8923"},{"PostCode":"415077","LatLong":"2.3934,-75.8923"},{"PostCode":"415078","LatLong":"2.3934,-75.8923"},{"PostCode":"416067","LatLong":"2.3934,-75.8923"}]},{"Name":"Nátaga","Code":"41483","Places":[{"Name":"Nataga","PostCode":"415020","LatLong":"2.5436,-75.8085"},{"Name":"Nataga","PostCode":"415027","LatLong":"2.5436,-75.8085"}]},{"Name":"Oporapa","Code":"41503","Places":[{"PostCode":"418001","LatLong":"2.0501,-75.9767"},{"PostCode":"418007","LatLong":"2.0501,-75.9767"},{"PostCode":"418008","LatLong":"2.0501,-75.9767"}]},{"Name":"Paicol","Code":"41518","Places":[{"PostCode":"415040","LatLong":"2.4496,-75.775"},{"PostCode":"415047","LatLong":"2.4496,-75.775"}]},{"Name":"Palermo","Code":"41524","Places":[{"PostCode":"412001","LatLong":"2.8917,-75.4375"},{"PostCode":"412007","LatLong":"2.8917,-75.4375"},{"PostCode":"412008","LatLong":"2.8917,-75.4375"}]},{"Name":"Palestina","Code":"41530","Places":[{"PostCode":"417060","LatLong":"1.7236,-76.134"},{"PostCode":"417067","LatLong":"1.7236,-76.134"}]},{"Name":"Pital","Code":"41548","Places":[{"PostCode":"414060","LatLong":"2.2665,-75.8044"},{"PostCode":"414067","LatLong":"2.2665,-75.8044"},{"PostCode":"414068","LatLong":"2.2665,-75.8044"}]},{"Name":"Pitalito","Code":"41551","Places":[{"PostCode":"417030","LatLong":"1.8537,-76.0507"},{"PostCode":"417037","LatLong":"1.8537,-76.0507"},{"PostCode":"417038","LatLong":"1.8537,-76.0507"},{"PostCode":"417039","LatLong":"1.8537,-76.0507"},{"PostCode":"417047","LatLong":"1.8537,-76.0507"},{"PostCode":"417048","LatLong":"1.8537,-76.0507"}]},{"Name":"Rivera","Code":"41615","Places":[{"PostCode":"413001","LatLong":"2.7772,-75.2564"},{"PostCode":"413007","LatLong":"2.7772,-75.2564"},{"PostCode":"413008","LatLong":"2.7772,-75.2564"}]},{"Name":"Saladoblanco","Code":"41660","Places":[{"PostCode":"418020","LatLong":"1.9924,-76.0434"},{"PostCode":"418027","LatLong":"1.9924,-76.0434"},{"PostCode":"418028","LatLong":"1.9924,-76.0434"}]},{"Name":"San Agustín","Code":"41668","Places":[{"Name":"San Agustin","PostCode":"418060","LatLong":"1.8788,-76.2672"},{"Name":"San Agustin","PostCode":"418067","LatLong":"1.8788,-76.2672"},{"Name":"San Agustin","PostCode":"418068","LatLong":"1.8788,-76.2672"},{"Name":"San Agustin","PostCode":"418069","LatLong":"1.8788,-76.2672"},{"Name":"San Agustin","PostCode":"418077","LatLong":"1.8788,-76.2672"}]},{"Name":"Santa María","Code":"41676","Places":[{"Name":"Santa Maria","PostCode":"412020","LatLong":"2.939,-75.5858"},{"Name":"Santa Maria","PostCode":"412027","LatLong":"2.939,-75.5858"}]},{"Name":"Suaza","Code":"41770","Places":[{"PostCode":"416080","LatLong":"1.9761,-75.7945"},{"PostCode":"416087","LatLong":"1.9761,-75.7945"},{"PostCode":"416088","LatLong":"1.9761,-75.7945"},{"PostCode":"416089","LatLong":"1.9761,-75.7945"}]},{"Name":"Tarqui","Code":"41791","Places":[{"PostCode":"416001","LatLong":"2.1125,-75.8242"},{"PostCode":"416007","LatLong":"2.1125,-75.8242"}]},{"Name":"Tesalia","Code":"41797","Places":[{"PostCode":"415001","LatLong":"2.4859,-75.7292"},{"PostCode":"415007","LatLong":"2.4859,-75.7292"},{"PostCode":"415008","LatLong":"2.4859,-75.7292"}]},{"Name":"Tello","Code":"41799","Places":[{"PostCode":"411040","LatLong":"3.0669,-75.1378"},{"PostCode":"411047","LatLong":"3.0669,-75.1378"},{"PostCode":"411048","LatLong":"3.0669,-75.1378"}]},{"Name":"Teruel","Code":"41801","Places":[{"PostCode":"412040","LatLong":"2.7419,-75.5674"},{"PostCode":"412047","LatLong":"2.7419,-75.5674"}]},{"Name":"Timaná","Code":"41807","Places":[{"Name":"Timana","PostCode":"417010","LatLong":"1.9714,-75.9312"},{"Name":"Timana","PostCode":"417017","LatLong":"1.9714,-75.9312"},{"Name":"Timana","PostCode":"417018","LatLong":"1.9714,-75.9312"}]},{"Name":"Villavieja","Code":"41872","Places":[{"PostCode":"411020","LatLong":"3.2205,-75.2186"},{"PostCode":"411027","LatLong":"3.2205,-75.2186"},{"PostCode":"411028","LatLong":"3.2205,-75.2186"}]},{"Name":"Yaguará","Code":"41885","Places":[{"Name":"Yaguara","PostCode":"412080","LatLong":"2.6635,-75.5175"},{"Name":"Yaguara","PostCode":"412087","LatLong":"2.6635,-75.5175"}]}]},{"Name":"La Guajira","Code":"17","Provinces":[{"Name":"Riohacha","Code":"44001","Places":[{"PostCode":"440001","LatLong":"11.5444,-72.9072"},{"PostCode":"440002","LatLong":"11.5444,-72.9072"},{"PostCode":"440003","LatLong":"11.5444,-72.9072"},{"PostCode":"440007","LatLong":"11.5444,-72.9072"},{"PostCode":"440008","LatLong":"11.5444,-72.9072"},{"PostCode":"440009","LatLong":"11.5444,-72.9072"},{"PostCode":"440017","LatLong":"11.5444,-72.9072"}]},{"Name":"Albania","Code":"44035","Places":[{"PostCode":"443001","LatLong":"11.161,-72.5924"},{"PostCode":"443007","LatLong":"11.161,-72.5924"},{"PostCode":"443008","LatLong":"11.161,-72.5924"},{"PostCode":"443009","LatLong":"11.161,-72.5924"}]},{"Name":"Barrancas","Code":"44078","Places":[{"PostCode":"443040","LatLong":"10.9576,-72.7877"},{"PostCode":"443047","LatLong":"10.9576,-72.7877"},{"PostCode":"443048","LatLong":"10.9576,-72.7877"},{"PostCode":"443049","LatLong":"10.9576,-72.7877"}]},{"Name":"Dibulla","Code":"44090","Places":[{"PostCode":"446001","LatLong":"11.2725,-73.3091"},{"PostCode":"446007","LatLong":"11.2725,-73.3091"},{"PostCode":"446008","LatLong":"11.2725,-73.3091"},{"PostCode":"446009","LatLong":"11.2725,-73.3091"},{"PostCode":"446017","LatLong":"11.2725,-73.3091"}]},{"Name":"Distracción","Code":"44098","Places":[{"Name":"Distraccion","PostCode":"444001","LatLong":"10.8969,-72.8861"},{"Name":"Distraccion","PostCode":"444007","LatLong":"10.8969,-72.8861"},{"Name":"Distraccion","PostCode":"444008","LatLong":"10.8969,-72.8861"}]},{"Name":"El Molino","Code":"44110","Places":[{"PostCode":"444050","LatLong":"10.6522,-72.924"},{"PostCode":"444057","LatLong":"10.6522,-72.924"}]},{"Name":"Fonseca","Code":"44279","Places":[{"PostCode":"444010","LatLong":"10.8861,-72.8487"},{"PostCode":"444017","LatLong":"10.8861,-72.8487"},{"PostCode":"444018","LatLong":"10.8861,-72.8487"}]},{"Name":"Hatonuevo","Code":"44378","Places":[{"PostCode":"443020","LatLong":"11.0694,-72.7669"},{"PostCode":"443027","LatLong":"11.0694,-72.7669"},{"PostCode":"443028","LatLong":"11.0694,-72.7669"}]},{"Name":"La Jagua del Pilar","Code":"44420","Places":[{"Name":"La Jagua Del Pilar","PostCode":"445040","LatLong":"10.5167,-73.0833"},{"Name":"La Jagua Del Pilar","PostCode":"445047","LatLong":"10.5167,-73.0833"}]},{"Name":"Maicao","Code":"44430","Places":[{"PostCode":"442001","LatLong":"11.3832,-72.2432"},{"PostCode":"442007","LatLong":"11.3832,-72.2432"},{"PostCode":"442008","LatLong":"11.3832,-72.2432"},{"PostCode":"442009","LatLong":"11.3832,-72.2432"}]},{"Name":"Manaure","Code":"44560","Places":[{"PostCode":"441001","LatLong":"11.775,-72.4445"},{"PostCode":"441007","LatLong":"11.775,-72.4445"},{"PostCode":"441008","LatLong":"11.775,-72.4445"},{"PostCode":"441009","LatLong":"11.775,-72.4445"},{"PostCode":"441017","LatLong":"11.775,-72.4445"},{"PostCode":"441018","LatLong":"11.775,-72.4445"}]},{"Name":"San Juan del Cesar","Code":"44650","Places":[{"Name":"San Juan Del Cesar","PostCode":"444030","LatLong":"10.7711,-73.0031"},{"Name":"San Juan Del Cesar","PostCode":"444037","LatLong":"10.7711,-73.0031"},{"Name":"San Juan Del Cesar","PostCode":"444038","LatLong":"10.7711,-73.0031"}]},{"Name":"Uribia","Code":"44847","Places":[{"PostCode":"441020","LatLong":"11.7139,-72.266"},{"PostCode":"441027","LatLong":"11.7139,-72.266"},{"PostCode":"441028","LatLong":"11.7139,-72.266"},{"PostCode":"441029","LatLong":"11.7139,-72.266"},{"PostCode":"441037","LatLong":"11.7139,-72.266"},{"PostCode":"441038","LatLong":"11.7139,-72.266"},{"PostCode":"441039","LatLong":"11.7139,-72.266"},{"PostCode":"441047","LatLong":"11.7139,-72.266"},{"PostCode":"441048","LatLong":"11.7139,-72.266"},{"PostCode":"441049","LatLong":"11.7139,-72.266"},{"PostCode":"441057","LatLong":"11.7139,-72.266"},{"PostCode":"441058","LatLong":"11.7139,-72.266"},{"PostCode":"441059","LatLong":"11.7139,-72.266"}]},{"Name":"Urumita","Code":"44855","Places":[{"PostCode":"445020","LatLong":"10.5589,-73.0123"},{"PostCode":"445027","LatLong":"10.5589,-73.0123"}]},{"Name":"Villanueva","Code":"44874","Places":[{"PostCode":"445001","LatLong":"10.6053,-72.98"},{"PostCode":"445007","LatLong":"10.6053,-72.98"},{"PostCode":"445008","LatLong":"10.6053,-72.98"}]}]},{"Name":"Meta","Code":"19","Provinces":[{"Name":"Villavicencio","Code":"50001","Places":[{"PostCode":"500001","LatLong":"4.142,-73.6266"},{"PostCode":"500002","LatLong":"4.142,-73.6266"},{"PostCode":"500003","LatLong":"4.142,-73.6266"},{"PostCode":"500004","LatLong":"4.142,-73.6266"},{"PostCode":"500005","LatLong":"4.142,-73.6266"},{"PostCode":"500007","LatLong":"4.142,-73.6266"},{"PostCode":"500008","LatLong":"4.142,-73.6266"},{"PostCode":"500009","LatLong":"4.142,-73.6266"},{"PostCode":"500017","LatLong":"4.142,-73.6266"}]},{"Name":"Acacías","Code":"50006","Places":[{"Name":"Acacias","PostCode":"507001","LatLong":"3.9869,-73.758"},{"Name":"Acacias","PostCode":"507007","LatLong":"3.9869,-73.758"},{"Name":"Acacias","PostCode":"507008","LatLong":"3.9869,-73.758"},{"Name":"Acacias","PostCode":"507009","LatLong":"3.9869,-73.758"},{"Name":"Acacias","PostCode":"507017","LatLong":"3.7116,-73.2434"}]},{"Name":"Barranca de Upía","Code":"50110","Places":[{"Name":"Barranca De Upia","PostCode":"501001","LatLong":"4.5696,-72.9668"},{"Name":"Barranca De Upia","PostCode":"501007","LatLong":"4.5696,-72.9668"}]},{"Name":"Cabuyaro","Code":"50124","Places":[{"PostCode":"501011","LatLong":"4.2817,-72.794"},{"PostCode":"501017","LatLong":"4.2817,-72.794"},{"PostCode":"501018","LatLong":"4.2817,-72.794"}]},{"Name":"Castilla la Nueva","Code":"50150","Places":[{"Name":"Castilla La Nueva","PostCode":"507041","LatLong":"3.8272,-73.6883"},{"Name":"Castilla La Nueva","PostCode":"507047","LatLong":"3.8272,-73.6883"},{"Name":"Castilla La Nueva","PostCode":"507048","LatLong":"3.8272,-73.6883"}]},{"Name":"Cubarral","Code":"50223","Places":[{"PostCode":"506001","LatLong":"3.7954,-73.8406"},{"PostCode":"506007","LatLong":"3.7954,-73.8406"},{"PostCode":"506008","LatLong":"3.7954,-73.8406"}]},{"Name":"Cumaral","Code":"50226","Places":[{"PostCode":"501021","LatLong":"4.2708,-73.4867"},{"PostCode":"501027","LatLong":"4.2708,-73.4867"},{"PostCode":"501028","LatLong":"4.2708,-73.4867"}]},{"Name":"El Calvario","Code":"50245","Places":[{"PostCode":"501041","LatLong":"4.3534,-73.7115"},{"PostCode":"501047","LatLong":"4.3534,-73.7115"}]},{"Name":"El Castillo","Code":"50251","Places":[{"PostCode":"506041","LatLong":"3.5636,-73.7949"},{"PostCode":"506047","LatLong":"3.5636,-73.7949"},{"PostCode":"506048","LatLong":"3.5636,-73.7949"}]},{"Name":"El Dorado","Code":"50270","Places":[{"PostCode":"506021","LatLong":"3.7392,-73.8349"},{"PostCode":"506027","LatLong":"3.7392,-73.8349"}]},{"Name":"Fuente de Oro","Code":"50287","Places":[{"Name":"Fuente De Oro","PostCode":"504021","LatLong":"3.4626,-73.6216"},{"Name":"Fuente De Oro","PostCode":"504027","LatLong":"3.4626,-73.6216"},{"Name":"Fuente De Oro","PostCode":"504028","LatLong":"3.4626,-73.6216"}]},{"Name":"Granada","Code":"50313","Places":[{"PostCode":"504001","LatLong":"3.5462,-73.7069"},{"PostCode":"504007","LatLong":"3.5462,-73.7069"},{"PostCode":"504008","LatLong":"3.5462,-73.7069"}]},{"Name":"Guamal","Code":"50318","Places":[{"PostCode":"507051","LatLong":"3.8804,-73.7657"},{"PostCode":"507057","LatLong":"3.8804,-73.7657"},{"PostCode":"507058","LatLong":"3.8804,-73.7657"}]},{"Name":"Mapiripán","Code":"50325","Places":[{"Name":"Mapiripan","PostCode":"503021","LatLong":"2.8118,-73.0279"},{"Name":"Mapiripan","PostCode":"503027","LatLong":"2.8118,-73.0279"},{"Name":"Mapiripan","PostCode":"503028","LatLong":"2.8118,-73.0279"},{"Name":"Mapiripan","PostCode":"503029","LatLong":"2.8118,-73.0279"},{"Name":"Mapiripan","PostCode":"503037","LatLong":"2.8118,-73.0279"}]},{"Name":"Mesetas","Code":"50330","Places":[{"PostCode":"505001","LatLong":"3.3846,-74.0442"},{"PostCode":"505007","LatLong":"3.3846,-74.0442"},{"PostCode":"505008","LatLong":"3.3846,-74.0442"}]},{"Name":"La Macarena","Code":"50350","Places":[{"PostCode":"505021","LatLong":"2.1837,-73.7848"},{"PostCode":"505027","LatLong":"2.1837,-73.7848"},{"PostCode":"505028","LatLong":"2.1837,-73.7848"}]},{"Name":"Uribe","Code":"50370","Places":[{"PostCode":"505041","LatLong":"3.0264,-74.4361"},{"PostCode":"505047","LatLong":"3.0264,-74.4361"},{"PostCode":"505048","LatLong":"3.0264,-74.4361"}]},{"Name":"Lejanías","Code":"50400","Places":[{"Name":"Lejanias","PostCode":"506061","LatLong":"3.5276,-74.0234"},{"Name":"Lejanias","PostCode":"506067","LatLong":"3.5276,-74.0234"},{"Name":"Lejanias","PostCode":"506068","LatLong":"3.5276,-74.0234"}]},{"Name":"Puerto Concordia","Code":"50450","Places":[{"PostCode":"503041","LatLong":"2.6221,-72.7572"},{"PostCode":"503047","LatLong":"2.6221,-72.7572"}]},{"Name":"Puerto Gaitán","Code":"50568","Places":[{"Name":"Puerto Gaitan","PostCode":"502041","LatLong":"4.3133,-72.0816"},{"Name":"Puerto Gaitan","PostCode":"502047","LatLong":"4.3133,-72.0816"},{"Name":"Puerto Gaitan","PostCode":"502048","LatLong":"4.3133,-72.0816"},{"Name":"Puerto Gaitan","PostCode":"502049","LatLong":"4.3133,-72.0816"},{"Name":"Puerto Gaitan","PostCode":"502057","LatLong":"4.3133,-72.0816"},{"Name":"Puerto Gaitan","PostCode":"502058","LatLong":"4.3133,-72.0816"},{"Name":"Puerto Gaitan","PostCode":"502059","LatLong":"4.3133,-72.0816"}]},{"Name":"Puerto López","Code":"50573","Places":[{"Name":"Puerto Lopez","PostCode":"502001","LatLong":"4.0991,-72.9565"},{"Name":"Puerto Lopez","PostCode":"502007","LatLong":"4.0991,-72.9565"},{"Name":"Puerto Lopez","PostCode":"502008","LatLong":"4.0991,-72.9565"},{"Name":"Puerto Lopez","PostCode":"502009","LatLong":"4.0991,-72.9565"}]},{"Name":"Puerto Lleras","Code":"50577","Places":[{"PostCode":"503001","LatLong":"2.8118,-73.0279"},{"PostCode":"503007","LatLong":"2.8118,-73.0279"},{"PostCode":"503008","LatLong":"2.8118,-73.0279"}]},{"Name":"Puerto Rico","Code":"50590","Places":[{"PostCode":"503061","LatLong":"2.9383,-73.2083"},{"PostCode":"503067","LatLong":"2.9383,-73.2083"},{"PostCode":"503068","LatLong":"2.9383,-73.2083"}]},{"Name":"Restrepo","Code":"50606","Places":[{"PostCode":"501031","LatLong":"4.2583,-73.5614"},{"PostCode":"501037","LatLong":"4.2583,-73.5614"},{"PostCode":"501038","LatLong":"4.2583,-73.5614"}]},{"Name":"San Carlos de Guaroa","Code":"50680","Places":[{"Name":"San Carlos De Guaroa","PostCode":"507011","LatLong":"3.7116,-73.2434"},{"Name":"San Carlos De Guaroa","PostCode":"507019","LatLong":"3.7116,-73.2434"}]},{"Name":"San Juan de Arama","Code":"50683","Places":[{"Name":"San Juan De Arama","PostCode":"504041","LatLong":"3.3699,-73.8727"},{"Name":"San Juan De Arama","PostCode":"504047","LatLong":"3.3699,-73.8727"},{"Name":"San Juan De Arama","PostCode":"504048","LatLong":"3.3699,-73.8727"}]},{"Name":"San Juanito","Code":"50686","Places":[{"PostCode":"501051","LatLong":"4.461,-73.6805"},{"PostCode":"501057","LatLong":"4.461,-73.6805"}]},{"Name":"San Martín","Code":"50689","Places":[{"Name":"San Martin","PostCode":"507021","LatLong":"3.6964,-73.6996"},{"Name":"San Martin","PostCode":"507027","LatLong":"3.6964,-73.6996"},{"Name":"San Martin","PostCode":"507028","LatLong":"3.6964,-73.6996"},{"Name":"San Martin","PostCode":"507029","LatLong":"3.6964,-73.6996"},{"Name":"San Martin","PostCode":"507037","LatLong":"3.6964,-73.6996"}]},{"Name":"Vistahermosa","Code":"50711","Places":[{"PostCode":"504061","LatLong":"2.8245,-73.6837"},{"PostCode":"504067","LatLong":"2.8245,-73.6837"},{"PostCode":"504068","LatLong":"2.8245,-73.6837"}]}]},{"Name":"Nariño","Code":"20","Provinces":[{"Name":"Pasto","Code":"52001","Places":[{"PostCode":"520001","LatLong":"1.2136,-77.2811"},{"PostCode":"520002","LatLong":"1.2136,-77.2811"},{"PostCode":"520003","LatLong":"1.2136,-77.2811"},{"PostCode":"520004","LatLong":"1.2136,-77.2811"},{"PostCode":"520006","LatLong":"1.2136,-77.2811"},{"PostCode":"520007","LatLong":"1.2136,-77.2811"},{"PostCode":"520008","LatLong":"1.2136,-77.2811"},{"PostCode":"520009","LatLong":"1.2136,-77.2811"},{"PostCode":"520010","LatLong":"1.2136,-77.2811"},