{"Structure":"Place","Places":[{"Name":"Centro de Los Heroes","Accuracy":1,"LatLong":"18.6881,-69.9905"},{"Name":"Mata Hambre","Accuracy":4,"LatLong":"18.45,-69.9333"},{"Name":"Zona Universitaria","Accuracy":1,"LatLong":"18.6881,-69.9905"},{"Name":"San Geronimo","Accuracy":4,"LatLong":"18.7667,-69.4667"},{"Name":"Ciudad Universitaria","Accuracy":1,"LatLong":"18.6881,-69.9905"},{"Name":"Los Robles","Accuracy":4,"LatLong":"19.4333,-70.4"},{"Name":"Esperilla","Accuracy":4,"LatLong":"18.45,-70.0833"},{"Name":"El Vergel","Accuracy":3,"LatLong":"18.45,-70.0833"},{"Name":"Esperilla","Accuracy":4,"LatLong":"18.45,-70.0833"},{"Name":"El Manguito","Accuracy":4,"LatLong":"18.8,-70.0333"},{"Name":"La Julia","Accuracy":4,"LatLong":"18.4667,-69.9333"},{"Name":"El Embajador","Accuracy":1,"LatLong":"18.45,-69.9333"},{"Name":"Bella Vista","Accuracy":4,"LatLong":"18.45,-69.9333"},{"Name":"Bella Vista","Accuracy":4,"LatLong":"18.45,-69.9333"},{"Name":"Sarasota","Accuracy":1,"LatLong":"18.45,-69.9333"},{"Name":"Mirador Norte","Accuracy":1,"LatLong":"18.45,-69.9333"},{"Name":"Rocamar","Accuracy":1,"LatLong":"18.45,-69.9333"},{"Name":"Atala","Accuracy":1,"LatLong":"18.45,-69.9333"},{"Name":"El Portal","Accuracy":1,"LatLong":"18.45,-69.9333"},{"Name":"Ciudad Gandera","Accuracy":1,"LatLong":"18.45,-69.9333"},{"Name":"30 de Mayo","Accuracy":1,"LatLong":"18.45,-69.9333"},{"Name":"Hoduras","Accuracy":1,"LatLong":"18.45,-69.9333"},{"Name":"Ensanche La Paz","Accuracy":1,"LatLong":"18.45,-69.9333"},{"Name":"Costa Brava","Accuracy":1,"LatLong":"18.45,-69.9333"},{"Name":"El Cacique","Accuracy":1,"LatLong":"18.45,-69.9333"},{"Name":"Los Arrecifes","Accuracy":1,"LatLong":"18.45,-69.9333"},{"Name":"Antillas","Accuracy":1,"LatLong":"18.45,-69.9333"},{"Name":"Naco","Accuracy":1,"LatLong":"18.45,-69.9333"},{"Name":"La Yuca","Accuracy":4,"LatLong":"18.4833,-69.9833"},{"Name":"Arboleda (Naco)","Accuracy":1,"LatLong":"18.4667,-69.7833"},{"Name":"Centro Olimpico","Accuracy":1,"LatLong":"18.4667,-69.7833"},{"Name":"Naco","Accuracy":1,"LatLong":"18.4667,-69.7833"},{"Name":"Naco","Accuracy":1,"LatLong":"18.4667,-69.7833"},{"Name":"Naco","Accuracy":1,"LatLong":"18.4667,-69.7833"},{"Name":"Lopez de Vega","Accuracy":1,"LatLong":"18.4667,-69.7833"},{"Name":"Paraiso","Accuracy":4,"LatLong":"18.45,-69.4167"},{"Name":"Piantini","Accuracy":4,"LatLong":"18.4667,-69.95"},{"Name":"Carmelita","Accuracy":1,"LatLong":"18.4667,-69.7833"},{"Name":"Urbanizacion Fernandez","Accuracy":1,"LatLong":"18.4667,-69.7833"},{"Name":"Los Praditos","Accuracy":1,"LatLong":"18.55,-69.8125"},{"Name":"Julieta Morales","Accuracy":1,"LatLong":"18.55,-69.8125"},{"Name":"Los Prados","Accuracy":4,"LatLong":"18.4667,-69.95"},{"Name":"Los Prados","Accuracy":4,"LatLong":"18.4667,-69.95"},{"Name":"Castellana","Accuracy":1,"LatLong":"18.55,-69.8125"},{"Name":"San Geronimo","Accuracy":4,"LatLong":"18.7667,-69.4667"},{"Name":"Ciudad Moderna","Accuracy":1,"LatLong":"18.55,-69.8125"},{"Name":"Encarnacion","Accuracy":1,"LatLong":"18.55,-69.8125"},{"Name":"Urb. Las Praderas","Accuracy":1,"LatLong":"18.55,-69.8125"},{"Name":"Residencial Rosmil","Accuracy":1,"LatLong":"18.55,-69.8125"},{"Name":"Los Restauradores","Accuracy":1,"LatLong":"18.55,-69.8125"},{"Name":"Manganagua","Accuracy":4,"LatLong":"18.5,-69.8833"},{"Name":"Los Millones","Accuracy":1,"LatLong":"18.55,-69.8125"},{"Name":"Los Millones","Accuracy":1,"LatLong":"18.4556,-69.95"},{"Name":"Los Millones","Accuracy":1,"LatLong":"18.4556,-69.95"},{"Name":"Los Millones","Accuracy":1,"LatLong":"18.4556,-69.95"},{"Name":"Estela Marina ( Los Millones).","Accuracy":1,"LatLong":"18.4556,-69.95"},{"Name":"Los Millones","Accuracy":1,"LatLong":"18.4556,-69.95"},{"Name":"Ensanche Quisqueya","Accuracy":4,"LatLong":"18.45,-69.95"},{"Name":"Ensanche Quisqueya","Accuracy":4,"LatLong":"18.45,-69.95"},{"Name":"Evaristo Morales","Accuracy":1,"LatLong":"18.4556,-69.95"},{"Name":"Piantini","Accuracy":4,"LatLong":"18.4667,-69.95"},{"Name":"El Millon","Accuracy":1,"LatLong":"18.4556,-69.95"},{"Name":"Piantini","Accuracy":4,"LatLong":"18.4667,-69.95"},{"Name":"Don Bosco","Accuracy":1,"LatLong":"18.4667,-69.9"},{"Name":"Don Bosco","Accuracy":1,"LatLong":"18.4667,-69.9"},{"Name":"Miraflores","Accuracy":1,"LatLong":"18.4667,-69.9"},{"Name":"Gazcue ( Plaza de La Cultura )","Accuracy":1,"LatLong":"18.4667,-69.9"},{"Name":"Gazcue","Accuracy":1,"LatLong":"18.4667,-69.9"},{"Name":"Ensanche Independencia","Accuracy":4,"LatLong":"18.4667,-69.9"},{"Name":"La Primavera","Accuracy":4,"LatLong":"18.4667,-69.9"},{"Name":"Ciudad Nueva","Accuracy":4,"LatLong":"18.4667,-69.9"},{"Name":"Ensanche Lugo","Accuracy":4,"LatLong":"18.4667,-69.9"},{"Name":"Zona Colonial","Accuracy":1,"LatLong":"18.5917,-69.8944"},{"Name":"San Lazaro","Accuracy":1,"LatLong":"18.5917,-69.8944"},{"Name":"San Miguel","Accuracy":4,"LatLong":"18.5,-70.0167"},{"Name":"Borojol","Accuracy":4,"LatLong":"19.15,-69.75"},{"Name":"Villa Francisca","Accuracy":4,"LatLong":"18.4667,-69.9"},{"Name":"Villa Francisca","Accuracy":4,"LatLong":"18.4667,-69.9"},{"Name":"San Carlos","Accuracy":4,"LatLong":"18.4833,-69.9"},{"Name":"San Carlos","Accuracy":4,"LatLong":"18.4833,-69.9"},{"Name":"Reparto Aguedita ( Gazcue)","Accuracy":1,"LatLong":"18.5917,-69.8944"},{"Name":"Mejoramiento Social","Accuracy":1,"LatLong":"18.5985,-70.0136"},{"Name":"Maria Auxiliadora","Accuracy":4,"LatLong":"18.5,-69.8833"},{"Name":"La Fuente","Accuracy":4,"LatLong":"18.4833,-69.8833"},{"Name":"San Martin de Porres","Accuracy":4,"LatLong":"18.5,-69.8833"},{"Name":"Guachupita","Accuracy":4,"LatLong":"18.75,-69.4"},{"Name":"La Cienaga","Accuracy":4,"LatLong":"18.6167,-70.2333"},{"Name":"Los Guandules","Accuracy":4,"LatLong":"19.2833,-71.4"},{"Name":"Domingo Savio","Accuracy":3,"LatLong":"19.2833,-71.4"},{"Name":"Agua Dulce","Accuracy":4,"LatLong":"18.5,-69.8833"},{"Name":"27 de Febrero","Accuracy":3,"LatLong":"18.5,-69.8833"},{"Name":"Maria Auxiliadora","Accuracy":4,"LatLong":"18.5,-69.8833"},{"Name":"Mejoramiento Social","Accuracy":1,"LatLong":"18.5985,-70.0136"},{"Name":"Villa Maria","Accuracy":4,"LatLong":"18.4833,-69.9"},{"Name":"Villa Consuelo","Accuracy":4,"LatLong":"18.4833,-69.9"},{"Name":"Villa Consuelo","Accuracy":4,"LatLong":"18.4833,-69.9"},{"Name":"Ensanche Luperon","Accuracy":4,"LatLong":"18.5,-69.9"},{"Name":"Ensanche Espaillat","Accuracy":4,"LatLong":"18.5,-69.8833"},{"Name":"Gualey","Accuracy":1,"LatLong":"18.5,-69.9167"},{"Name":"24 de Abril","Accuracy":1,"LatLong":"18.5,-69.9167"},{"Name":"Simon Bolivar","Accuracy":4,"LatLong":"18.5,-69.9"},{"Name":"Ensanche Luperon","Accuracy":4,"LatLong":"18.5,-69.9"},{"Name":"Capotillo","Accuracy":4,"LatLong":"18.5,-69.9"},{"Name":"La Zurza","Accuracy":4,"LatLong":"18.5,-70.0167"},{"Name":"Villas Agricolas","Accuracy":1,"LatLong":"18.5,-69.9167"},{"Name":"La Caridad","Accuracy":4,"LatLong":"18.5,-69.9"},{"Name":"Villas Agricolas","Accuracy":3,"LatLong":"18.5,-69.9"},{"Name":"El Ensanchito","Accuracy":4,"LatLong":"18.4833,-69.9"},{"Name":"Villa Juana","Accuracy":1,"LatLong":"18.4917,-69.9"},{"Name":"Villa Juana","Accuracy":1,"LatLong":"18.4917,-69.9"},{"Name":"El Caliche","Accuracy":4,"LatLong":"18.4833,-69.9833"},{"Name":"Cristo Rey","Accuracy":4,"LatLong":"18.5,-69.9333"},{"Name":"Trueva","Accuracy":3,"LatLong":"18.4917,-69.9583"},{"Name":"Las Flores","Accuracy":4,"LatLong":"19.8,-70.7"},{"Name":"Santa Rosa","Accuracy":4,"LatLong":"18.5333,-70.0667"},{"Name":"La Cuarenta","Accuracy":4,"LatLong":"19.25,-70.4"},{"Name":"Yaquito","Accuracy":3,"LatLong":"19.1944,-70.3889"},{"Name":"La Isabela","Accuracy":4,"LatLong":"18.6667,-70.15"},{"Name":"Parque Isabela","Accuracy":3,"LatLong":"18.6667,-70.15"},{"Name":"Cuesta Hermosa III","Accuracy":1,"LatLong":"18.7218,-70.2474"},{"Name":"Isabel Villas","Accuracy":1,"LatLong":"18.7218,-70.2474"},{"Name":"Cerro de Arroyo Hdo.","Accuracy":1,"LatLong":"18.7218,-70.2474"},{"Name":"La Meseta","Accuracy":4,"LatLong":"18.7667,-70.9"},{"Name":"Arroyo Manzano","Accuracy":3,"LatLong":"18.5083,-70.3292"},{"Name":"Buena Vista","Accuracy":4,"LatLong":"18.3333,-70.2833"},{"Name":"Fundacion","Accuracy":4,"LatLong":"18.4167,-70.1667"},{"Name":"Pista de Motocros La Yuca","Accuracy":3,"LatLong":"18.5083,-70.3292"},{"Name":"Manzano","Accuracy":4,"LatLong":"18.5167,-69.9667"},{"Name":"Urb. Puerta de Hierro","Accuracy":3,"LatLong":"18.5083,-70.3292"},{"Name":"Cuesta Brava","Accuracy":3,"LatLong":"18.5083,-70.3292"},{"Name":"Altos de Arroyo Hondo II","Accuracy":1,"LatLong":"18.7218,-70.2474"},{"Name":"La Puya","Accuracy":3,"LatLong":"18.8167,-70.05"},{"Name":"Los Arroyos","Accuracy":4,"LatLong":"18.8167,-70.05"},{"Name":"Colinas de Arroyo Hondo","Accuracy":3,"LatLong":"18.8167,-70.05"},{"Name":"Cuesta Hermosa","Accuracy":3,"LatLong":"18.8167,-70.05"},{"Name":"Lomas de Arroyo Hondo","Accuracy":3,"LatLong":"18.8167,-70.05"},{"Name":"El Pino","Accuracy":4,"LatLong":"18.9,-70.2833"},{"Name":"Los Pinos","Accuracy":4,"LatLong":"18.4,-70.3333"},{"Name":"La Aldaba","Accuracy":3,"LatLong":"18.65,-70.3083"},{"Name":"La Agustinita","Accuracy":1,"LatLong":"18.7218,-70.2474"},{"Name":"Carmen Amelia","Accuracy":1,"LatLong":"18.7218,-70.2474"},{"Name":"Los Caminos","Accuracy":1,"LatLong":"18.4917,-69.9292"},{"Name":"Viejo Arroyo Hondo","Accuracy":1,"LatLong":"18.4917,-69.9292"},{"Name":"La Fe","Accuracy":4,"LatLong":"18.4833,-69.9333"},{"Name":"La Fe","Accuracy":4,"LatLong":"18.4833,-69.9333"},{"Name":"Ens. Kennedy","Accuracy":1,"LatLong":"18.4917,-69.9292"},{"Name":"Cachiman","Accuracy":1,"LatLong":"18.4917,-69.9292"},{"Name":"Ens. La Fe","Accuracy":1,"LatLong":"18.4917,-69.9292"},{"Name":"Barrio Obrero","Accuracy":4,"LatLong":"18.5,-69.9167"},{"Name":"La Agustina","Accuracy":4,"LatLong":"18.5,-69.9333"},{"Name":"Lanna Gautier","Accuracy":3,"LatLong":"18.5,-69.9333"},{"Name":"La Cementera","Accuracy":3,"LatLong":"18.5,-69.9333"},{"Name":"Constelacion","Accuracy":1,"LatLong":"18.58,-70.6767"},{"Name":"Los Proceres","Accuracy":1,"LatLong":"18.58,-70.6767"},{"Name":"Los Jardines del Norte","Accuracy":1,"LatLong":"18.58,-70.6767"},{"Name":"Las Villas","Accuracy":1,"LatLong":"18.58,-70.6767"},{"Name":"Los Rios","Accuracy":4,"LatLong":"18.8667,-71.25"},{"Name":"La Esperanza","Accuracy":4,"LatLong":"18.6,-70.5"},{"Name":"Altos de Arroyo Hdo. I","Accuracy":1,"LatLong":"18.58,-70.6767"},{"Name":"Cerros de Arroyo Hdo III","Accuracy":1,"LatLong":"18.58,-70.6767"},{"Name":"Altos de Arroyo Hdo. III","Accuracy":1,"LatLong":"18.58,-70.6767"},{"Name":"Residencial La Yuca","Accuracy":1,"LatLong":"18.58,-70.6767"},{"Name":"Colinas del Seminario","Accuracy":1,"LatLong":"18.58,-70.6767"},{"Name":"La Ceiba","Accuracy":4,"LatLong":"18.4333,-70.7833"},{"Name":"Los Guayabos","Accuracy":4,"LatLong":"18.6,-70.5167"},{"Name":"El Condado","Accuracy":3,"LatLong":"18.5167,-70.65"},{"Name":"Villa Claudia","Accuracy":3,"LatLong":"18.5167,-70.65"},{"Name":"Don Honorio","Accuracy":3,"LatLong":"18.5167,-70.65"},{"Name":"Los Pinos","Accuracy":4,"LatLong":"18.4,-70.3333"},{"Name":"Las Colinas","Accuracy":3,"LatLong":"18.4,-70.3333"},{"Name":"Villa Marina","Accuracy":3,"LatLong":"18.4,-70.3333"},{"Name":"Villa Elena","Accuracy":3,"LatLong":"18.4,-70.3333"},{"Name":"Pradera Hermosa","Accuracy":3,"LatLong":"18.4,-70.3333"},{"Name":"La Isabela","Accuracy":4,"LatLong":"18.6667,-70.15"},{"Name":"Pantoja","Accuracy":4,"LatLong":"18.5167,-70"},{"Name":"La Redencion","Accuracy":3,"LatLong":"18.5917,-70.075"},{"Name":"Batey Palmarejo","Accuracy":3,"LatLong":"18.5917,-70.075"},{"Name":"Lotificacion Vista Verde","Accuracy":3,"LatLong":"18.5917,-70.075"},{"Name":"Colinas del Norte","Accuracy":3,"LatLong":"18.5917,-70.075"},{"Name":"Los Angeles","Accuracy":4,"LatLong":"19.2833,-70.5667"},{"Name":"Los Peralejos","Accuracy":4,"LatLong":"19.0167,-70"},{"Name":"Los Girasoles","Accuracy":3,"LatLong":"19.15,-70.2833"},{"Name":"Reparto Miguelina","Accuracy":3,"LatLong":"19.15,-70.2833"},{"Name":"Urb. Brisa del Norte","Accuracy":3,"LatLong":"19.15,-70.2833"},{"Name":"Urbanizacion Palma Real","Accuracy":3,"LatLong":"19.15,-70.2833"},{"Name":"Palma Real","Accuracy":3,"LatLong":"19.15,-70.2833"},{"Name":"Reparto Samaria","Accuracy":3,"LatLong":"19.15,-70.2833"},{"Name":"Barrio La Esperanza","Accuracy":4,"LatLong":"19.05,-70.15"},{"Name":"El Tamarindo","Accuracy":4,"LatLong":"19.1667,-70.3833"},{"Name":"Barrio La Fe","Accuracy":4,"LatLong":"19.5667,-71.7167"},{"Name":"Los Alcarrizos","Accuracy":4,"LatLong":"18.5167,-70.0167"},{"Name":"Invi","Accuracy":3,"LatLong":"19.075,-70.5667"},{"Name":"Barrio La Union","Accuracy":3,"LatLong":"19.075,-70.5667"},{"Name":"Barrio Chavon","Accuracy":3,"LatLong":"19.075,-70.5667"},{"Name":"Obras Publicas","Accuracy":3,"LatLong":"19.075,-70.5667"},{"Name":"Barrio La Torre","Accuracy":3,"LatLong":"19.075,-70.5667"},{"Name":"Lebron","Accuracy":3,"LatLong":"19.075,-70.5667"},{"Name":"La Piñita","Accuracy":4,"LatLong":"19.15,-70.7"},{"Name":"Zona Franca de Los Alcarrizos","Accuracy":3,"LatLong":"19.15,-70.7"},{"Name":"Los Libertadores","Accuracy":3,"LatLong":"19.15,-70.7"},{"Name":"Barrio La Piña","Accuracy":3,"LatLong":"19.15,-70.7"},{"Name":"Los Americanos","Accuracy":3,"LatLong":"19.15,-70.7"},{"Name":"Villa San Felipe","Accuracy":3,"LatLong":"19.15,-70.7"},{"Name":"Los Alcarrizos III","Accuracy":3,"LatLong":"19.15,-70.7"},{"Name":"Valle Encantado","Accuracy":3,"LatLong":"19.15,-70.7"},{"Name":"Barrio Paraiso","Accuracy":3,"LatLong":"19.15,-70.7"},{"Name":"Barrio Landia","Accuracy":3,"LatLong":"19.15,-70.7"},{"Name":"Barrio Gran Poder de Dios","Accuracy":3,"LatLong":"19.15,-70.7"},{"Name":"La Compuerta","Accuracy":3,"LatLong":"19.15,-70.7"},{"Name":"24 de Abril","Accuracy":4,"LatLong":"19.85,-71.65"},{"Name":"Savica","Accuracy":4,"LatLong":"18.4833,-69.8333"},{"Name":"Varia","Accuracy":4,"LatLong":"18.5,-70.0333"},{"Name":"Urbanizacion Las Mercedes","Accuracy":3,"LatLong":"18.9444,-70.5056"},{"Name":"Barrio Las Mercedes","Accuracy":3,"LatLong":"18.9444,-70.5056"},{"Name":"El Chucho","Accuracy":3,"LatLong":"18.9444,-70.5056"},{"Name":"La Cienaga","Accuracy":4,"LatLong":"19.1333,-70.6667"},{"Name":"Villas Naco","Accuracy":3,"LatLong":"19.1333,-70.6667"},{"Name":"La Concordia","Accuracy":3,"LatLong":"19.1333,-70.6667"},{"Name":"Altos del Oeste","Accuracy":3,"LatLong":"19.1333,-70.6667"},{"Name":"El Catorce","Accuracy":3,"LatLong":"19.1333,-70.6667"},{"Name":"Pueblo Nuevo","Accuracy":4,"LatLong":"18.7333,-71.1833"},{"Name":"Nuevo Horizonte","Accuracy":3,"LatLong":"18.7333,-71.1833"},{"Name":"Puerto Rico","Accuracy":3,"LatLong":"18.7333,-71.1833"},{"Name":"Ciudad Codiana","Accuracy":3,"LatLong":"18.7333,-71.1833"},{"Name":"Las Crorias","Accuracy":3,"LatLong":"18.7333,-71.1833"},{"Name":"Barrio Arenoso","Accuracy":3,"LatLong":"18.7333,-71.1833"},{"Name":"Palmarejito","Accuracy":3,"LatLong":"18.7333,-71.1833"},{"Name":"Urb. San Rafael","Accuracy":3,"LatLong":"18.7333,-71.1833"},{"Name":"Cerros de Palmarejo","Accuracy":3,"LatLong":"18.7333,-71.1833"},{"Name":"Nuevo Amanecer","Accuracy":3,"LatLong":"18.7333,-71.1833"},{"Name":"Barrio Progreso","Accuracy":3,"LatLong":"18.7333,-71.1833"},{"Name":"El Caliche","Accuracy":4,"LatLong":"18.4833,-69.9833"},{"Name":"Urb. Las Palmas","Accuracy":3,"LatLong":"18.4833,-69.9833"},{"Name":"Urb. Olimpo","Accuracy":3,"LatLong":"18.4833,-69.9833"},{"Name":"Villa Aura","Accuracy":3,"LatLong":"18.4833,-69.9833"},{"Name":"La Venta","Accuracy":4,"LatLong":"18.4833,-69.9667"},{"Name":"San Miguel","Accuracy":4,"LatLong":"18.5,-70.0167"},{"Name":"Hato Nuevo","Accuracy":4,"LatLong":"18.4833,-70.0333"},{"Name":"Manoguayabo","Accuracy":4,"LatLong":"18.4833,-70"},{"Name":"Buenas Noches","Accuracy":4,"LatLong":"18.4833,-70.05"},{"Name":"Bella Colina","Accuracy":3,"LatLong":"18.4867,-70.0133"},{"Name":"Residencial Alameda","Accuracy":3,"LatLong":"18.4867,-70.0133"},{"Name":"Villa Peravia","Accuracy":3,"LatLong":"18.4867,-70.0133"},{"Name":"Residencial Almendra","Accuracy":3,"LatLong":"18.4867,-70.0133"},{"Name":"Alameda","Accuracy":3,"LatLong":"18.4867,-70.0133"},{"Name":"Batey Bienvenido","Accuracy":3,"LatLong":"18.4867,-70.0133"},{"Name":"Barrio Antillano","Accuracy":3,"LatLong":"18.4867,-70.0133"},{"Name":"Bayona","Accuracy":4,"LatLong":"18.4667,-70"},{"Name":"Villa Nazaret","Accuracy":3,"LatLong":"18.4667,-70"},{"Name":"Rivera del Haina","Accuracy":3,"LatLong":"18.4667,-70"},{"Name":"Paraiso del Caribe","Accuracy":3,"LatLong":"18.4667,-70"},{"Name":"El Palmar","Accuracy":4,"LatLong":"18.45,-69.9833"},{"Name":"Ens. Ivan Guzman Klan","Accuracy":3,"LatLong":"18.45,-69.9833"},{"Name":"El Abanico de Herrera","Accuracy":3,"LatLong":"18.45,-69.9833"},{"Name":"Engome","Accuracy":3,"LatLong":"18.45,-69.9833"},{"Name":"Rosa Maria","Accuracy":3,"LatLong":"18.45,-69.9833"},{"Name":"Residencial Loyola","Accuracy":3,"LatLong":"18.45,-69.9833"},{"Name":"Lotificacion Engombe","Accuracy":3,"LatLong":"18.45,-69.9833"},{"Name":"Las Caobas","Accuracy":4,"LatLong":"18.45,-70.4667"},{"Name":"Ciudad Agraria","Accuracy":3,"LatLong":"18.45,-70.4667"},{"Name":"Las Caobitas","Accuracy":3,"LatLong":"18.45,-70.4667"},{"Name":"Zona Industrial de Herrera","Accuracy":1,"LatLong":"19.3367,-71.3267"},{"Name":"Barrio Enriquillo","Accuracy":1,"LatLong":"19.3367,-71.3267"},{"Name":"Barrio Holguin","Accuracy":1,"LatLong":"19.3367,-71.3267"},{"Name":"Las Palmas","Accuracy":4,"LatLong":"19.1,-71.6333"},{"Name":"Barrio Buenos Aires","Accuracy":3,"LatLong":"19.1,-71.6333"},{"Name":"Juan Pablo Duarte","Accuracy":3,"LatLong":"19.1,-71.6333"},{"Name":"Duarte","Accuracy":3,"LatLong":"19.1,-71.6333"},{"Name":"La Rosa","Accuracy":4,"LatLong":"19.1333,-71.2833"},{"Name":"San Francisco","Accuracy":4,"LatLong":"19.5333,-71.6167"},{"Name":"Luz Divina","Accuracy":3,"LatLong":"19.3333,-71.45"},{"Name":"Urb. El Rosal","Accuracy":3,"LatLong":"19.3333,-71.45"},{"Name":"Galaxia","Accuracy":3,"LatLong":"19.3333,-71.45"},{"Name":"Barrio Libertador","Accuracy":4,"LatLong":"19.5667,-71.7167"},{"Name":"Herrera","Accuracy":4,"LatLong":"19.35,-70.3833"},{"Name":"Barrio Josue","Accuracy":3,"LatLong":"19.4583,-71.05"},{"Name":"Ens. Paraiso","Accuracy":3,"LatLong":"19.4583,-71.05"},{"Name":"Atlantida","Accuracy":1,"LatLong":"18.65,-69.75"},{"Name":"Aesa","Accuracy":1,"LatLong":"18.65,-69.75"},{"Name":"16 de Agosto","Accuracy":1,"LatLong":"18.65,-69.75"},{"Name":"Barrio Invi","Accuracy":1,"LatLong":"18.65,-69.75"},{"Name":"Mirador","Accuracy":4,"LatLong":"18.8333,-69.8333"},{"Name":"Buenos Aires del","Accuracy":4,"LatLong":"18.8167,-69.05"},{"Name":"Costa Caribe","Accuracy":3,"LatLong":"18.825,-69.4417"},{"Name":"Residencial Jose Contreras","Accuracy":3,"LatLong":"18.825,-69.4417"},{"Name":"Gacela","Accuracy":3,"LatLong":"18.825,-69.4417"},{"Name":"Km. 8","Accuracy":1,"LatLong":"18.65,-69.75"},{"Name":"Nordesa III","Accuracy":1,"LatLong":"18.65,-69.75"},{"Name":"Miramar","Accuracy":1,"LatLong":"18.65,-69.75"},{"Name":"Las Acacias","Accuracy":1,"LatLong":"18.65,-69.75"},{"Name":"Mar Azul","Accuracy":1,"LatLong":"18.65,-69.75"},{"Name":"San Jose","Accuracy":4,"LatLong":"18.5,-69.8167"},{"Name":"Km. 7","Accuracy":3,"LatLong":"18.5,-69.8167"},{"Name":"Dominicanos Ausentes","Accuracy":3,"LatLong":"18.5,-69.8167"},{"Name":"Tropicana","Accuracy":3,"LatLong":"18.5,-69.8167"},{"Name":"Jardines del Sur","Accuracy":3,"LatLong":"18.5,-69.8167"},{"Name":"San Miguel","Accuracy":4,"LatLong":"18.5,-70.0167"},{"Name":"Resd. Enriquillo","Accuracy":3,"LatLong":"18.5,-70.0167"},{"Name":"Loteria","Accuracy":3,"LatLong":"18.5,-70.0167"},{"Name":"El Pedregal","Accuracy":4,"LatLong":"18.6,-70.0333"},{"Name":"Sandra I","Accuracy":3,"LatLong":"18.6,-70.0333"},{"Name":"Sandra","Accuracy":3,"LatLong":"18.6,-70.0333"},{"Name":"Luz Consuelo","Accuracy":3,"LatLong":"18.6,-70.0333"},{"Name":"Los Cacicazgos","Accuracy":1,"LatLong":"18.65,-69.75"},{"Name":"Mirador Sur","Accuracy":1,"LatLong":"18.65,-69.75"},{"Name":"Los Maestros","Accuracy":1,"LatLong":"18.4278,-70"},{"Name":"Renacimiento","Accuracy":1,"LatLong":"18.4278,-70"},{"Name":"Urb. Real","Accuracy":1,"LatLong":"18.4278,-70"},{"Name":"Renacimiento","Accuracy":1,"LatLong":"18.4278,-70"},{"Name":"Zona Industrial de Herrera","Accuracy":1,"LatLong":"18.4278,-70"},{"Name":"Res. Santo Domingo","Accuracy":1,"LatLong":"18.4278,-70"},{"Name":"Ensanche Altagracia","Accuracy":1,"LatLong":"18.4278,-70"},{"Name":"El Café","Accuracy":4,"LatLong":"18.4333,-70"},{"Name":"Colinas de Canaan","Accuracy":3,"LatLong":"18.4333,-70"},{"Name":"Barrio Paraiso","Accuracy":3,"LatLong":"18.4333,-70"},{"Name":"Villas del Café","Accuracy":1,"LatLong":"18.4278,-70"},{"Name":"12 de Haina","Accuracy":1,"LatLong":"18.4278,-70"},{"Name":"Residencial Canaan","Accuracy":1,"LatLong":"18.4278,-70"},{"Name":"Costa Verde","Accuracy":4,"LatLong":"18.4167,-70"},{"Name":"La Placeta","Accuracy":4,"LatLong":"18.4333,-70"},{"Name":"Puerto de Haina","Accuracy":3,"LatLong":"18.425,-70"},{"Name":"Manresa","Accuracy":3,"LatLong":"18.425,-70"},{"Name":"Costa Azul","Accuracy":3,"LatLong":"18.425,-70"},{"Name":"El Mamey","Accuracy":4,"LatLong":"18.4333,-70.2667"},{"Name":"Villa Mella","Accuracy":4,"LatLong":"18.55,-69.9"},{"Name":"Villa Satelite","Accuracy":3,"LatLong":"18.4917,-70.0833"},{"Name":"Jardines de Genovena","Accuracy":3,"LatLong":"18.4917,-70.0833"},{"Name":"Haras Nacionales","Accuracy":3,"LatLong":"18.4917,-70.0833"},{"Name":"Vista Bella","Accuracy":3,"LatLong":"18.4917,-70.0833"},{"Name":"Rep. Villa Maria","Accuracy":3,"LatLong":"18.4917,-70.0833"},{"Name":"Urb. Sarah Gabriela","Accuracy":3,"LatLong":"18.4917,-70.0833"},{"Name":"Villa Carmela","Accuracy":3,"LatLong":"18.4917,-70.0833"},{"Name":"Villa Nueva","Accuracy":3,"LatLong":"18.4917,-70.0833"},{"Name":"Valle Verde","Accuracy":3,"LatLong":"18.4917,-70.0833"},{"Name":"Marañon","Accuracy":3,"LatLong":"18.4917,-70.0833"},{"Name":"Mata Los Indios","Accuracy":4,"LatLong":"18.5667,-69.9167"},{"Name":"Marañon II","Accuracy":3,"LatLong":"18.5667,-69.9167"},{"Name":"Ensanche Paraiso","Accuracy":3,"LatLong":"18.5667,-69.9167"},{"Name":"Urb. El Remanso","Accuracy":3,"LatLong":"18.5667,-69.9167"},{"Name":"Res. El Dorado","Accuracy":3,"LatLong":"18.5667,-69.9167"},{"Name":"Carlos Alvarez","Accuracy":3,"LatLong":"18.5667,-69.9167"},{"Name":"Barrio Nuevo","Accuracy":4,"LatLong":"18,-71.2167"},{"Name":"Urb. Primavera","Accuracy":3,"LatLong":"18,-71.2167"},{"Name":"Colonia de Los Doctores","Accuracy":3,"LatLong":"18,-71.2167"},{"Name":"Maria Isabela","Accuracy":3,"LatLong":"18,-71.2167"},{"Name":"Los Conucos","Accuracy":4,"LatLong":"18.6,-70.15"},{"Name":"El Fundo","Accuracy":4,"LatLong":"18.5167,-70.15"},{"Name":"Suriel","Accuracy":4,"LatLong":"18.9667,-70.7"},{"Name":"Urb. Santa Cruz","Accuracy":3,"LatLong":"18.6944,-70.3333"},{"Name":"El Torito","Accuracy":4,"LatLong":"18.7667,-70.45"},{"Name":"Isabela","Accuracy":4,"LatLong":"18.5333,-69.9833"},{"Name":"Santa Cruz","Accuracy":4,"LatLong":"18.55,-70.1167"},{"Name":"Zona Industrial de La Isabela","Accuracy":3,"LatLong":"18.6167,-70.1833"},{"Name":"Res. Sol de Luz","Accuracy":3,"LatLong":"18.6167,-70.1833"},{"Name":"Urb. Maximo Gomez","Accuracy":3,"LatLong":"18.6167,-70.1833"},{"Name":"De Villa Mella","Accuracy":1,"LatLong":"18.5833,-70.2652"},{"Name":"Cerros de Buena Vista I","Accuracy":1,"LatLong":"18.5833,-70.2652"},{"Name":"Cerros de Buena Vista II","Accuracy":1,"LatLong":"18.5833,-70.2652"},{"Name":"Zona Industrial de Villa Mella","Accuracy":1,"LatLong":"18.5833,-70.2652"},{"Name":"Ceuta","Accuracy":1,"LatLong":"18.5833,-70.2652"},{"Name":"La Javilla","Accuracy":4,"LatLong":"18.9333,-70.0667"},{"Name":"Campechito II","Accuracy":3,"LatLong":"18.9333,-70.0667"},{"Name":"Radiante","Accuracy":3,"LatLong":"18.9333,-70.0667"},{"Name":"La Antena","Accuracy":3,"LatLong":"18.9333,-70.0667"},{"Name":"El Eden","Accuracy":3,"LatLong":"18.9333,-70.0667"},{"Name":"Cruz Grande (Villa Mella Y Sabana Perdida )","Accuracy":3,"LatLong":"18.9333,-70.0667"},{"Name":"Reparto Rudima","Accuracy":3,"LatLong":"18.9333,-70.0667"},{"Name":"Barrio Norte","Accuracy":4,"LatLong":"19.5833,-70.9833"},{"Name":"Proyecto Ciudad","Accuracy":3,"LatLong":"19.5833,-70.9833"},{"Name":"Guaricanos","Accuracy":3,"LatLong":"19.5833,-70.9833"},{"Name":"Nueva Isabela","Accuracy":3,"LatLong":"19.5833,-70.9833"},{"Name":"Modelo","Accuracy":3,"LatLong":"19.5833,-70.9833"},{"Name":"Jacagua","Accuracy":4,"LatLong":"18.55,-69.95"},{"Name":"Barrio Hnas. Mirabal","Accuracy":3,"LatLong":"18.3722,-70.3722"},{"Name":"Los Casabes","Accuracy":4,"LatLong":"18.5667,-69.95"},{"Name":"Barrio Nuevo","Accuracy":4,"LatLong":"18,-71.2167"},{"Name":"Altos del Parque","Accuracy":3,"LatLong":"18.3722,-70.3722"},{"Name":"Las Palmeras","Accuracy":3,"LatLong":"18.3722,-70.3722"},{"Name":"Proyecto Bnv","Accuracy":3,"LatLong":"18.3722,-70.3722"},{"Name":"Ponce","Accuracy":3,"LatLong":"18.3722,-70.3722"},{"Name":"El Majagual","Accuracy":4,"LatLong":"19.0333,-70.3"},{"Name":"Lotes Y Servicios","Accuracy":3,"LatLong":"19.0333,-70.3"},{"Name":"Villa Esperanza","Accuracy":4,"LatLong":"19.3833,-71.65"},{"Name":"Barrio Nuevo","Accuracy":4,"LatLong":"18,-71.2167"},{"Name":"Altos de Chavon","Accuracy":3,"LatLong":"18.6222,-71.2111"},{"Name":"La Mina","Accuracy":4,"LatLong":"18.4833,-70.7667"},{"Name":"Cerros de La Yuca","Accuracy":3,"LatLong":"18.6222,-71.2111"},{"Name":"El Milloncito","Accuracy":3,"LatLong":"18.6222,-71.2111"},{"Name":"Res. Noelia","Accuracy":3,"LatLong":"18.6222,-71.2111"},{"Name":"Libertad","Accuracy":4,"LatLong":"19.4833,-70.7333"},{"Name":"Progreso","Accuracy":3,"LatLong":"19.4833,-70.7333"},{"Name":"Urb. Charles de Gaulle","Accuracy":3,"LatLong":"19.4833,-70.7333"},{"Name":"Los Palmares","Accuracy":3,"LatLong":"19.4833,-70.7333"},{"Name":"La Barquita","Accuracy":4,"LatLong":"18.5,-69.9167"},{"Name":"Sabana Perdida","Accuracy":4,"LatLong":"18.55,-69.8667"},{"Name":"2 de Enero","Accuracy":3,"LatLong":"18.525,-69.8917"},{"Name":"Cerros de Sabana Perdida","Accuracy":3,"LatLong":"18.525,-69.8917"},{"Name":"Ensanche Cristal","Accuracy":3,"LatLong":"18.525,-69.8917"},{"Name":"Colinas del Ozama","Accuracy":3,"LatLong":"18.525,-69.8917"},{"Name":"Sabana Centro","Accuracy":3,"LatLong":"18.525,-69.8917"},{"Name":"Altos de Sabana Perdida","Accuracy":3,"LatLong":"18.525,-69.8917"},{"Name":"Los Coordinadores","Accuracy":1,"LatLong":"18.7762,-70.6357"},{"Name":"Villa Blanca","Accuracy":1,"LatLong":"18.7762,-70.6357"},{"Name":"Enrriquillo","Accuracy":1,"LatLong":"18.7762,-70.6357"},{"Name":"Salome Ureña","Accuracy":1,"LatLong":"18.7762,-70.6357"},{"Name":"Loteria","Accuracy":1,"LatLong":"18.7762,-70.6357"},{"Name":"Ensanche Ozama","Accuracy":4,"LatLong":"18.4833,-69.8667"},{"Name":"Molinuevo","Accuracy":1,"LatLong":"18.7667,-70.3267"},{"Name":"Jardines de Alma Rosa","Accuracy":1,"LatLong":"18.7667,-70.3267"},{"Name":"Ens. Alma Rosa (Lado Oeste)","Accuracy":1,"LatLong":"18.7667,-70.3267"},{"Name":"Ens. Alma Rosa (Lado Este)","Accuracy":1,"LatLong":"18.7667,-70.3267"},{"Name":"Villa Faro","Accuracy":4,"LatLong":"18.5,-69.85"},{"Name":"El Rosal","Accuracy":1,"LatLong":"18.7667,-70.3267"},{"Name":"Alma Rosa II","Accuracy":1,"LatLong":"18.7667,-70.3267"},{"Name":"Ivette","Accuracy":1,"LatLong":"18.7667,-70.3267"},{"Name":"Urb. Italia","Accuracy":1,"LatLong":"18.7667,-70.3267"},{"Name":"Savica","Accuracy":4,"LatLong":"18.4833,-69.8333"},{"Name":"Ralma","Accuracy":3,"LatLong":"18.4833,-69.8333"},{"Name":"La Esperanza","Accuracy":4,"LatLong":"18.6,-70.5"},{"Name":"Vecinos Unidos","Accuracy":3,"LatLong":"18.6,-70.5"},{"Name":"Urb. Amanda","Accuracy":3,"LatLong":"18.6,-70.5"},{"Name":"Franconia","Accuracy":3,"LatLong":"18.6,-70.5"},{"Name":"Loteria","Accuracy":3,"LatLong":"18.6,-70.5"},{"Name":"Paraiso Oriental","Accuracy":3,"LatLong":"18.6,-70.5"},{"Name":"Isabel","Accuracy":4,"LatLong":"19.7667,-71.5833"},{"Name":"Mi Sueño","Accuracy":3,"LatLong":"19.7667,-71.5833"},{"Name":"Hamarap","Accuracy":3,"LatLong":"19.7667,-71.5833"},{"Name":"Res. Oriente","Accuracy":3,"LatLong":"19.7667,-71.5833"},{"Name":"Alpes I","Accuracy":3,"LatLong":"19.7667,-71.5833"},{"Name":"Bello Campo","Accuracy":3,"LatLong":"19.7667,-71.5833"},{"Name":"Sol Naciente","Accuracy":3,"LatLong":"19.7667,-71.5833"},{"Name":"Mendoza","Accuracy":4,"LatLong":"18.5,-69.8167"},{"Name":"Carolina","Accuracy":3,"LatLong":"18.5,-69.8167"},{"Name":"Res. del Este","Accuracy":3,"LatLong":"18.5,-69.8167"},{"Name":"El Brisal","Accuracy":3,"LatLong":"18.5,-69.8167"},{"Name":"Mi Hogar","Accuracy":3,"LatLong":"18.5,-69.8167"},{"Name":"Las Palmas","Accuracy":4,"LatLong":"18.5,-70.3333"},{"Name":"Rep. Alma Rosa","Accuracy":3,"LatLong":"18.5,-70.3333"},{"Name":"Mandinga","Accuracy":4,"LatLong":"18.5,-69.8333"},{"Name":"Cancino II","Accuracy":3,"LatLong":"18.5,-69.8333"},{"Name":"Cancino I","Accuracy":3,"LatLong":"18.5,-69.8333"},{"Name":"Duarte","Accuracy":3,"LatLong":"18.5,-69.8333"},{"Name":"Narcisa","Accuracy":3,"LatLong":"18.5,-69.8333"},{"Name":"Los Trinitarios","Accuracy":3,"LatLong":"18.5,-69.8333"},{"Name":"Cabirma del Este I","Accuracy":1,"LatLong":"18.5083,-69.9361"},{"Name":"Res. Lomisa","Accuracy":1,"LatLong":"18.5083,-69.9361"},{"Name":"Res. Idalia A I","Accuracy":1,"LatLong":"18.5083,-69.9361"},{"Name":"El Cachon","Accuracy":4,"LatLong":"18.5,-69.9333"},{"Name":"Prados del Cachon","Accuracy":3,"LatLong":"18.5,-69.9333"},{"Name":"Cancino","Accuracy":4,"LatLong":"18.5167,-69.85"},{"Name":"Lucerna","Accuracy":3,"LatLong":"18.5167,-69.85"},{"Name":"Cancino Adentro","Accuracy":4,"LatLong":"18.5333,-69.85"},{"Name":"Res. Don Oscar","Accuracy":3,"LatLong":"18.5333,-69.85"},{"Name":"Vista Hermosa","Accuracy":3,"LatLong":"18.5333,-69.85"},{"Name":"El Cachon de La Rubia","Accuracy":3,"LatLong":"18.5333,-69.85"},{"Name":"Colinas del Este","Accuracy":3,"LatLong":"18.5333,-69.85"},{"Name":"San Pablo II","Accuracy":1,"LatLong":"18.5083,-69.9361"},{"Name":"Res. Amapola","Accuracy":1,"LatLong":"18.5083,-69.9361"},{"Name":"Altos de Cancino","Accuracy":1,"LatLong":"18.5083,-69.9361"},{"Name":"Pueblo Nuevo","Accuracy":4,"LatLong":"18.4333,-70.1667"},{"Name":"Calero","Accuracy":4,"LatLong":"18.4833,-69.8833"},{"Name":"Simonico","Accuracy":4,"LatLong":"18.4833,-69.8667"},{"Name":"Villa Duarte","Accuracy":4,"LatLong":"18.4833,-69.8667"},{"Name":"La Francia","Accuracy":4,"LatLong":"18.4667,-69.8667"},{"Name":"Parque del Este I","Accuracy":1,"LatLong":"18.4722,-69.9167"},{"Name":"Los Molinos","Accuracy":1,"LatLong":"18.4722,-69.9167"},{"Name":"San Souci","Accuracy":1,"LatLong":"18.4722,-69.9167"},{"Name":"Res. Parque del Este","Accuracy":1,"LatLong":"18.4722,-69.9167"},{"Name":"Faro A Colon","Accuracy":1,"LatLong":"18.4722,-69.9167"},{"Name":"Maquiteria","Accuracy":1,"LatLong":"18.4722,-69.9167"},{"Name":"Parque Mirador Este","Accuracy":1,"LatLong":"18.4722,-69.9167"},{"Name":"Los Tres Ojos","Accuracy":4,"LatLong":"18.4833,-69.85"},{"Name":"Villa Olimpica","Accuracy":1,"LatLong":"18.4722,-69.9167"},{"Name":"Las Americas","Accuracy":1,"LatLong":"18.4722,-69.9167"},{"Name":"Corales del Sur","Accuracy":1,"LatLong":"18.4667,-69.825"},{"Name":"Res. Teresa","Accuracy":1,"LatLong":"18.4667,-69.825"},{"Name":"Tropical del Este","Accuracy":1,"LatLong":"18.4667,-69.825"},{"Name":"Los Frailes","Accuracy":4,"LatLong":"18.4667,-69.8167"},{"Name":"Arismar","Accuracy":3,"LatLong":"18.4667,-69.8167"},{"Name":"Marbella III","Accuracy":3,"LatLong":"18.4667,-69.8167"},{"Name":"San Bartolo","Accuracy":4,"LatLong":"18.4667,-69.8333"},{"Name":"Los Frailes II","Accuracy":3,"LatLong":"18.4667,-69.8333"},{"Name":"Reparto Caribe","Accuracy":3,"LatLong":"18.4667,-69.8333"},{"Name":"Lotificacion del Este","Accuracy":1,"LatLong":"18.4667,-69.825"},{"Name":"Villa Adela","Accuracy":1,"LatLong":"18.4667,-69.825"},{"Name":"Villa Eloisa","Accuracy":1,"LatLong":"18.4667,-69.825"},{"Name":"Mirador Este","Accuracy":1,"LatLong":"18.4667,-69.825"},{"Name":"Issfapol","Accuracy":1,"LatLong":"18.5028,-69.9139"},{"Name":"Los Molinos","Accuracy":1,"LatLong":"18.5028,-69.9139"},{"Name":"Los Trinitarios II","Accuracy":1,"LatLong":"18.5028,-69.9139"},{"Name":"Ana Virginia","Accuracy":1,"LatLong":"18.5028,-69.9139"},{"Name":"Trabajadores","Accuracy":1,"LatLong":"18.5028,-69.9139"},{"Name":"Rep. Villa Carmen","Accuracy":1,"LatLong":"18.5028,-69.9139"},{"Name":"Invivienda","Accuracy":1,"LatLong":"18.5028,-69.9139"},{"Name":"Villa Carmen","Accuracy":1,"LatLong":"18.5028,-69.9139"},{"Name":"Ciudad de Los Trabajadores","Accuracy":1,"LatLong":"18.5028,-69.9139"},{"Name":"Eugenio M. de Hostos","Accuracy":1,"LatLong":"18.5028,-69.9139"},{"Name":"San Jose de Mendoza","Accuracy":4,"LatLong":"18.5,-69.8167"},{"Name":"Brisa del Eden","Accuracy":3,"LatLong":"18.5,-69.8167"},{"Name":"Barrio Brisa de Charles","Accuracy":3,"LatLong":"18.5,-69.8167"},{"Name":"Res. Clarimar","Accuracy":3,"LatLong":"18.5,-69.8167"},{"Name":"Nuevo Amanecer","Accuracy":1,"LatLong":"18.5028,-69.9139"},{"Name":"Amarilis III","Accuracy":1,"LatLong":"18.5028,-69.9139"},{"Name":"Res. Mirador del Este","Accuracy":1,"LatLong":"18.5028,-69.9139"},{"Name":"Res. Fernandez Oriental","Accuracy":1,"LatLong":"18.5028,-69.9139"},{"Name":"Barrio John F. Kennedy","Accuracy":1,"LatLong":"18.5028,-69.9139"},{"Name":"Villa Esfuerzo","Accuracy":1,"LatLong":"18.5028,-69.9139"},{"Name":"Los Restauradores","Accuracy":1,"LatLong":"18.5028,-69.9139"},{"Name":"Buena Ventura II","Accuracy":1,"LatLong":"18.5028,-69.9139"},{"Name":"Ciudad del Almirante II","Accuracy":1,"LatLong":"18.5028,-69.9139"},{"Name":"Ciudad del Almirante I","Accuracy":1,"LatLong":"18.5028,-69.9139"},{"Name":"Zona Franca Industrial de Herrera","Accuracy":1,"LatLong":"18.5028,-69.9139"},{"Name":"Hainamosa","Accuracy":4,"LatLong":"18.5167,-69.8333"},{"Name":"Los Pinos","Accuracy":4,"LatLong":"18.4,-70.3333"},{"Name":"Invimosa","Accuracy":3,"LatLong":"18.4583,-70.0833"},{"Name":"Parque Ind. Nueva Isabela","Accuracy":3,"LatLong":"18.4583,-70.0833"},{"Name":"Invi Cea","Accuracy":3,"LatLong":"18.4583,-70.0833"},{"Name":"Nuevo Renacer","Accuracy":3,"LatLong":"18.4583,-70.0833"},{"Name":"Urb. Ana T. Balaguer","Accuracy":3,"LatLong":"18.4583,-70.0833"},{"Name":"Sabaneta","Accuracy":4,"LatLong":"18.55,-69.8"},{"Name":"Batey La Balsa","Accuracy":4,"LatLong":"18.5167,-69.2167"},{"Name":"Batey Piragua","Accuracy":3,"LatLong":"18.5333,-69.5083"},{"Name":"El Tamarindo","Accuracy":4,"LatLong":"18.5333,-70.4833"},{"Name":"Cabirma del Este II","Accuracy":3,"LatLong":"18.5333,-70.4833"},{"Name":"Barrio Paraiso","Accuracy":3,"LatLong":"18.5333,-70.4833"},{"Name":"Residencial Don Oscar","Accuracy":3,"LatLong":"18.5333,-70.4833"},{"Name":"Los Rosales","Accuracy":3,"LatLong":"18.5333,-70.4833"},{"Name":"La Milagrosa","Accuracy":4,"LatLong":"18.5667,-68.9167"},{"Name":"Pidoca","Accuracy":3,"LatLong":"18.5667,-68.9167"},{"Name":"Los Mina Sur","Accuracy":3,"LatLong":"18.5667,-68.9167"},{"Name":"San Antonio","Accuracy":4,"LatLong":"18.7667,-70.0333"},{"Name":"Felicidad","Accuracy":3,"LatLong":"18.7667,-70.0333"},{"Name":"Vietnan","Accuracy":3,"LatLong":"18.7667,-70.0333"},{"Name":"Los Mina Norte","Accuracy":1,"LatLong":"18.7278,-69.3944"},{"Name":"Katanga","Accuracy":1,"LatLong":"18.7278,-69.3944"},{"Name":"Francisco del","Accuracy":4,"LatLong":"18.85,-69.2333"},{"Name":"Las Frutas","Accuracy":3,"LatLong":"18.85,-69.2333"},{"Name":"Rosario Sanchez","Accuracy":3,"LatLong":"18.85,-69.2333"},{"Name":"Cerros del Ozama","Accuracy":3,"LatLong":"18.85,-69.2333"},{"Name":"Puerto Rico","Accuracy":3,"LatLong":"18.85,-69.2333"},{"Name":"Mil Flores","Accuracy":1,"LatLong":"18.7278,-69.3944"},{"Name":"Los 3 Brazos","Accuracy":1,"LatLong":"18.7278,-69.3944"},{"Name":"Los Mina Viejo","Accuracy":1,"LatLong":"18.7278,-69.3944"},{"Name":"Las Enfermeras","Accuracy":1,"LatLong":"18.7278,-69.3944"}]}