{"States":[{"Name":"Monaco","Code":"01","Provinces":[{"Name":"Monaco","Code":"01","Communities":[{"Name":"Monaco","Places":[{"PostCode":"98000","LatLong":"43.7333,7.4"},{"Name":"Commune de Monaco","PostCode":"98000","LatLong":"43.7333,7.4"},{"Name":"Réserve Sous-marine de Monaco","PostCode":"98000","LatLong":"43.7458,7.4394"}]},{"Name":"Monaco-Ville","Places":[{"Name":"Pointe Saint-Martin","PostCode":"98000","LatLong":"43.7306,7.425"},{"Name":"Jardin Exotique","PostCode":"98000","LatLong":"43.7167,7.4"},{"PostCode":"98000","LatLong":"43.7333,7.4167"},{"Name":"Rocher de Monaco","PostCode":"98000","LatLong":"43.7333,7.4333"},{"Name":"Ciappaira","PostCode":"98000","LatLong":"43.7167,7.4167"},{"Name":"Pointe de la Poudrière","PostCode":"98000","LatLong":"43.7319,7.4278"}]},{"Name":"La Condamine","Places":[{"Name":"Condamine","PostCode":"98000","LatLong":"43.7333,7.4167"},{"PostCode":"98000","LatLong":"43.7333,7.4167"},{"Name":"Port de La Condamine","PostCode":"98000","LatLong":"43.7361,7.425"},{"Name":"Port de Monaco","PostCode":"98000","LatLong":"43.7361,7.425"}]},{"Name":"Fontvieille","Places":[{"PostCode":"98000","LatLong":"43.7333,7.4167"},{"Name":"Port de Fontvieille","PostCode":"98000","LatLong":"43.7306,7.4208"},{"Name":"Port Hercule","PostCode":"98000","LatLong":"43.7361,7.425"},{"Name":"Pointe Sainte-Barbe","PostCode":"98000","LatLong":"43.7167,7.4167"},{"Name":"Anse de Canton","PostCode":"98000","LatLong":"43.7333,7.4167"},{"Name":"Stade Louis Deux","PostCode":"98000","LatLong":"43.7167,7.4167"}]},{"Name":"Larvotto","Places":[{"Name":"Plage du Larvotto","PostCode":"98000","LatLong":"43.7333,7.4333"},{"PostCode":"98000","LatLong":"43.7333,7.4333"},{"Name":"Jardin Japonais","PostCode":"98000","LatLong":"43.7333,7.4167"},{"Name":"Réserve Sous-marine du Larvotto","PostCode":"98000","LatLong":"43.7458,7.4394"},{"Name":"Pointe Saint-Antoine","PostCode":"98000","LatLong":"43.7333,7.4278"},{"Name":"Anse du Portier","PostCode":"98000","LatLong":"43.7417,7.4322"}]},{"Name":"Monte-Carlo","Places":[{"Name":"Anse de la Grue","PostCode":"98000","LatLong":"43.7306,7.4217"},{"Name":"Pointe Focinana","PostCode":"98000","LatLong":"43.7333,7.4333"},{"PostCode":"98000","LatLong":"43.7333,7.4167"}]},{"Name":"Les Moneghetti","Places":[{"PostCode":"98000","LatLong":"43.7375,7.4153"}]}]}]}]}