{"Places":[{"Name":"Skopje","Accuracy":4,"LatLong":"42,21.4333"},{"Name":"Skopje","Accuracy":4,"LatLong":"42,21.4333"},{"Name":"Kuceviste","Accuracy":4,"LatLong":"42.1097,21.4181"},{"Name":"Skopje-Karpos 3","LatLong":"41.9367,21.5217"},{"Name":"Skopje","Accuracy":4,"LatLong":"42,21.4333"},{"Name":"Ilinden","Accuracy":4,"LatLong":"41.9961,21.5822"},{"Name":"Miladinovci","Accuracy":4,"LatLong":"41.9781,21.6494"},{"Name":"Petrovec","Accuracy":4,"LatLong":"41.9389,21.615"},{"Name":"Katlanovo","Accuracy":4,"LatLong":"41.8944,21.6831"},{"Name":"Aracinovo","Accuracy":4,"LatLong":"42.0264,21.5619"},{"Name":"Jurumleri","Accuracy":4,"LatLong":"41.9672,21.5569"},{"Name":"Skopje-Dracevo","LatLong":"41.9367,21.5217"},{"Name":"Zelenikovo","Accuracy":4,"LatLong":"41.8867,21.5869"},{"Name":"Rakotnici","LatLong":"41.3161,21.1898"},{"Name":"Skopje-Gjorce Petrov","LatLong":"42.0609,21.3193"},{"Name":"Radusa","Accuracy":4,"LatLong":"42.085,21.2106"},{"Name":"Bukovik","Accuracy":4,"LatLong":"41.9683,21.2369"},{"Name":"Tetovo","Accuracy":4,"LatLong":"42.0106,20.9714"},{"Name":"Mala Recica","Accuracy":4,"LatLong":"41.9925,20.9578"},{"Name":"Nerashte","Accuracy":4,"LatLong":"42.1067,21.1089"},{"Name":"Jazince","Accuracy":4,"LatLong":"42.1644,21.1761"},{"Name":"Dobroste","Accuracy":4,"LatLong":"42.1033,21.0778"},{"Name":"Dzepciste","Accuracy":4,"LatLong":"42.0328,21"},{"Name":"Zerovjane","Accuracy":4,"LatLong":"41.9153,20.9478"},{"Name":"Pirok","Accuracy":4,"LatLong":"41.9108,20.9106"},{"Name":"Jegunovce","Accuracy":4,"LatLong":"42.0736,21.1236"},{"Name":"Brvenica","Accuracy":4,"LatLong":"41.9672,20.9808"},{"Name":"Grupcin","Accuracy":4,"LatLong":"41.9678,21.1303"},{"Name":"Golema Recica","Accuracy":4,"LatLong":"41.9903,20.9458"},{"Name":"Bogovinje","Accuracy":4,"LatLong":"41.9236,20.9136"},{"Name":"Kamenjane","Accuracy":4,"LatLong":"41.9444,20.9267"},{"Name":"Tearce","Accuracy":4,"LatLong":"42.0744,21.0525"},{"Name":"Vratnica","Accuracy":4,"LatLong":"42.1433,21.1169"},{"Name":"Zelino","Accuracy":4,"LatLong":"41.9803,21.0642"},{"Name":"Celopek","Accuracy":4,"LatLong":"41.9317,21.0133"},{"Name":"Shemshevo","Accuracy":4,"LatLong":"42.0247,21.0797"},{"Name":"Gostivar","Accuracy":4,"LatLong":"41.7972,20.9083"},{"Name":"Vrutok","Accuracy":4,"LatLong":"41.7686,20.8392"},{"Name":"Debreshe","LatLong":"41.8159,20.8842"},{"Name":"Negotino-Gostivarsko","LatLong":"41.4846,22.0906"},{"Name":"Dobri Dol","Accuracy":4,"LatLong":"41.8658,20.8875"},{"Name":"Cegrane","Accuracy":4,"LatLong":"41.8389,20.9758"},{"Name":"Vrapciste","Accuracy":4,"LatLong":"41.8339,20.8853"},{"Name":"Srbinovo","Accuracy":4,"LatLong":"41.7058,20.9603"},{"Name":"Debar","Accuracy":4,"LatLong":"41.525,20.5275"},{"Name":"Rostusa","Accuracy":4,"LatLong":"41.61,20.6"},{"Name":"Zirovnica","Accuracy":4,"LatLong":"41.6744,20.5858"},{"Name":"Mavrovi Anovi","Accuracy":4,"LatLong":"41.7006,20.7556"},{"Name":"Skudrinje","Accuracy":4,"LatLong":"41.5656,20.6094"},{"Name":"Golem Papradnik","Accuracy":4,"LatLong":"41.4767,20.5444"},{"Name":"Kumanovo","Accuracy":4,"LatLong":"42.1322,21.7144"},{"Name":"Zeglane","LatLong":"42.2625,21.9108"},{"Name":"Staro Negoricane","LatLong":"42.1981,21.8286"},{"Name":"Klecovce","LatLong":"42.1161,21.8572"},{"Name":"Orasec","Accuracy":4,"LatLong":"42.0625,21.7997"},{"Name":"Matejce","Accuracy":4,"LatLong":"42.1256,21.5978"},{"Name":"Lipkovo","Accuracy":4,"LatLong":"42.1564,21.5853"},{"Name":"Tabanovce","Accuracy":4,"LatLong":"42.2147,21.7083"},{"Name":"Gradiste","Accuracy":4,"LatLong":"42.0231,21.8878"},{"Name":"Mlado Nagoricane","Accuracy":4,"LatLong":"42.1703,21.8017"},{"Name":"Oblavce","Accuracy":4,"LatLong":"42.1572,21.9067"},{"Name":"Otlja","Accuracy":4,"LatLong":"42.1439,21.5878"},{"Name":"Rankovce","Accuracy":4,"LatLong":"42.1819,22.1228"},{"Name":"Romanovce","Accuracy":4,"LatLong":"42.0947,21.6931"},{"Name":"Pcinja","Accuracy":4,"LatLong":"42.0397,21.7561"},{"Name":"Vaksince","Accuracy":4,"LatLong":"42.2061,21.6631"},{"Name":"Slupcane","Accuracy":4,"LatLong":"42.1733,21.6278"},{"Name":"Kriva Palanka","Accuracy":4,"LatLong":"42.2019,22.3319"},{"Name":"Petralnica","LatLong":"42.2083,22.1872"},{"Name":"Mozdivnjak","Accuracy":4,"LatLong":"42.1578,22.2539"},{"Name":"Dubrovnica","Accuracy":4,"LatLong":"42.2772,22.3239"},{"Name":"Zidilovo","Accuracy":4,"LatLong":"42.225,22.3958"},{"Name":"Kratovo","Accuracy":4,"LatLong":"42.0792,22.1814"},{"Name":"Stracin","Accuracy":4,"LatLong":"42.1506,22.0322"},{"Name":"Veles","Accuracy":4,"LatLong":"41.7156,21.7756"},{"Name":"Basino Selo","Accuracy":4,"LatLong":"41.7483,21.76"},{"Name":"Ivankovci","Accuracy":4,"LatLong":"41.8489,21.8203"},{"Name":"Gorno Orizari","Accuracy":4,"LatLong":"41.6858,21.7336"},{"Name":"Caska","Accuracy":4,"LatLong":"41.6506,21.6622"},{"Name":"Izvor","Accuracy":4,"LatLong":"41.5547,21.6972"},{"Name":"Bogomila","Accuracy":4,"LatLong":"41.5931,21.4717"},{"Name":"Gradsko","Accuracy":4,"LatLong":"41.5775,21.9428"},{"Name":"Sirkovo","Accuracy":4,"LatLong":"41.5064,21.8886"},{"Name":"Rosoman","Accuracy":4,"LatLong":"41.5161,21.9497"},{"Name":"Drenovo","Accuracy":4,"LatLong":"41.4194,21.89"},{"Name":"Vozarci","Accuracy":4,"LatLong":"41.43,21.9247"},{"Name":"Marena","Accuracy":4,"LatLong":"41.4664,22.0278"},{"Name":"Sopot","Accuracy":4,"LatLong":"41.49,22.0247"},{"Name":"Kavadarci","Accuracy":4,"LatLong":"41.4331,22.0119"},{"Name":"Resava","Accuracy":4,"LatLong":"41.3881,21.9781"},{"Name":"Konopiste","Accuracy":4,"LatLong":"41.2472,22.0772"},{"Name":"Negotino","Accuracy":4,"LatLong":"41.4839,22.0892"},{"Name":"Pepeliste","Accuracy":4,"LatLong":"41.5189,22.1283"},{"Name":"Demir Kapija","Accuracy":4,"LatLong":"41.405,22.2489"},{"Name":"Dolni Disan","Accuracy":4,"LatLong":"41.4283,22.0956"},{"Name":"Gevgelija","Accuracy":4,"LatLong":"41.1392,22.5025"},{"Name":"Negorci","Accuracy":4,"LatLong":"41.1836,22.4847"},{"Name":"Bogdanci","Accuracy":4,"LatLong":"41.2031,22.5756"},{"Name":"Nov Dojran","Accuracy":4,"LatLong":"41.2206,22.7061"},{"Name":"Star Dojran","Accuracy":4,"LatLong":"41.1875,22.7208"},{"Name":"Stojakovo","Accuracy":4,"LatLong":"41.1556,22.5775"},{"Name":"Miravci","Accuracy":4,"LatLong":"41.3078,22.435"},{"Name":"Stip","Accuracy":4,"LatLong":"41.7458,22.1958"},{"Name":"Karbinci","Accuracy":4,"LatLong":"41.8167,22.2375"},{"Name":"Lozovo","Accuracy":4,"LatLong":"41.7839,21.9056"},{"Name":"Probishtip","Accuracy":4,"LatLong":"42.0031,22.1786"},{"Name":"Zletovo","Accuracy":4,"LatLong":"41.9886,22.2361"},{"Name":"Sveti Nikole","Accuracy":4,"LatLong":"41.865,21.9428"},{"Name":"Erdzelija","Accuracy":4,"LatLong":"41.8353,22.0356"},{"Name":"Amzabegovo","Accuracy":4,"LatLong":"41.8119,21.9947"},{"Name":"Kocani","Accuracy":4,"LatLong":"41.9164,22.4128"},{"Name":"Oblesevo","Accuracy":4,"LatLong":"41.8833,22.3339"},{"Name":"Orizari","Accuracy":4,"LatLong":"41.9228,22.4469"},{"Name":"Makedonska Kamenica","Accuracy":4,"LatLong":"42.02,22.5919"},{"Name":"Zrnovci","Accuracy":4,"LatLong":"41.8542,22.4444"},{"Name":"Gorni Podlog","Accuracy":4,"LatLong":"41.8881,22.3814"},{"Name":"Vinica","Accuracy":4,"LatLong":"41.8828,22.5092"},{"Name":"Istibanja","Accuracy":4,"LatLong":"41.9297,22.5025"},{"Name":"Blatec","Accuracy":4,"LatLong":"41.8378,22.5781"},{"Name":"Rusinovo","Accuracy":4,"LatLong":"41.6833,22.8083"},{"Name":"Dragobraste","Accuracy":4,"LatLong":"41.8972,22.5994"},{"Name":"Delcevo","Accuracy":4,"LatLong":"41.9672,22.7694"},{"Name":"Trabotiviste","Accuracy":4,"LatLong":"41.8875,22.8167"},{"Name":"Pehcevo","Accuracy":4,"LatLong":"41.7594,22.8906"},{"Name":"Berovo","Accuracy":4,"LatLong":"41.7031,22.8578"},{"Name":"Vladimirovo","Accuracy":4,"LatLong":"41.71,22.7928"},{"Name":"Budinarci","Accuracy":4,"LatLong":"41.7642,22.7756"},{"Name":"Cesinovo","Accuracy":4,"LatLong":"41.8714,22.2892"},{"Name":"Strumica","Accuracy":4,"LatLong":"41.4375,22.6433"},{"Name":"Kuklis","Accuracy":4,"LatLong":"41.4053,22.6653"},{"Name":"Vasilevo","Accuracy":4,"LatLong":"41.4761,22.6417"},{"Name":"Vladevci / Radicevo sobiraliste","LatLong":"41.5208,22.5914"},{"Name":"Kosturino","Accuracy":4,"LatLong":"41.3572,22.6094"},{"Name":"Veljusa","Accuracy":4,"LatLong":"41.4761,22.5675"},{"Name":"Dobrasinci","Accuracy":4,"LatLong":"41.5253,22.6753"},{"Name":"Radovis","Accuracy":4,"LatLong":"41.6383,22.4647"},{"Name":"Podares","Accuracy":4,"LatLong":"41.6139,22.5422"},{"Name":"Konce","Accuracy":4,"LatLong":"41.4958,22.385"},{"Name":"Petralinci","Accuracy":4,"LatLong":"41.4706,22.7269"},{"Name":"Bosilovo","Accuracy":4,"LatLong":"41.4406,22.7278"},{"Name":"Murtino","Accuracy":4,"LatLong":"41.4153,22.7267"},{"Name":"Turnovo","Accuracy":4,"LatLong":"41.4383,22.7736"},{"Name":"Novo Selo","Accuracy":4,"LatLong":"41.4858,22.5092"},{"Name":"Mokrievo","Accuracy":4,"LatLong":"41.375,22.8386"},{"Name":"Dracevo","Accuracy":4,"LatLong":"41.9367,21.5217"},{"Name":"Valandovo","Accuracy":4,"LatLong":"41.3169,22.5611"},{"Name":"Calakli","Accuracy":4,"LatLong":"41.3033,22.64"},{"Name":"Udovo","Accuracy":4,"LatLong":"41.3431,22.4428"},{"Name":"Ohrid","Accuracy":4,"LatLong":"41.1172,20.8019"},{"Name":"Malo Crsko","Accuracy":4,"LatLong":"41.4028,21.0017"},{"Name":"Kicevo","Accuracy":4,"LatLong":"41.5144,20.9633"},{"Name":"Zajas","Accuracy":4,"LatLong":"41.6072,20.9383"},{"Name":"Oslomej","Accuracy":4,"LatLong":"41.5772,21"},{"Name":"Brzdani","Accuracy":4,"LatLong":"41.4467,20.9069"},{"Name":"Izvor","Accuracy":4,"LatLong":"41.5547,21.6972"},{"Name":"Dlapkin Dol","Accuracy":4,"LatLong":"41.5592,20.9353"},{"Name":"Vranestica","Accuracy":4,"LatLong":"41.4453,21.0267"},{"Name":"Celopeci","Accuracy":4,"LatLong":"41.4725,21.0286"},{"Name":"Rastanski Pat","LatLong":"41.716,21.7641"},{"Name":"Drugovo","Accuracy":4,"LatLong":"41.4842,20.9233"},{"Name":"Strelci","Accuracy":4,"LatLong":"41.5372,21.0036"},{"Name":"Leskovec","Accuracy":4,"LatLong":"40.95,20.8833"},{"Name":"Ohrid","Accuracy":4,"LatLong":"41.1172,20.8019"},{"Name":"Struga","Accuracy":4,"LatLong":"41.1781,20.6761"},{"Name":"Radolista","Accuracy":4,"LatLong":"41.1642,20.6233"},{"Name":"Velesta","Accuracy":4,"LatLong":"41.2408,20.6439"},{"Name":"Vevcani","Accuracy":4,"LatLong":"41.2406,20.5933"},{"Name":"Labunista","Accuracy":4,"LatLong":"41.2686,20.5961"},{"Name":"Lukovo","Accuracy":4,"LatLong":"41.3494,20.6047"},{"Name":"Delgozda","LatLong":"41.2573,20.7218"},{"Name":"Oktisi","Accuracy":4,"LatLong":"41.2325,20.6072"},{"Name":"Trebenista","Accuracy":4,"LatLong":"41.2064,20.755"},{"Name":"Meseista","Accuracy":4,"LatLong":"41.2386,20.7767"},{"Name":"Belcista","Accuracy":4,"LatLong":"41.3028,20.8303"},{"Name":"Slivovo","Accuracy":4,"LatLong":"41.4056,20.845"},{"Name":"Makedonski Brod","Accuracy":4,"LatLong":"41.5136,21.2153"},{"Name":"Dolni Manastirec","Accuracy":4,"LatLong":"41.6269,21.2106"},{"Name":"Samokov","Accuracy":4,"LatLong":"41.6836,21.1442"},{"Name":"Dvorci","Accuracy":4,"LatLong":"41.4647,21.0928"},{"Name":"Bitola","Accuracy":4,"LatLong":"41.0311,21.3403"},{"Name":"Smilevo","Accuracy":4,"LatLong":"41.155,21.1111"},{"Name":"Dolno Orizari","Accuracy":4,"LatLong":"41.0503,21.3794"},{"Name":"Dihovo","Accuracy":4,"LatLong":"41.0303,21.2639"},{"Name":"Novaci","Accuracy":4,"LatLong":"41.0419,21.4561"},{"Name":"Dedebalci","Accuracy":4,"LatLong":"41.1164,21.4842"},{"Name":"Makovo","Accuracy":4,"LatLong":"41.1186,21.6094"},{"Name":"Staravina","Accuracy":4,"LatLong":"41.0897,21.7339"},{"Name":"Dobrusevo","Accuracy":4,"LatLong":"41.1686,21.4825"},{"Name":"Mogila","Accuracy":4,"LatLong":"41.1083,21.3786"},{"Name":"Bistrica","Accuracy":4,"LatLong":"40.9833,21.3667"},{"Name":"Porodin","Accuracy":4,"LatLong":"40.9333,21.3667"},{"Name":"Keremenica","LatLong":"40.9242,21.4585"},{"Name":"Bac","Accuracy":4,"LatLong":"40.9333,21.5667"},{"Name":"Demir Hisar","Accuracy":4,"LatLong":"41.2217,21.2031"},{"Name":"Kukurecani","Accuracy":4,"LatLong":"41.0956,21.3256"},{"Name":"Lopatica","Accuracy":4,"LatLong":"41.1594,21.2539"},{"Name":"Zvan","Accuracy":4,"LatLong":"41.2878,21.1208"},{"Name":"Ivanjevci","Accuracy":4,"LatLong":"41.2064,21.3589"},{"Name":"Resen","Accuracy":4,"LatLong":"41.0889,21.0122"},{"Name":"Capari","Accuracy":4,"LatLong":"41.0561,21.1783"},{"Name":"Kazani","Accuracy":4,"LatLong":"41.0653,21.1472"},{"Name":"Carev Dvor","Accuracy":4,"LatLong":"41.0431,21.0072"},{"Name":"Asamati","Accuracy":4,"LatLong":"40.9864,21.0511"},{"Name":"Krani","Accuracy":4,"LatLong":"40.9394,21.1086"},{"Name":"Ljubojno","Accuracy":4,"LatLong":"40.8942,21.1408"},{"Name":"Otesevo","Accuracy":4,"LatLong":"40.9833,20.9167"},{"Name":"Jankovec","Accuracy":4,"LatLong":"41.1103,21.0114"},{"Name":"Prilep","Accuracy":4,"LatLong":"41.3464,21.5544"},{"Name":"Dolneni","Accuracy":4,"LatLong":"41.4253,21.4547"},{"Name":"Kostinci","Accuracy":4,"LatLong":"41.5017,21.4069"},{"Name":"Dunje","Accuracy":4,"LatLong":"41.2575,21.6922"},{"Name":"Lazani","Accuracy":4,"LatLong":"41.4422,21.3158"},{"Name":"Vitoliste","Accuracy":4,"LatLong":"41.1808,21.8267"},{"Name":"Golemo Konjari","Accuracy":4,"LatLong":"41.3431,21.4403"},{"Name":"Topolcani","Accuracy":4,"LatLong":"41.2286,21.4314"},{"Name":"Kanatlarci","Accuracy":4,"LatLong":"41.2103,21.5033"},{"Name":"Krivogastani","Accuracy":4,"LatLong":"41.3361,21.3331"},{"Name":"Vodani","Accuracy":4,"LatLong":"41.2836,21.3394"},{"Name":"Debreste","Accuracy":4,"LatLong":"41.4797,21.3153"},{"Name":"Krusevo","Accuracy":4,"LatLong":"41.3689,21.2489"}]}