{"Structure":"State/Place","States":[{"Name":"Bangkok","Code":"10","Places":[{"Name":"Pom Prap Sattru Phai","PostCode":"10100","LatLong":"13.7333,100.5"},{"Name":"Samphanthawong","PostCode":"10100","Accuracy":4,"LatLong":"13.7333,100.5"},{"Name":"Wattana","PostCode":"10110","LatLong":"13.7083,100.4562"},{"Name":"Yannawa","PostCode":"10120","LatLong":"13.7083,100.4562"},{"Name":"Bang Kholame","PostCode":"10120","LatLong":"13.7083,100.4562"},{"Name":"Rat Burana","PostCode":"10140","Accuracy":4,"LatLong":"13.6833,100.5"},{"Name":"Thung Khru","PostCode":"10140","LatLong":"13.6833,100.5"},{"Name":"Bang Khun Thian","PostCode":"10150","Accuracy":4,"LatLong":"13.7,100.4667"},{"Name":"Bang Bon","PostCode":"10150","LatLong":"13.7,100.4667"},{"Name":"Bang Khae","PostCode":"10160","Accuracy":4,"LatLong":"13.7167,100.4167"},{"Name":"Phasi Charoen","PostCode":"10160","Accuracy":4,"LatLong":"13.7167,100.4333"},{"Name":"Nong Khaem","PostCode":"10160","Accuracy":4,"LatLong":"13.6833,100.35"},{"Name":"Thawi Wattana","PostCode":"10170","LatLong":"13.7667,100.45"},{"Name":"Taling Chan","PostCode":"10170","Accuracy":4,"LatLong":"13.7667,100.45"},{"Name":"Phra Nakhon","PostCode":"10200","Accuracy":4,"LatLong":"13.75,100.5167"},{"Name":"Lak Si","PostCode":"10210","Accuracy":4,"LatLong":"14.1833,100.2833"},{"Name":"Sai Mai","PostCode":"10220","LatLong":"13.8667,100.6"},{"Name":"Bang Khen","PostCode":"10220","Accuracy":4,"LatLong":"13.8667,100.6"},{"Name":"Lat Phrao","PostCode":"10230","Accuracy":4,"LatLong":"14.3333,99.9167"},{"Name":"Khanna Yao","PostCode":"10230","LatLong":"14.3333,99.9167"},{"Name":"Bang Kapi","PostCode":"10240","Accuracy":4,"LatLong":"13.7667,100.65"},{"Name":"Bung Kum","PostCode":"10240","LatLong":"13.7667,100.65"},{"Name":"Saphan Sung B39","PostCode":"10240","LatLong":"13.7667,100.65"},{"Name":"Pra Vet","PostCode":"10250","LatLong":"13.8583,100.4688"},{"Name":"Suang Luang","PostCode":"10250","LatLong":"13.8583,100.4688"},{"Name":"Bang Na","PostCode":"10260","Accuracy":4,"LatLong":"13.6667,100.5833"},{"Name":"Phra Khanong","PostCode":"10260","Accuracy":4,"LatLong":"13.7,100.6"},{"Name":"Dusit","PostCode":"10300","Accuracy":4,"LatLong":"13.7833,100.5167"},{"Name":"Wangthong Lang","PostCode":"10310","LatLong":"13.7833,100.5167"},{"Name":"Huai Khwang","PostCode":"10320","LatLong":"13.7833,100.5167"},{"Name":"Pahtum Wan","PostCode":"10330","LatLong":"13.7833,100.5167"},{"Name":"Phaya Thai","PostCode":"10400","LatLong":"13.7625,100.531"},{"Name":"Ding Daeng","PostCode":"10400","LatLong":"13.7625,100.531"},{"Name":"Bang Rak","PostCode":"10500","Accuracy":4,"LatLong":"13.7333,100.5333"},{"Name":"Min Buri","PostCode":"10510","Accuracy":4,"LatLong":"13.8167,100.75"},{"Name":"Khlong Samwa","PostCode":"10510","LatLong":"13.8167,100.75"},{"Name":"Lat Krabang","PostCode":"10520","Accuracy":4,"LatLong":"13.7167,100.7833"},{"Name":"Nong Chok","PostCode":"10530","Accuracy":4,"LatLong":"13.85,100.8667"},{"Name":"Khlong San","PostCode":"10600","Accuracy":4,"LatLong":"13.7333,100.5"},{"Name":"Bangkok Yai","PostCode":"10600","Accuracy":4,"LatLong":"13.7333,100.4833"},{"Name":"Thon Buri","PostCode":"10600","Accuracy":4,"LatLong":"13.7167,100.4833"},{"Name":"Bang Plat","PostCode":"10700","LatLong":"13.75,100.4833"},{"Name":"Bangkok Noi","PostCode":"10700","Accuracy":4,"LatLong":"13.75,100.4833"},{"Name":"Bang Su","PostCode":"10800","Accuracy":4,"LatLong":"13.8,100.5333"}]},{"Name":"Samut Prakan","Code":"11","Places":[{"Name":"Phra Pradaeng","PostCode":"10130","Accuracy":4,"LatLong":"13.6667,100.5333"},{"Name":"Muang Samut Prakan","PostCode":"10270","Accuracy":4,"LatLong":"13.6,100.6"},{"Name":"Phra Samut Chedi","PostCode":"10290","LatLong":"13.8583,100.4688"},{"Name":"Bang Phli","PostCode":"10540","Accuracy":4,"LatLong":"13.6,100.7167"},{"Name":"Bang Saotong","PostCode":"10540","LatLong":"13.6,100.7167"},{"Name":"Bang Bo","PostCode":"10560","Accuracy":4,"LatLong":"13.5833,100.8167"}]},{"Name":"Nonthaburi","Code":"12","Places":[{"Name":"Muang Nonthaburi","PostCode":"11000","LatLong":"13.89,100.4333"},{"Name":"Bang Bua Thong","PostCode":"11110","Accuracy":4,"LatLong":"13.9167,100.4333"},{"Name":"Pak Kret","PostCode":"11120","Accuracy":4,"LatLong":"13.9167,100.5"},{"Name":"Bang Kruai","PostCode":"11130","Accuracy":4,"LatLong":"13.8,100.4833"},{"Name":"Bang Yai","PostCode":"11140","Accuracy":4,"LatLong":"13.85,100.4333"},{"Name":"Sai Noi","PostCode":"11150","Accuracy":4,"LatLong":"13.9667,100.3167"}]},{"Name":"Pathum Thani","Code":"13","Places":[{"Name":"Muang Pathum Thani","PostCode":"12000","LatLong":"14.0433,100.64"},{"Name":"Thanyaburi","PostCode":"12110","LatLong":"14.0433,100.64"},{"Name":"Khlong Luang","PostCode":"12120","Accuracy":4,"LatLong":"14.0667,100.65"},{"Name":"Lat Lum Kaeo","PostCode":"12140","Accuracy":4,"LatLong":"14.0333,100.4167"},{"Name":"Lam Luk Ka","PostCode":"12150","Accuracy":4,"LatLong":"13.9333,100.75"},{"Name":"Sam Khok","PostCode":"12160","Accuracy":4,"LatLong":"14.05,100.55"},{"Name":"Nong Sua","PostCode":"12170","Accuracy":4,"LatLong":"14.1333,100.8333"}]},{"Name":"Phranakhon Si Ayutthaya","Code":"14","Places":[{"Name":"Pharnakhon Si Ayutthaya","PostCode":"13000","LatLong":"14.3738,100.5631"},{"Name":"Sena","PostCode":"13110","Accuracy":4,"LatLong":"14.3167,100.4"},{"Name":"Pak Hai","PostCode":"13120","LatLong":"14.3619,100.6"},{"Name":"Tha Rua","PostCode":"13130","Accuracy":4,"LatLong":"14.5667,100.7333"},{"Name":"Phachi","PostCode":"13140","Accuracy":4,"LatLong":"14.45,100.7167"},{"Name":"Maha Rat","PostCode":"13150","Accuracy":4,"LatLong":"14.5333,100.5333"},{"Name":"Bang Pa-In","PostCode":"13160","Accuracy":4,"LatLong":"14.2333,100.5833"},{"Name":"Wang Noi","PostCode":"13170","Accuracy":4,"LatLong":"14.2167,100.7333"},{"Name":"Bang Sai","PostCode":"13190","Accuracy":4,"LatLong":"14.2167,100.5"},{"Name":"Uthai","PostCode":"13210","Accuracy":4,"LatLong":"14.3667,100.6667"},{"Name":"Bang Pahan","PostCode":"13220","Accuracy":4,"LatLong":"14.45,100.55"},{"Name":"Lat Bua Luang","PostCode":"13230","Accuracy":4,"LatLong":"14.1667,100.3167"},{"Name":"Ban Phraek","PostCode":"13240","Accuracy":4,"LatLong":"14.6333,100.5667"},{"Name":"Bang Ban","PostCode":"13250","Accuracy":4,"LatLong":"14.4167,100.4667"},{"Name":"Nakhon Luang","PostCode":"13260","Accuracy":4,"LatLong":"14.45,100.6167"},{"Name":"Bang Sai","PostCode":"13270","Accuracy":4,"LatLong":"14.2167,100.5"}]},{"Name":"Ang Thong","Code":"15","Places":[{"Name":"Muang ANG THONG","PostCode":"14000","Accuracy":4,"LatLong":"14.5833,100.45"},{"Name":"Wiset Chai Chan","PostCode":"14110","Accuracy":4,"LatLong":"14.5833,100.35"},{"Name":"Pho Thong","PostCode":"14120","Accuracy":4,"LatLong":"14.6667,100.4167"},{"Name":"Pa Mok","PostCode":"14130","Accuracy":4,"LatLong":"14.4833,100.45"},{"Name":"Chaiyo","PostCode":"14140","Accuracy":4,"LatLong":"14.65,100.4667"},{"Name":"Sawaengha","PostCode":"14150","LatLong":"14.5958,100.4208"},{"Name":"Samko","PostCode":"14160","LatLong":"14.5958,100.4208"}]},{"Name":"Lopburi","Code":"16","Places":[{"Name":"Muang Lopburi","PostCode":"15000","Accuracy":4,"LatLong":"14.8,100.6167"},{"Name":"Ban Mi","PostCode":"15110","Accuracy":4,"LatLong":"15.0436,100.5661"},{"Name":"Khok Samrong","PostCode":"15120","Accuracy":4,"LatLong":"15.0644,100.7228"},{"Name":"Chai Badan","PostCode":"15130","Accuracy":4,"LatLong":"15.2,101.1333"},{"Name":"Tha Luang","PostCode":"15130","Accuracy":4,"LatLong":"14.9833,101.0167"},{"Name":"Phattana Nikhom","PostCode":"15140","LatLong":"15.0216,100.7911"},{"Name":"Tha Wung","PostCode":"15150","Accuracy":4,"LatLong":"14.8167,100.5167"},{"Name":"Nong Muang","PostCode":"15170","LatLong":"15.0216,100.7911"},{"Name":"Lum Sunthi","PostCode":"15190","LatLong":"15.0216,100.7911"},{"Name":"Sa Bot","PostCode":"15240","LatLong":"15.35,100.8167"},{"Name":"Khok Charoen","PostCode":"15250","Accuracy":4,"LatLong":"15.35,100.8167"}]},{"Name":"Singburi","Code":"17","Places":[{"Name":"Muang Sing Buri","PostCode":"16000","LatLong":"14.8708,100.375"},{"Name":"In Buri","PostCode":"16110","Accuracy":4,"LatLong":"15,100.3333"},{"Name":"Phrom Buri","PostCode":"16120","Accuracy":4,"LatLong":"14.8333,100.45"},{"Name":"Bang Rachan","PostCode":"16130","Accuracy":4,"LatLong":"14.8833,100.3167"},{"Name":"Tha Chang","PostCode":"16140","Accuracy":4,"LatLong":"14.7667,100.4"},{"Name":"Khai Bang Rachan","PostCode":"16150","LatLong":"14.8708,100.375"}]},{"Name":"Chainat","Code":"18","Places":[{"Name":"Muang Chainat","PostCode":"17000","Accuracy":4,"LatLong":"15.1833,100.1333"},{"Name":"Nong Mamong","PostCode":"17100","Accuracy":4,"LatLong":"15.2775,99.8769"},{"Name":"Manorom","PostCode":"17110","Accuracy":4,"LatLong":"15.3167,100.0833"},{"Name":"Wat Sing","PostCode":"17120","Accuracy":4,"LatLong":"15.2667,100.05"},{"Name":"Hankha","PostCode":"17130","Accuracy":4,"LatLong":"14.9833,100.0167"},{"Name":"Non Kham","PostCode":"17130","LatLong":"14.9833,100.0167"},{"Name":"Sankhaburi","PostCode":"17140","Accuracy":4,"LatLong":"15.05,100.1667"},{"Name":"Sanphaya","PostCode":"17150","Accuracy":4,"LatLong":"15.1333,100.25"}]},{"Name":"Saraburi","Code":"19","Places":[{"Name":"Muang Saraburi","PostCode":"18000","LatLong":"14.5521,100.9003"},{"Name":"Chaloem Phakiat","PostCode":"18000","LatLong":"14.5521,100.9003"},{"Name":"Kaeng Khoi","PostCode":"18110","Accuracy":4,"LatLong":"14.5881,101.0031"},{"Name":"Phra Phutthabat","PostCode":"18120","Accuracy":4,"LatLong":"14.7167,100.8"},{"Name":"Ban Mo","PostCode":"18130","Accuracy":4,"LatLong":"14.6167,100.7333"},{"Name":"Nong Khae","PostCode":"18140","Accuracy":4,"LatLong":"14.3333,100.8667"},{"Name":"Wihan Daeng","PostCode":"18150","Accuracy":4,"LatLong":"14.35,101"},{"Name":"Sao Hai","PostCode":"18160","Accuracy":4,"LatLong":"14.55,100.85"},{"Name":"Nong Saeng","PostCode":"18170","Accuracy":4,"LatLong":"14.4833,100.7833"},{"Name":"Muak Lek","PostCode":"18180","Accuracy":4,"LatLong":"14.5833,101.2167"},{"Name":"Nong Doan","PostCode":"18190","LatLong":"14.5277,100.9066"},{"Name":"Don Phut","PostCode":"18210","Accuracy":4,"LatLong":"14.5833,100.6667"},{"Name":"Wang Muang","PostCode":"18220","Accuracy":4,"LatLong":"14.7167,101.0833"}]},{"Name":"Chonburi","Code":"20","Places":[{"Name":"Muang Chonburi","PostCode":"20000","LatLong":"13.1604,101.1083"},{"Name":"Si Racha","PostCode":"20110","Accuracy":4,"LatLong":"13.1667,100.9333"},{"Name":"Ko Sichang","PostCode":"20120","LatLong":"13.1452,101.0619"},{"Name":"Phanat Nikhom","PostCode":"20140","Accuracy":4,"LatLong":"13.45,101.1833"},{"Name":"Bang Lamung","PostCode":"20150","Accuracy":4,"LatLong":"13.05,100.9333"},{"Name":"Phan Thong","PostCode":"20160","Accuracy":4,"LatLong":"13.4667,101.1"},{"Name":"Ban Bung","PostCode":"20170","Accuracy":4,"LatLong":"13.0667,101"},{"Name":"Sattahip","PostCode":"20180","Accuracy":4,"LatLong":"12.6667,100.9"},{"Name":"Nong Yai","PostCode":"20190","Accuracy":4,"LatLong":"13.15,101.3833"},{"Name":"Ko Chan","PostCode":"20240","LatLong":"13.2667,101.4333"},{"Name":"Bo Thong","PostCode":"20270","Accuracy":4,"LatLong":"13.2667,101.4333"}]},{"Name":"Rayong","Code":"21","Places":[{"Name":"Muang Rayong","PostCode":"21000","Accuracy":4,"LatLong":"12.6667,101.2833"},{"Name":"Klaeng","PostCode":"21110","Accuracy":4,"LatLong":"12.7833,101.65"},{"Name":"Khao Chamao","PostCode":"21110","LatLong":"12.7833,101.65"},{"Name":"Ban Khai","PostCode":"21120","Accuracy":4,"LatLong":"12.7833,101.3"},{"Name":"Ban Chang","PostCode":"21130","Accuracy":4,"LatLong":"12.7167,101.0667"},{"Name":"Pluak Daeng","PostCode":"21140","Accuracy":4,"LatLong":"12.9667,101.2167"},{"Name":"Nikhom Pattana","PostCode":"21180","LatLong":"12.8125,101.3083"},{"Name":"Wang Chan","PostCode":"21210","Accuracy":4,"LatLong":"12.9333,101.5167"}]},{"Name":"Chanthaburi","Code":"22","Places":[{"Name":"Muang Chanthaburi","PostCode":"22000","LatLong":"12.6528,102.1222"},{"Name":"Khlung","PostCode":"22110","Accuracy":4,"LatLong":"12.45,102.2333"},{"Name":"Tha Mai","PostCode":"22120","Accuracy":4,"LatLong":"12.6167,102.0167"},{"Name":"Laem Sing","PostCode":"22130","Accuracy":4,"LatLong":"12.4833,102.0667"},{"Name":"Pong Nam Ron","PostCode":"22140","Accuracy":4,"LatLong":"12.9167,102.3833"},{"Name":"Makham","PostCode":"22150","Accuracy":4,"LatLong":"12.6667,102.2"},{"Name":"Na Yai Am","PostCode":"22160","Accuracy":4,"LatLong":"12.7833,101.8333"},{"Name":"Kaeng Hang Maew","PostCode":"22160","LatLong":"12.7833,101.8333"},{"Name":"Soi Dao","PostCode":"22180","LatLong":"12.6528,102.1222"},{"Name":"Khao Kitchakut","PostCode":"22210","LatLong":"12.6528,102.1222"}]},{"Name":"Trat","Code":"23","Places":[{"Name":"Muang Trat","PostCode":"23000","LatLong":"12.2131,102.5776"},{"Name":"Ko Kud","PostCode":"23000","LatLong":"12.2131,102.5776"},{"Name":"Khlong Yai","PostCode":"23110","Accuracy":4,"LatLong":"11.7667,102.9"},{"Name":"Ko Chang","PostCode":"23120","Accuracy":4,"LatLong":"12.1667,102.4333"},{"Name":"Laem Ngob","PostCode":"23120","LatLong":"12.1667,102.4333"},{"Name":"Khao Saming","PostCode":"23130","Accuracy":4,"LatLong":"12.35,102.45"},{"Name":"Bo Rai","PostCode":"23140","Accuracy":4,"LatLong":"12.5692,102.5272"}]},{"Name":"Chachoengsao","Code":"24","Places":[{"Name":"Muang Chachoengsao","PostCode":"24000","LatLong":"13.6861,101.1944"},{"Name":"Khlong Kaen","PostCode":"24000","LatLong":"13.6861,101.1944"},{"Name":"Bang Khla","PostCode":"24110","Accuracy":4,"LatLong":"13.7167,101.2167"},{"Name":"Rachsan","PostCode":"24120","LatLong":"13.75,101.35"},{"Name":"Phanom Sarakham","PostCode":"24120","Accuracy":4,"LatLong":"13.75,101.35"},{"Name":"Bang Pakong","PostCode":"24130","Accuracy":4,"LatLong":"13.55,101"},{"Name":"Ban Pho","PostCode":"24140","Accuracy":4,"LatLong":"13.6,101.0833"},{"Name":"Bang Nam Prieo","PostCode":"24150","Accuracy":4,"LatLong":"13.85,101.0667"},{"Name":"Sanam Chai Khet","PostCode":"24160","Accuracy":4,"LatLong":"13.65,101.45"},{"Name":"Ta Takiab","PostCode":"24160","LatLong":"13.65,101.45"},{"Name":"Paeng Yao","PostCode":"24190","LatLong":"13.6861,101.1944"}]},{"Name":"Prachinburi","Code":"25","Places":[{"Name":"Muang Prachinburi","PostCode":"25000","LatLong":"14.0048,101.5198"},{"Name":"Kabin Buri","PostCode":"25110","Accuracy":4,"LatLong":"13.9833,101.7167"},{"Name":"Prachantakham","PostCode":"25130","Accuracy":4,"LatLong":"14.0619,101.5186"},{"Name":"Si Maha Phot","PostCode":"25140","Accuracy":4,"LatLong":"13.9667,101.5167"},{"Name":"Ban Sang","PostCode":"25150","Accuracy":4,"LatLong":"14,101.2333"},{"Name":"Khok Pip","PostCode":"25190","Accuracy":4,"LatLong":"13.8833,101.4"},{"Name":"Si Mahosot","PostCode":"25190","LatLong":"13.8833,101.4"},{"Name":"Na Di","PostCode":"25220","Accuracy":4,"LatLong":"14.1333,101.7333"}]},{"Name":"Nakhon Nayok","Code":"26","Places":[{"Name":"Muang Nakhon Nayok","PostCode":"26000","Accuracy":4,"LatLong":"14.2031,101.2147"},{"Name":"Ban Na","PostCode":"26110","Accuracy":4,"LatLong":"14.2592,101.0683"},{"Name":"Ongkarak","PostCode":"26120","LatLong":"14.2114,101.1653"},{"Name":"Pak Phli","PostCode":"26130","Accuracy":4,"LatLong":"14.1636,101.2622"}]},{"Name":"Sa Kaeo","Code":"27","Places":[{"Name":"Khao Chakhun","PostCode":"27000","LatLong":"13.8442,102.6536"},{"Name":"Muang Sa Kaeo","PostCode":"27000","LatLong":"13.8442,102.6536"},{"Name":"Aranyaprathet","PostCode":"27120","Accuracy":4,"LatLong":"13.6833,102.5"},{"Name":"Wang Nam Yen","PostCode":"27120","LatLong":"13.6833,102.5"},{"Name":"Khok Sung","PostCode":"27120","LatLong":"13.6833,102.5"},{"Name":"Wattana Nakhon","PostCode":"27160","LatLong":"13.8442,102.6536"},{"Name":"Ta Phraya","PostCode":"27180","Accuracy":4,"LatLong":"14.005,102.8072"},{"Name":"Wang Sombun","PostCode":"27250","LatLong":"13.8442,102.6536"},{"Name":"Khlong Hat","PostCode":"27260","LatLong":"13.8442,102.6536"}]},{"Name":"Nakhon Ratchasima","Code":"30","Places":[{"Name":"Muang Nakhon Ratchasima","PostCode":"30000","LatLong":"15.0555,102.2148"},{"Name":"Phimai","PostCode":"30110","Accuracy":4,"LatLong":"15.2167,102.5"},{"Name":"Bua Yai","PostCode":"30120","Accuracy":4,"LatLong":"15.5833,102.4167"},{"Name":"Bua Lai","PostCode":"30120","LatLong":"15.5833,102.4167"},{"Name":"Pak Chong","PostCode":"30130","Accuracy":4,"LatLong":"14.7042,101.4131"},{"Name":"Sikhiu","PostCode":"30140","Accuracy":4,"LatLong":"14.8994,101.7083"},{"Name":"Pak Thong Chai","PostCode":"30150","Accuracy":4,"LatLong":"14.7453,102.0283"},{"Name":"Non Sung","PostCode":"30160","Accuracy":4,"LatLong":"15.1833,102.2667"},{"Name":"Sung Noen","PostCode":"30170","Accuracy":4,"LatLong":"14.8989,101.8139"},{"Name":"Prathai","PostCode":"30180","Accuracy":4,"LatLong":"15.5167,102.8"},{"Name":"Chok Chai","PostCode":"30190","Accuracy":4,"LatLong":"14.7333,102.1667"},{"Name":"Dan Khun Thot","PostCode":"30210","Accuracy":4,"LatLong":"15.2064,101.8058"},{"Name":"Theparak","PostCode":"30210","LatLong":"15.2064,101.8058"},{"Name":"Non Thai","PostCode":"30220","Accuracy":4,"LatLong":"15.2,102.0667"},{"Name":"Phra Thomgkom","PostCode":"30220","LatLong":"15.2,102.0667"},{"Name":"Chakkarat","PostCode":"30230","Accuracy":4,"LatLong":"15,102.2667"},{"Name":"Cheleam Phakiat","PostCode":"30230","LatLong":"15,102.2667"},{"Name":"Huai Thalaeng","PostCode":"30240","Accuracy":4,"LatLong":"15.0028,102.6556"},{"Name":"Khon Buri","PostCode":"30250","Accuracy":4,"LatLong":"14.5167,102.25"},{"Name":"Khong","PostCode":"30260","Accuracy":4,"LatLong":"15.4333,102.3333"},{"Name":"Chum Phuang","PostCode":"30270","Accuracy":4,"LatLong":"15.3167,102.7667"},{"Name":"Lum Thamenchai","PostCode":"30270","LatLong":"15.3167,102.7667"},{"Name":"Muang Yang","PostCode":"30270","LatLong":"15.3167,102.7667"},{"Name":"Kham Thale So","PostCode":"30280","Accuracy":4,"LatLong":"14.9747,101.985"},{"Name":"Kham Sakae Saeng","PostCode":"30290","Accuracy":4,"LatLong":"15.3333,102.1833"},{"Name":"Soeng Sang","PostCode":"30330","Accuracy":4,"LatLong":"14.4167,102.4833"},{"Name":"Ban Luam","PostCode":"30350","Accuracy":4,"LatLong":"15.5833,102.15"},{"Name":"Non Daeng","PostCode":"30360","LatLong":"15,102.3167"},{"Name":"Wang Nam Khyo","PostCode":"30370","LatLong":"15,102.3167"},{"Name":"Nong Bunnak","PostCode":"30410","Accuracy":4,"LatLong":"14.7,102.45"},{"Name":"Sida","PostCode":"30430","LatLong":"14.7,102.45"},{"Name":"Kang Sanam Nang","PostCode":"30440","LatLong":"14.7,102.45"}]},{"Name":"Burirum","Code":"31","Places":[{"Name":"Ban Dan","PostCode":"31000","Accuracy":4,"LatLong":"13.9167,102.0167"},{"Name":"Muang Buri Ram","PostCode":"31000","LatLong":"13.9167,102.0167"},{"Name":"Huai Ratch","PostCode":"31000","LatLong":"13.9167,102.0167"},{"Name":"Non Suwan","PostCode":"31110","Accuracy":4,"LatLong":"14.5833,102.5833"},{"Name":"Nang Rong","PostCode":"31110","Accuracy":4,"LatLong":"14.6333,102.8"},{"Name":"Cham Ni","PostCode":"31110","LatLong":"14.6083,102.6917"},{"Name":"Chaloem Phrakhiat","PostCode":"31110","LatLong":"14.6083,102.6917"},{"Name":"Phutthaisong","PostCode":"31120","Accuracy":4,"LatLong":"15.4167,102.9"},{"Name":"Banmai Chaiphot","PostCode":"31120","LatLong":"15.4167,102.9"},{"Name":"Lam Phai Mat","PostCode":"31130","LatLong":"14.9088,102.9959"},{"Name":"Prakhon Chai","PostCode":"31140","Accuracy":4,"LatLong":"14.6167,103.0833"},{"Name":"Satuk","PostCode":"31150","Accuracy":4,"LatLong":"15.3,103.3"},{"Name":"Kandong","PostCode":"31150","LatLong":"15.3,103.3"},{"Name":"Krasang","PostCode":"31160","Accuracy":4,"LatLong":"14.9167,103.3"},{"Name":"Lahan Sai","PostCode":"31170","Accuracy":4,"LatLong":"14.4167,102.8667"},{"Name":"Ban Kruat","PostCode":"31180","Accuracy":4,"LatLong":"15.0128,103.0967"},{"Name":"Khu Muang","PostCode":"31190","Accuracy":4,"LatLong":"15.2833,103.0333"},{"Name":"Nong Ki","PostCode":"31210","Accuracy":4,"LatLong":"14.6667,102.5333"},{"Name":"Pak Kam","PostCode":"31220","LatLong":"14.9625,102.5917"},{"Name":"Na Pho","PostCode":"31230","Accuracy":4,"LatLong":"15.6333,102.95"},{"Name":"Nong Hong","PostCode":"31240","Accuracy":4,"LatLong":"14.8333,102.7333"},{"Name":"Ban Phlapphla","PostCode":"31250","Accuracy":4,"LatLong":"14.7167,102.15"},{"Name":"Non Dindaeng","PostCode":"31260","LatLong":"14.9625,102.5917"}]},{"Name":"Sisaket","Code":"33","Places":[{"Name":"Muang Sisaket","PostCode":"33000","Accuracy":4,"LatLong":"15.1167,104.3333"},{"Name":"Kantharalak","PostCode":"33110","Accuracy":4,"LatLong":"14.65,104.65"},{"Name":"Benchalak","PostCode":"33110","LatLong":"14.65,104.65"},{"Name":"Uthumphon Phisai","PostCode":"33120","Accuracy":4,"LatLong":"15.1133,104.1408"},{"Name":"Po Sri Suwan","PostCode":"33120","LatLong":"15.1133,104.1408"},{"Name":"Muang Chan","PostCode":"33120","LatLong":"15.1133,104.1408"},{"Name":"Nam Kliang","PostCode":"33130","Accuracy":4,"LatLong":"14.9,104.55"},{"Name":"Kanthararom","PostCode":"33130","Accuracy":4,"LatLong":"15.1,104.5833"},{"Name":"Khukhan","PostCode":"33140","Accuracy":4,"LatLong":"15.1167,104.3333"},{"Name":"Pu Sing","PostCode":"33140","LatLong":"15.1167,104.3333"},{"Name":"Khun Han","PostCode":"33150","Accuracy":4,"LatLong":"14.6333,104.3667"},{"Name":"Rasi Salai","PostCode":"33160","Accuracy":4,"LatLong":"15.3333,104.15"},{"Name":"Silalad","PostCode":"33160","LatLong":"15.3333,104.15"},{"Name":"Prang Ku","PostCode":"33170","Accuracy":4,"LatLong":"14.85,104.0333"},{"Name":"Phrai Bung","PostCode":"33180","Accuracy":4,"LatLong":"14.75,104.35"},{"Name":"Yang Chum Noi","PostCode":"33190","Accuracy":4,"LatLong":"15.2667,104.35"},{"Name":"Huai Thap Than","PostCode":"33210","Accuracy":4,"LatLong":"15.05,104.0333"},{"Name":"Bung Bun","PostCode":"33220","Accuracy":4,"LatLong":"15.3214,104.0572"},{"Name":"Phayu","PostCode":"33230","LatLong":"14.9809,104.3381"},{"Name":"Si Rattana","PostCode":"33240","Accuracy":4,"LatLong":"14.7333,104.5833"},{"Name":"Non Khun","PostCode":"33250","Accuracy":4,"LatLong":"14.9167,104.7333"},{"Name":"Wang Hin","PostCode":"33270","Accuracy":4,"LatLong":"14.8833,104.2833"}]},{"Name":"Ubon Ratchathani","Code":"34","Places":[{"Name":"Muang Ubon Ratchathani","PostCode":"34000","LatLong":"14.7861,103.9111"},{"Name":"Don Moddang","PostCode":"34000","LatLong":"14.7861,103.9111"},{"Name":"Muang Samsib","PostCode":"34140","LatLong":"15.6417,105.225"},{"Name":"Khuang Nai","PostCode":"34150","LatLong":"15.6417,105.225"},{"Name":"Det Udom","PostCode":"34160","LatLong":"15.6417,105.225"},{"Name":"Khemarat","PostCode":"34170","Accuracy":4,"LatLong":"16.05,105.2167"},{"Name":"Khong Chiam","PostCode":"34220","LatLong":"14.2,103.6583"},{"Name":"Buntharik","PostCode":"34230","LatLong":"14.2,103.6583"},{"Name":"Kut Khaopun","PostCode":"34270","LatLong":"14.2,103.6583"},{"Name":"Na Chaluai","PostCode":"34280","LatLong":"14.2,103.6583"}]},{"Name":"Yasothon","Code":"35","Places":[{"Name":"Muang Yasothon","PostCode":"35000","Accuracy":4,"LatLong":"15.7953,104.1494"},{"Name":"Kham Khuan Kaeo","PostCode":"35110","Accuracy":4,"LatLong":"15.65,104.3167"},{"Name":"Thai Chaloen","PostCode":"35120","LatLong":"15.6633,104.3067"},{"Name":"Loeng Nok Tha","PostCode":"35120","LatLong":"15.6633,104.3067"},{"Name":"Maha Chana Chai","PostCode":"35130","Accuracy":4,"LatLong":"15.5333,104.25"},{"Name":"Kud Chum","PostCode":"35140","LatLong":"15.6633,104.3067"},{"Name":"Pa Tiu","PostCode":"35150","Accuracy":4,"LatLong":"15.8333,104.3833"},{"Name":"Kho Wang","PostCode":"35160","Accuracy":4,"LatLong":"15.35,104.3667"},{"Name":"Sai Mun","PostCode":"35170","Accuracy":4,"LatLong":"15.95,104.2167"}]},{"Name":"Chaiyaphum","Code":"36","Places":[{"Name":"Muang Chaiyaphum","PostCode":"36000","LatLong":"16.0085,101.9828"},{"Name":"Phu Khieo","PostCode":"36110","Accuracy":4,"LatLong":"16.3667,102.1333"},{"Name":"Kaset Sombun","PostCode":"36120","Accuracy":4,"LatLong":"16.2833,101.95"},{"Name":"Chaturat","PostCode":"36130","Accuracy":4,"LatLong":"15.5647,101.8414"},{"Name":"Noen Sa Nga","PostCode":"36130","LatLong":"15.5647,101.8414"},{"Name":"Sub Yai","PostCode":"36130","LatLong":"15.5647,101.8414"},{"Name":"Khon Sawan","PostCode":"36140","Accuracy":4,"LatLong":"15.9333,102.2833"},{"Name":"Kaeng Khro","PostCode":"36150","Accuracy":4,"LatLong":"16.1,102.2667"},{"Name":"Bamnet Narong","PostCode":"36160","Accuracy":4,"LatLong":"15.4992,101.6897"},{"Name":"Ban Khwao","PostCode":"36170","Accuracy":4,"LatLong":"15.7633,101.9131"},{"Name":"Khon San","PostCode":"36180","Accuracy":4,"LatLong":"16.35,101.8333"},{"Name":"Ban Thaen","PostCode":"36190","Accuracy":4,"LatLong":"16.4,102.3333"},{"Name":"Nong Bua Daeng","PostCode":"36210","Accuracy":4,"LatLong":"16.0833,101.8"},{"Name":"Thep Satthit","PostCode":"36230","LatLong":"15.9167,101.7833"},{"Name":"Nong Bua Rawe","PostCode":"36250","Accuracy":4,"LatLong":"15.75,101.7667"},{"Name":"Phakdi Chumpon","PostCode":"36260","LatLong":"15.9167,101.7833"}]},{"Name":"Amnat Charoen","Code":"37","Places":[{"Name":"Muang Amnat Charoen","PostCode":"37000","LatLong":"15.7075,104.6797"},{"Name":"Lua Amnart","PostCode":"37000","LatLong":"15.7075,104.6797"},{"Name":"Phathumratvongsa","PostCode":"37110","LatLong":"15.6983,104.8928"},{"Name":"Phana","PostCode":"37180","Accuracy":4,"LatLong":"15.6983,104.8928"},{"Name":"Chanunman","PostCode":"37210","LatLong":"15.7167,104.4667"},{"Name":"Hua Taphan","PostCode":"37240","Accuracy":4,"LatLong":"15.7167,104.4667"},{"Name":"Senangkhanikhorn","PostCode":"37290","LatLong":"15.7167,104.4667"}]},{"Name":"Non Bua Lam Phu","Code":"39","Places":[{"Name":"Muang Nong Bua Lam Phu","PostCode":"39000","LatLong":"17.0409,102.3544"},{"Name":"Nong Sang","PostCode":"39140","LatLong":"16.8667,102.5667"},{"Name":"Non Sang","PostCode":"39140","Accuracy":4,"LatLong":"16.8667,102.5667"},{"Name":"Nawang","PostCode":"39170","LatLong":"17.2894,102.2133"},{"Name":"Na Klang","PostCode":"39170","Accuracy":4,"LatLong":"17.2894,102.2133"},{"Name":"Si Bun Ruang","PostCode":"39180","Accuracy":4,"LatLong":"16.9667,102.2833"},{"Name":"Suwannakhuha","PostCode":"39270","LatLong":"17.0409,102.3544"}]},{"Name":"Khon Kaen","Code":"40","Places":[{"Name":"Muang Khonkaen","PostCode":"40000","LatLong":"16.2931,102.6157"},{"Name":"Ban Phai","PostCode":"40110","Accuracy":4,"LatLong":"16.0667,102.7333"},{"Name":"Ban Had","PostCode":"40110","LatLong":"16.0667,102.7333"},{"Name":"Non Silla","PostCode":"40110","LatLong":"16.0667,102.7333"},{"Name":"Phon","PostCode":"40120","Accuracy":4,"LatLong":"15.8167,102.6"},{"Name":"Chum Phae","PostCode":"40130","Accuracy":4,"LatLong":"16.5333,102.1"},{"Name":"Nam Phong","PostCode":"40140","Accuracy":4,"LatLong":"16.7,102.8667"},{"Name":"Nong Nakham","PostCode":"40150","LatLong":"16.65,102.3833"},{"Name":"Phu Wiang","PostCode":"40150","Accuracy":4,"LatLong":"16.65,102.3833"},{"Name":"Mancha Khiri","PostCode":"40160","Accuracy":4,"LatLong":"16.1167,102.55"},{"Name":"Khok Phochai","PostCode":"40160","LatLong":"16.1167,102.55"},{"Name":"Kranuan","PostCode":"40170","Accuracy":4,"LatLong":"16.7,103.0833"},{"Name":"Sum Sung","PostCode":"40170","LatLong":"16.7,103.0833"},{"Name":"Chonnabot","PostCode":"40180","Accuracy":4,"LatLong":"16.1,102.6333"},{"Name":"Nong Song Hong","PostCode":"40190","Accuracy":4,"LatLong":"15.7333,102.8"},{"Name":"Nong Rua","PostCode":"40210","Accuracy":4,"LatLong":"16.5,102.4333"},{"Name":"Si Chomphu","PostCode":"40220","Accuracy":4,"LatLong":"16.8,102.2"},{"Name":"Waeng Noi","PostCode":"40230","Accuracy":4,"LatLong":"15.8,102.4667"},{"Name":"Ubolratana","PostCode":"40250","LatLong":"16.48,102.5233"},{"Name":"Ban Fang","PostCode":"40270","Accuracy":4,"LatLong":"16.45,102.6333"},{"Name":"Khao Suan Kwang","PostCode":"40280","Accuracy":4,"LatLong":"16.85,102.8833"},{"Name":"Phra Yun","PostCode":"40320","Accuracy":4,"LatLong":"16.3333,102.65"},{"Name":"Waeng Yai","PostCode":"40330","Accuracy":4,"LatLong":"15.95,102.5333"},{"Name":"Puai Noi","PostCode":"40340","Accuracy":4,"LatLong":"15.8833,102.9167"},{"Name":"Phu Pha Man","PostCode":"40350","LatLong":"16.0556,102.7"}]},{"Name":"Udon Thani","Code":"41","Places":[{"Name":"Muang Udon Thani","PostCode":"41000","Accuracy":4,"LatLong":"17.1336,102.9675"},{"Name":"Phrachuk Siliakram","PostCode":"41110","LatLong":"17.1336,102.9675"},{"Name":"Kumphawapi","PostCode":"41110","Accuracy":4,"LatLong":"17.1336,102.9675"},{"Name":"Pibun Rak","PostCode":"41130","LatLong":"17.1336,102.9675"},{"Name":"Nong Han","PostCode":"41130","LatLong":"17.1336,102.9675"},{"Name":"Ku Khaew","PostCode":"41130","LatLong":"17.1336,102.9675"},{"Name":"Phen","PostCode":"41150","LatLong":"17.1336,102.9675"},{"Name":"Ban Dung","PostCode":"41190","LatLong":"17.1336,102.9675"},{"Name":"Ban Phu","PostCode":"41190","LatLong":"17.1336,102.9675"},{"Name":"Nam Som","PostCode":"41210","LatLong":"17.1336,102.9675"},{"Name":"Nong Wua So","PostCode":"41220","LatLong":"17.1336,102.9675"},{"Name":"Si That","PostCode":"41230","LatLong":"17.1336,102.9675"},{"Name":"Non Sa-at","PostCode":"41240","LatLong":"17.1336,102.9675"},{"Name":"Kut Chab","PostCode":"41250","LatLong":"17.1336,102.9675"},{"Name":"Sang Khom","PostCode":"41260","LatLong":"17.1336,102.9675"},{"Name":"Chaiwan","PostCode":"41290","LatLong":"17.1336,102.9675"},{"Name":"Thung Fon","PostCode":"41310","LatLong":"17.1336,102.9675"},{"Name":"Nong Saeng","PostCode":"41340","LatLong":"17.1336,102.9675"},{"Name":"Wang Sam Mo","PostCode":"41380","LatLong":"17.1336,102.9675"},{"Name":"Na Yung","PostCode":"41380","LatLong":"17.1336,102.9675"}]},{"Name":"Loei","Code":"42","Places":[{"Name":"Erawan","PostCode":"41220","LatLong":"17.1336,102.9675"},{"Name":"Muang Loei","PostCode":"42000","Accuracy":4,"LatLong":"17.4833,101.7167"},{"Name":"Chiang Khan","PostCode":"42110","Accuracy":4,"LatLong":"17.8667,101.6"},{"Name":"Dan Sai","PostCode":"42120","Accuracy":4,"LatLong":"17.2833,101.15"},{"Name":"Wang Saphung","PostCode":"42130","Accuracy":4,"LatLong":"17.3,101.7667"},{"Name":"Tha Li","PostCode":"42140","Accuracy":4,"LatLong":"17.6167,101.4167"},{"Name":"Pak Chom","PostCode":"42150","Accuracy":4,"LatLong":"18.0333,101.8833"},{"Name":"Phu Rua","PostCode":"42160","Accuracy":4,"LatLong":"17.45,101.3667"},{"Name":"Na Haeo","PostCode":"42170","Accuracy":4,"LatLong":"17.4833,101.0667"},{"Name":"Phu Kradung","PostCode":"42180","Accuracy":4,"LatLong":"16.8833,101.8833"},{"Name":"Na Duang","PostCode":"42210","Accuracy":4,"LatLong":"17.4833,101.9833"},{"Name":"Phu Luang","PostCode":"42230","Accuracy":4,"LatLong":"17.1667,101.7667"},{"Name":"Pha Khao","PostCode":"42240","LatLong":"17.325,101.875"}]},{"Name":"Nong Khai","Code":"43","Places":[{"Name":"Muang Nong Khai","PostCode":"43000","LatLong":"18.0501,103.3054"},{"Name":"Sra Khai","PostCode":"43100","LatLong":"18.0613,103.2227"},{"Name":"Tha Bo","PostCode":"43110","Accuracy":4,"LatLong":"17.845,102.5842"},{"Name":"Fao Rai","PostCode":"43120","Accuracy":4,"LatLong":"18.0167,103.2833"},{"Name":"Rattana Wapi","PostCode":"43120","LatLong":"18.0167,103.1833"},{"Name":"Phon Phisai","PostCode":"43120","Accuracy":4,"LatLong":"18.0167,103.0833"},{"Name":"Si Chiang Mai","PostCode":"43130","Accuracy":4,"LatLong":"17.9564,102.5867"},{"Name":"Po Tak","PostCode":"43130","LatLong":"17.9564,102.5867"},{"Name":"Bung Kan","PostCode":"43140","Accuracy":4,"LatLong":"18.3833,103.6167"},{"Name":"Bung Kla","PostCode":"43140","LatLong":"18.3833,103.6167"},{"Name":"Seka","PostCode":"43150","Accuracy":4,"LatLong":"17.9333,103.95"},{"Name":"Sang Khom","PostCode":"43160","LatLong":"18.0613,103.2227"},{"Name":"So Phisai","PostCode":"43170","Accuracy":4,"LatLong":"18.0667,103.4333"},{"Name":"Phon Charoen","PostCode":"43180","Accuracy":4,"LatLong":"18.0333,103.1667"},{"Name":"Pak Khat","PostCode":"43190","Accuracy":4,"LatLong":"18.3,103.3"},{"Name":"Si Wilai","PostCode":"43210","LatLong":"17.95,104.05"},{"Name":"Bung Khong Long","PostCode":"43220","Accuracy":4,"LatLong":"17.95,104.05"}]},{"Name":"Maha Sarakham","Code":"44","Places":[{"Name":"Muang Maha Sarakham","PostCode":"44000","LatLong":"15.955,103.1867"},{"Name":"Phayakkhaphum Phisai","PostCode":"44110","Accuracy":4,"LatLong":"15.5167,103.2"},{"Name":"Wapi Pathum","PostCode":"44120","Accuracy":4,"LatLong":"15.85,103.3833"},{"Name":"Borabu","PostCode":"44130","Accuracy":4,"LatLong":"16.0333,103.1167"},{"Name":"Kud Rang","PostCode":"44130","LatLong":"16.0333,103.1167"},{"Name":"Kosum Phisai","PostCode":"44140","Accuracy":4,"LatLong":"16.2167,103.0167"},{"Name":"Kantharawichai","PostCode":"44150","Accuracy":4,"LatLong":"16.3167,103.3"},{"Name":"Chiang Yun","PostCode":"44160","Accuracy":4,"LatLong":"16.4167,103.1"},{"Name":"Chuan Chum","PostCode":"44160","LatLong":"16.4167,103.1"},{"Name":"Na Chuak","PostCode":"44170","Accuracy":4,"LatLong":"15.7833,103.0333"},{"Name":"Na Dun","PostCode":"44180","Accuracy":4,"LatLong":"15.7167,103.2333"},{"Name":"Kae Dam","PostCode":"44190","Accuracy":4,"LatLong":"16.0167,103.3833"},{"Name":"Yang Si Surat","PostCode":"44210","Accuracy":4,"LatLong":"15.6833,103.1"}]},{"Name":"Roi Et","Code":"45","Places":[{"Name":"Muang Roi Et","PostCode":"45000","Accuracy":4,"LatLong":"16.05,103.6667"},{"Name":"Chang Han","PostCode":"45000","Accuracy":4,"LatLong":"16.7167,102.7333"},{"Name":"Sri Somdet","PostCode":"45000","LatLong":"16.3833,103.2"},{"Name":"Chiang Khaw","PostCode":"45000","LatLong":"16.3833,103.2"},{"Name":"Phon Thong","PostCode":"45110","Accuracy":4,"LatLong":"16.1167,103.8333"},{"Name":"Salaphum","PostCode":"45120","LatLong":"15.8059,103.7251"},{"Name":"Suwannaphum","PostCode":"45130","Accuracy":4,"LatLong":"15.6047,103.8075"},{"Name":"Nong Hi","PostCode":"45140","Accuracy":4,"LatLong":"15.6167,103.9833"},{"Name":"Phaanom Phrai","PostCode":"45140","LatLong":"15.6167,103.9833"},{"Name":"Kaset Wisai","PostCode":"45150","Accuracy":4,"LatLong":"15.65,103.5833"},{"Name":"At Samat","PostCode":"45160","Accuracy":4,"LatLong":"15.8594,103.8597"},{"Name":"Thawatchaburi","PostCode":"45170","Accuracy":4,"LatLong":"16.1167,103.8333"},{"Name":"Tung Khaoluang","PostCode":"45170","LatLong":"16.1167,103.8333"},{"Name":"Chaturaphak Phiman","PostCode":"45180","Accuracy":4,"LatLong":"15.85,103.55"},{"Name":"Pathum Rat","PostCode":"45190","Accuracy":4,"LatLong":"15.6333,103.35"},{"Name":"Nong Phok","PostCode":"45210","LatLong":"15.649,103.8556"},{"Name":"Muang Suang","PostCode":"45220","Accuracy":4,"LatLong":"15.8167,103.7167"},{"Name":"Pho Chai","PostCode":"45230","LatLong":"15.649,103.8556"},{"Name":"Phon Sai","PostCode":"45240","Accuracy":4,"LatLong":"15.4814,103.9944"},{"Name":"Moeiyawadi","PostCode":"45250","LatLong":"15.649,103.8556"}]},{"Name":"Kalasin","Code":"46","Places":[{"Name":"Donchan","PostCode":"46000","LatLong":"16.4333,103.5"},{"Name":"Muang Kalasin","PostCode":"46000","Accuracy":4,"LatLong":"16.4333,103.5"},{"Name":"Kuchinarai","PostCode":"46110","Accuracy":4,"LatLong":"16.5333,104.0667"},{"Name":"Yang Talat","PostCode":"46120","Accuracy":4,"LatLong":"16.4,103.3833"},{"Name":"Kamalasai","PostCode":"46130","Accuracy":4,"LatLong":"16.3333,103.5833"},{"Name":"Kong Chai","PostCode":"46130","LatLong":"16.3333,103.5833"},{"Name":"Sahatsakhan","PostCode":"46140","Accuracy":4,"LatLong":"16.7833,103.5833"},{"Name":"Somdet","PostCode":"46150","Accuracy":4,"LatLong":"16.7,103.7667"},{"Name":"Na Ku","PostCode":"46160","LatLong":"16.7,104.1"},{"Name":"Khao Wong","PostCode":"46160","Accuracy":4,"LatLong":"16.7,104.1"},{"Name":"Huai Mek","PostCode":"46170","Accuracy":4,"LatLong":"16.6,103.2167"},{"Name":"Kham Muang","PostCode":"46180","Accuracy":4,"LatLong":"16.9167,103.6333"},{"Name":"Tha Khantho","PostCode":"46190","Accuracy":4,"LatLong":"16.95,103.2333"},{"Name":"Rong Kham","PostCode":"46210","Accuracy":4,"LatLong":"16.2667,103.6833"},{"Name":"Nong Kung Si","PostCode":"46220","Accuracy":4,"LatLong":"16.65,103.3"},{"Name":"Na Mon","PostCode":"46230","Accuracy":4,"LatLong":"16.5667,103.8"},{"Name":"Huai Phung","PostCode":"46240","Accuracy":4,"LatLong":"16.65,103.9"}]},{"Name":"Sakon Nakhon","Code":"47","Places":[{"Name":"Muang Sakon Nakhon","PostCode":"47000","LatLong":"17.4046,103.7674"},{"Name":"Sawang Daen Din","PostCode":"47110","Accuracy":4,"LatLong":"17.4719,103.4583"},{"Name":"Wanon Niwat","PostCode":"47120","Accuracy":4,"LatLong":"17.6333,103.7667"},{"Name":"Phanna Nikhom","PostCode":"47130","Accuracy":4,"LatLong":"17.35,103.7833"},{"Name":"Ban Muang","PostCode":"47140","Accuracy":4,"LatLong":"17.85,103.5833"},{"Name":"Waritchaphum","PostCode":"47150","Accuracy":4,"LatLong":"17.2833,103.6333"},{"Name":"Phang Khon","PostCode":"47160","Accuracy":4,"LatLong":"17.3833,103.7167"},{"Name":"Akat Amnuai","PostCode":"47170","LatLong":"17.434,103.6615"},{"Name":"Kut Bak","PostCode":"47180","Accuracy":4,"LatLong":"17.0833,103.8167"},{"Name":"Phu Phan","PostCode":"47180","LatLong":"17.0833,103.8167"},{"Name":"Song Dao","PostCode":"47190","Accuracy":4,"LatLong":"17.4167,103.5333"},{"Name":"Kusuman","PostCode":"47210","Accuracy":4,"LatLong":"17.3333,104.3333"},{"Name":"Pon Nakaew","PostCode":"47230","LatLong":"17.3458,103.9792"},{"Name":"Kham Ta Kla","PostCode":"47250","Accuracy":4,"LatLong":"17.85,103.75"},{"Name":"Tao Ngoi","PostCode":"47260","Accuracy":4,"LatLong":"16.9833,104.1333"},{"Name":"Nikhom Nam Un","PostCode":"47270","Accuracy":4,"LatLong":"17.2167,103.7"},{"Name":"Khok Si Supan","PostCode":"47280","LatLong":"17.3458,103.9792"},{"Name":"Charoensin","PostCode":"47290","LatLong":"17.3458,103.9792"}]},{"Name":"Nakhon Phanom","Code":"48","Places":[{"Name":"Muang Nakhon Phanom","PostCode":"48000","Accuracy":4,"LatLong":"17.4,104.7833"},{"Name":"That Phanom","PostCode":"48110","Accuracy":4,"LatLong":"16.95,104.7333"},{"Name":"Tha Uthen","PostCode":"48120","Accuracy":4,"LatLong":"17.5667,104.6"},{"Name":"Tha Songkhram","PostCode":"48120","Accuracy":4,"LatLong":"17.65,104.2167"},{"Name":"Wang Yang","PostCode":"48130","LatLong":"16.9667,104.5"},{"Name":"Na Kae","PostCode":"48130","Accuracy":4,"LatLong":"16.9667,104.5"},{"Name":"Na Thom","PostCode":"48140","LatLong":"17.9667,104.2333"},{"Name":"Ban Phaeng","PostCode":"48140","Accuracy":4,"LatLong":"17.9667,104.2333"},{"Name":"Si Songkhram","PostCode":"48150","Accuracy":4,"LatLong":"17.6333,104.25"},{"Name":"Pla Pak","PostCode":"48160","Accuracy":4,"LatLong":"17.1833,104.5333"},{"Name":"Renu Nakhon","PostCode":"48170","Accuracy":4,"LatLong":"17.0667,104.6833"},{"Name":"Na Wa","PostCode":"48180","Accuracy":4,"LatLong":"17.4833,104.1"},{"Name":"Phon Sawan","PostCode":"48190","Accuracy":4,"LatLong":"17.45,104.45"}]},{"Name":"Mukdahan","Code":"49","Places":[{"Name":"Muang Mukdahan","PostCode":"49000","LatLong":"16.4792,104.6583"},{"Name":"Khamcha-I","PostCode":"49110","Accuracy":4,"LatLong":"16.5833,104.4167"},{"Name":"Don Tan","PostCode":"49120","Accuracy":4,"LatLong":"16.3167,104.9333"},{"Name":"Nikhom Kham Soi","PostCode":"49130","Accuracy":4,"LatLong":"16.3667,104.5667"},{"Name":"Don Luang","PostCode":"49140","LatLong":"16.4792,104.6583"},{"Name":"Wan Yai","PostCode":"49150","Accuracy":4,"LatLong":"16.65,104.7167"},{"Name":"Nong Sung","PostCode":"49160","LatLong":"16.4792,104.6583"}]},{"Name":"Chiang Mai","Code":"50","Places":[{"Name":"Muang Chiang Mai","PostCode":"50000","Accuracy":4,"LatLong":"18.7903,98.9817"},{"Name":"Fang","PostCode":"50110","Accuracy":4,"LatLong":"19.9167,99.2167"},{"Name":"San Pa Tong","PostCode":"50120","Accuracy":4,"LatLong":"18.6247,98.8944"},{"Name":"San Kamphaeng","PostCode":"50130","Accuracy":4,"LatLong":"18.7422,99.1225"},{"Name":"Mae On","PostCode":"50130","LatLong":"18.7422,99.1225"},{"Name":"Saraphi","PostCode":"50140","Accuracy":4,"LatLong":"18.7142,99.0353"},{"Name":"Mae Taeng","PostCode":"50150","Accuracy":4,"LatLong":"19.1167,98.95"},{"Name":"Chom Thong","PostCode":"50160","Accuracy":4,"LatLong":"18.4269,98.6781"},{"Name":"Doi Lor","PostCode":"50160","LatLong":"18.4269,98.6781"},{"Name":"Chiang Dao","PostCode":"50170","Accuracy":4,"LatLong":"19.3667,98.9667"},{"Name":"Mae Rim","PostCode":"50180","Accuracy":4,"LatLong":"18.9122,98.9397"},{"Name":"Phrao","PostCode":"50190","Accuracy":4,"LatLong":"19.3667,99.2167"},{"Name":"San Sai","PostCode":"50210","Accuracy":4,"LatLong":"18.8522,99.0453"},{"Name":"Doi Saket","PostCode":"50220","Accuracy":4,"LatLong":"18.8744,99.1356"},{"Name":"Hang Dong","PostCode":"50230","Accuracy":4,"LatLong":"18.6872,98.9167"},{"Name":"Hot","PostCode":"50240","Accuracy":4,"LatLong":"18.19,98.6089"},{"Name":"Samoeng","PostCode":"50250","Accuracy":4,"LatLong":"18.8503,98.7328"},{"Name":"Doi Tao","PostCode":"50260","Accuracy":4,"LatLong":"17.9,98.7333"},{"Name":"Mae Chaem","PostCode":"50270","Accuracy":4,"LatLong":"18.5014,98.3611"},{"Name":"Mae Ai","PostCode":"50280","LatLong":"18.5508,98.7905"},{"Name":"Omkoi","PostCode":"50310","Accuracy":4,"LatLong":"17.8,98.3667"},{"Name":"Chai Prakarn","PostCode":"50320","LatLong":"18.8583,98.825"},{"Name":"Weang Hang","PostCode":"50350","LatLong":"18.8583,98.825"},{"Name":"Mae Wang","PostCode":"50360","Accuracy":4,"LatLong":"19.9167,99.2833"}]},{"Name":"Lamphun","Code":"51","Places":[{"Name":"Muang Lamphun","PostCode":"51000","Accuracy":4,"LatLong":"18.5811,99.0092"},{"Name":"Li","PostCode":"51110","Accuracy":4,"LatLong":"17.8,98.95"},{"Name":"Pa Sang","PostCode":"51120","Accuracy":4,"LatLong":"18.5244,98.9386"},{"Name":"Wiang Nonglong","PostCode":"51120","LatLong":"18.5244,98.9386"},{"Name":"Ban Hong","PostCode":"51130","Accuracy":4,"LatLong":"18.3147,98.8175"},{"Name":"Mae Tha","PostCode":"51140","Accuracy":4,"LatLong":"18.4614,99.1361"},{"Name":"Thung Hua Chang","PostCode":"51160","Accuracy":4,"LatLong":"18,99.0333"},{"Name":"Ban Thi","PostCode":"51180","LatLong":"18.2201,98.9751"}]},{"Name":"Lampang","Code":"52","Places":[{"Name":"Muang Lampang","PostCode":"52000","Accuracy":4,"LatLong":"18.2983,99.5072"},{"Name":"Ngao","PostCode":"52110","Accuracy":4,"LatLong":"18.7575,99.9783"},{"Name":"Chae Hom","PostCode":"52120","Accuracy":4,"LatLong":"18.7022,99.5664"},{"Name":"Ko Kha","PostCode":"52130","Accuracy":4,"LatLong":"18.19,99.3928"},{"Name":"Wang Nua","PostCode":"52140","Accuracy":4,"LatLong":"19.15,99.6167"},{"Name":"Mae Tha","PostCode":"52150","Accuracy":4,"LatLong":"18.1306,99.5092"},{"Name":"Thoen","PostCode":"52160","Accuracy":4,"LatLong":"17.6025,99.2139"},{"Name":"Sop Prap","PostCode":"52170","Accuracy":4,"LatLong":"17.8761,99.3431"},{"Name":"Mae Phrik","PostCode":"52180","Accuracy":4,"LatLong":"17.4453,99.1222"},{"Name":"Hang Chat","PostCode":"52190","Accuracy":4,"LatLong":"18.3264,99.3478"},{"Name":"Soem Ngam","PostCode":"52210","Accuracy":4,"LatLong":"18.0333,99.2667"},{"Name":"Mae Mo","PostCode":"52220","Accuracy":4,"LatLong":"18.2611,99.7042"},{"Name":"Muang Pan","PostCode":"52240","Accuracy":4,"LatLong":"18.75,99.5"}]},{"Name":"Uttaradit","Code":"53","Places":[{"Name":"Muang Uttaradit","PostCode":"53000","LatLong":"17.7168,100.5445"},{"Name":"Nam Pat","PostCode":"53110","Accuracy":4,"LatLong":"17.7333,100.5667"},{"Name":"Phichai","PostCode":"53120","Accuracy":4,"LatLong":"17.2872,100.0967"},{"Name":"Laplae","PostCode":"53130","LatLong":"17.7168,100.5445"},{"Name":"Tron","PostCode":"53140","Accuracy":4,"LatLong":"17.4778,100.1189"},{"Name":"Tha Pla","PostCode":"53150","Accuracy":4,"LatLong":"17.8,100.5333"},{"Name":"Fak Tha","PostCode":"53160","Accuracy":4,"LatLong":"17.9833,100.8833"},{"Name":"Ban Khok","PostCode":"53180","Accuracy":4,"LatLong":"18.0189,101.0681"},{"Name":"Tong Saen Khan","PostCode":"53230","LatLong":"17.7168,100.5445"}]},{"Name":"Phrae","Code":"54","Places":[{"Name":"Muang Phrae","PostCode":"54000","Accuracy":4,"LatLong":"18.15,100.1333"},{"Name":"Song","PostCode":"54120","Accuracy":4,"LatLong":"18.4667,100.1833"},{"Name":"Sung Men","PostCode":"54130","Accuracy":4,"LatLong":"18.05,100.1167"},{"Name":"Den Chai","PostCode":"54140","Accuracy":4,"LatLong":"17.9794,100.0533"},{"Name":"Rong Kwang","PostCode":"54140","Accuracy":4,"LatLong":"18.35,100.3167"},{"Name":"Long","PostCode":"54150","Accuracy":4,"LatLong":"18.0747,99.8303"},{"Name":"Wang Chin","PostCode":"54160","Accuracy":4,"LatLong":"17.8908,99.6064"},{"Name":"Nong Muangkhai","PostCode":"54170","LatLong":"18.1353,100.0178"}]},{"Name":"Nan","Code":"55","Places":[{"Name":"Muang Nan","PostCode":"55000","Accuracy":4,"LatLong":"18.7833,100.7833"},{"Name":"Santisuk","PostCode":"55000","LatLong":"18.7833,100.7833"},{"Name":"Phu Piang","PostCode":"55000","LatLong":"18.7833,100.7833"},{"Name":"Wiang Sa","PostCode":"55110","Accuracy":4,"LatLong":"18.5667,100.75"},{"Name":"Pua","PostCode":"55120","Accuracy":4,"LatLong":"19.1833,100.9167"},{"Name":"Thung Chang","PostCode":"55130","Accuracy":4,"LatLong":"19.4167,100.8833"},{"Name":"Chaloem Phrakiat","PostCode":"55130","LatLong":"19.4167,100.8833"},{"Name":"Tha Wang Pha","PostCode":"55140","Accuracy":4,"LatLong":"19.1,100.8167"},{"Name":"Na Noi","PostCode":"55150","Accuracy":4,"LatLong":"18.3167,100.7167"},{"Name":"Song Khaew","PostCode":"55160","LatLong":"19.3,100.8667"},{"Name":"Chiang Klang","PostCode":"55160","Accuracy":4,"LatLong":"19.3,100.8667"},{"Name":"Mae Charim","PostCode":"55170","Accuracy":4,"LatLong":"18.7167,101.0333"},{"Name":"Na Mun","PostCode":"55180","Accuracy":4,"LatLong":"18.1833,100.6667"},{"Name":"Ban Luang","PostCode":"55190","Accuracy":4,"LatLong":"18.8333,100.45"},{"Name":"Bo Klua","PostCode":"55220","Accuracy":4,"LatLong":"19.0833,101.0833"}]},{"Name":"Phayao","Code":"56","Places":[{"Name":"Muang Phayao","PostCode":"56000","Accuracy":4,"LatLong":"19.1667,99.9167"},{"Name":"Pu Khamyaw","PostCode":"56000","LatLong":"19.1667,99.9167"},{"Name":"Chiang Kham","PostCode":"56110","Accuracy":4,"LatLong":"19.5239,100.2992"},{"Name":"Pu Sang","PostCode":"56110","LatLong":"19.5239,100.2992"},{"Name":"Dok Kham Tai","PostCode":"56120","LatLong":"19.3302,100.2497"},{"Name":"Mae Chai","PostCode":"56130","LatLong":"19.3302,100.2497"},{"Name":"Pong","PostCode":"56140","Accuracy":4,"LatLong":"19.1667,100.2833"},{"Name":"Chun","PostCode":"56150","Accuracy":4,"LatLong":"19.3,100.1667"},{"Name":"Chiacg Muan","PostCode":"56160","LatLong":"19.3302,100.2497"}]},{"Name":"Chiang Rai","Code":"57","Places":[{"Name":"Muang Chiang Rai","PostCode":"57000","Accuracy":4,"LatLong":"19.9,99.8333"},{"Name":"Mae Chan","PostCode":"57110","Accuracy":4,"LatLong":"20.1472,99.8539"},{"Name":"Mae Pha Luang","PostCode":"57110","LatLong":"20.2236,100.0936"},{"Name":"Doi Luang","PostCode":"57110","Accuracy":4,"LatLong":"20.3,100.3333"},{"Name":"Phan","PostCode":"57120","Accuracy":4,"LatLong":"19.5667,99.7333"},{"Name":"Mae Sai","PostCode":"57130","Accuracy":4,"LatLong":"20.43,99.8858"},{"Name":"Chiang Khong","PostCode":"57140","Accuracy":4,"LatLong":"20.2833,100.4"},{"Name":"Chiang Saen","PostCode":"57150","Accuracy":4,"LatLong":"20.1472,99.8539"},{"Name":"Thoeng","PostCode":"57160","Accuracy":4,"LatLong":"19.6833,100.2"},{"Name":"Wiang Pa Pao","PostCode":"57170","Accuracy":4,"LatLong":"19.3667,99.5"},{"Name":"Mae Suai","PostCode":"57180","Accuracy":4,"LatLong":"19.65,99.55"},{"Name":"Pa Daet","PostCode":"57190","Accuracy":4,"LatLong":"19.5,100"},{"Name":"Wiang Chiang Rung","PostCode":"57210","LatLong":"19.8833,99.9167"},{"Name":"Wiang Chai","PostCode":"57210","Accuracy":4,"LatLong":"19.8833,99.9167"},{"Name":"Mae Lao","PostCode":"57250","LatLong":"19.8833,99.9167"},{"Name":"Phaya Mengrai","PostCode":"57290","LatLong":"19.8833,99.9167"},{"Name":"Wiang Kaen","PostCode":"57310","LatLong":"19.9048,99.9217"},{"Name":"Khun Tan","PostCode":"57340","LatLong":"19.9048,99.9217"}]},{"Name":"Mae Hong Son","Code":"58","Places":[{"Name":"Muang Mae Hong Son","PostCode":"58000","LatLong":"18.6712,98.0633"},{"Name":"Mae Sariang","PostCode":"58110","Accuracy":4,"LatLong":"18.1578,97.9336"},{"Name":"Sop Moei","PostCode":"58110","LatLong":"18.1578,97.9336"},{"Name":"Mae La Noi","PostCode":"58120","Accuracy":4,"LatLong":"18.3814,97.9356"},{"Name":"Pai","PostCode":"58130","Accuracy":4,"LatLong":"19.3167,98.45"},{"Name":"Khun Yuam","PostCode":"58140","Accuracy":4,"LatLong":"18.8289,97.9342"},{"Name":"Pang Mapha","PostCode":"58150","LatLong":"18.6712,98.0633"}]},{"Name":"Nakhon Sawan","Code":"60","Places":[{"Name":"Muang Nakhon Sawan","PostCode":"60000","Accuracy":4,"LatLong":"15.6833,100.1167"},{"Name":"Nong Bua","PostCode":"60110","Accuracy":4,"LatLong":"15.8667,100.5833"},{"Name":"Chumsaeng","PostCode":"60120","LatLong":"15.6454,100.2218"},{"Name":"Phayuha Khiri","PostCode":"60130","Accuracy":4,"LatLong":"15.45,100.1333"},{"Name":"Takhli","PostCode":"60140","LatLong":"15.6454,100.2218"},{"Name":"Lat Yao","PostCode":"60150","Accuracy":4,"LatLong":"15.7506,99.7903"},{"Name":"Mae Poen","PostCode":"60150","LatLong":"15.7506,99.7903"},{"Name":"Chum Tabong","PostCode":"60150","LatLong":"15.7506,99.7903"},{"Name":"Mae Wong","PostCode":"60150","LatLong":"15.7506,99.7903"},{"Name":"Tha Tako","PostCode":"60160","Accuracy":4,"LatLong":"15.6333,100.4833"},{"Name":"Krok Phra","PostCode":"60170","Accuracy":4,"LatLong":"15.55,100.0833"},{"Name":"Banphot Phisai","PostCode":"60180","Accuracy":4,"LatLong":"15.9342,99.9789"},{"Name":"Tak Fa","PostCode":"60190","Accuracy":4,"LatLong":"15.3333,100.5"},{"Name":"Phaisali","PostCode":"60220","Accuracy":4,"LatLong":"15.6,100.65"},{"Name":"Kao Lieo","PostCode":"60230","Accuracy":4,"LatLong":"15.85,100.0833"}]},{"Name":"Uthai Thani","Code":"61","Places":[{"Name":"Muang Uthai Thani","PostCode":"61000","Accuracy":4,"LatLong":"15.3667,100.05"},{"Name":"Nong Chang","PostCode":"61110","Accuracy":4,"LatLong":"15.3919,99.8439"},{"Name":"Thap Than","PostCode":"61120","Accuracy":4,"LatLong":"15.4594,99.8925"},{"Name":"Nong Khayang","PostCode":"61130","Accuracy":4,"LatLong":"15.3619,99.9292"},{"Name":"Ban Rai","PostCode":"61140","Accuracy":4,"LatLong":"15.3667,99.85"},{"Name":"Sawang Arom","PostCode":"61150","Accuracy":4,"LatLong":"15.6167,99.8667"},{"Name":"Lan Sak","PostCode":"61160","Accuracy":4,"LatLong":"15.4167,99.6833"},{"Name":"Huai Khot","PostCode":"61170","Accuracy":4,"LatLong":"15.1333,99.5667"}]},{"Name":"Kamphaeng Phet","Code":"62","Places":[{"Name":"Muang Kamphaeng Phet","PostCode":"62000","LatLong":"16.31,99.68"},{"Name":"Phran Kratai","PostCode":"62110","Accuracy":4,"LatLong":"16.6667,99.6"},{"Name":"Khlong Khlung","PostCode":"62120","Accuracy":4,"LatLong":"16.2,99.7167"},{"Name":"Pangslila Thong","PostCode":"62120","LatLong":"16.2,99.7167"},{"Name":"Khanu Woralaksaburi","PostCode":"62130","Accuracy":4,"LatLong":"16.0667,99.8667"},{"Name":"Sai Ngam","PostCode":"62150","Accuracy":4,"LatLong":"16.5,99.9167"},{"Name":"Lan Krabue","PostCode":"62170","LatLong":"16.31,99.68"},{"Name":"Khosamphi Nakhon","PostCode":"62170","LatLong":"16.31,99.68"},{"Name":"Khlong Lan","PostCode":"62180","Accuracy":4,"LatLong":"16.1167,99.3"},{"Name":"Saithong Wattana","PostCode":"62190","LatLong":"16.31,99.68"},{"Name":"Bung Samakki","PostCode":"62210","LatLong":"16.31,99.68"}]},{"Name":"Tak","Code":"63","Places":[{"Name":"Muang Tak","PostCode":"63000","Accuracy":4,"LatLong":"16.8667,99.1333"},{"Name":"Wang Chaw","PostCode":"63000","LatLong":"16.8667,99.1333"},{"Name":"Mae Sot","PostCode":"63110","Accuracy":4,"LatLong":"16.7167,98.5667"},{"Name":"Ban Tak","PostCode":"63120","Accuracy":4,"LatLong":"17.0406,99.0631"},{"Name":"Sam Ngao","PostCode":"63130","Accuracy":4,"LatLong":"17.2119,99.0578"},{"Name":"Mae Ramat","PostCode":"63140","Accuracy":4,"LatLong":"16.9667,98.5167"},{"Name":"Tha Song Yang","PostCode":"63150","Accuracy":4,"LatLong":"17.2167,98.2333"},{"Name":"Phob Phra","PostCode":"63160","LatLong":"16.8615,98.7174"},{"Name":"Umphang","PostCode":"63170","Accuracy":4,"LatLong":"16.0167,98.8667"}]},{"Name":"Sukhothai","Code":"64","Places":[{"Name":"Muang Sukhothai","PostCode":"64000","LatLong":"17.1772,99.8064"},{"Name":"Sawankhalok","PostCode":"64110","Accuracy":4,"LatLong":"17.3086,99.8342"},{"Name":"Si Samrong","PostCode":"64120","Accuracy":4,"LatLong":"17.1631,99.8672"},{"Name":"Si Satchanalai","PostCode":"64130","Accuracy":4,"LatLong":"17.5167,99.7667"},{"Name":"Ban Dan Lan Hoi","PostCode":"64140","Accuracy":4,"LatLong":"17.0153,99.7078"},{"Name":"Thung Saliam","PostCode":"64150","Accuracy":4,"LatLong":"17.3136,99.5589"},{"Name":"Khiri Mat","PostCode":"64160","Accuracy":4,"LatLong":"16.8333,99.8"},{"Name":"Kong Krailat","PostCode":"64170","Accuracy":4,"LatLong":"16.9333,99.9667"},{"Name":"Si Nakhon","PostCode":"64180","Accuracy":4,"LatLong":"17.3333,99.95"}]},{"Name":"Phitsanulok","Code":"65","Places":[{"Name":"Muang Phitsanulok","PostCode":"65000","Accuracy":4,"LatLong":"16.8333,100.25"},{"Name":"Bang Krathum","PostCode":"65110","Accuracy":4,"LatLong":"16.5667,100.3"},{"Name":"Nakhon Thai","PostCode":"65120","Accuracy":4,"LatLong":"17.1167,100.8333"},{"Name":"Wang Thong","PostCode":"65130","Accuracy":4,"LatLong":"16.8333,100.4333"},{"Name":"Bang Rakam","PostCode":"65140","Accuracy":4,"LatLong":"16.75,100.1167"},{"Name":"Phrom Phiram","PostCode":"65150","Accuracy":4,"LatLong":"17.0331,100.2019"},{"Name":"Wat Bot","PostCode":"65160","Accuracy":4,"LatLong":"17,100.3167"},{"Name":"Chat Trakan","PostCode":"65170","Accuracy":4,"LatLong":"17.2833,100.65"},{"Name":"Noen Maprang","PostCode":"65190","Accuracy":4,"LatLong":"16.5667,100.6333"}]},{"Name":"Phichit","Code":"66","Places":[{"Name":"Muang Phichit","PostCode":"66000","Accuracy":4,"LatLong":"16.4333,100.3667"},{"Name":"Taphan Hin","PostCode":"66110","Accuracy":4,"LatLong":"16.2167,100.4333"},{"Name":"Bang Mun Nak","PostCode":"66120","Accuracy":4,"LatLong":"16.0333,100.3833"},{"Name":"Bung Norong","PostCode":"66130","LatLong":"16.0833,100.2667"},{"Name":"Pho Thale","PostCode":"66130","Accuracy":4,"LatLong":"16.0833,100.2667"},{"Name":"Sam Ngam","PostCode":"66140","Accuracy":4,"LatLong":"16.5167,100.2167"},{"Name":"Wachirabarami","PostCode":"66140","LatLong":"16.5167,100.2167"},{"Name":"Tab Khlo","PostCode":"66150","LatLong":"16.2722,100.35"},{"Name":"Sak Lek","PostCode":"66160","Accuracy":4,"LatLong":"16.4833,100.4833"},{"Name":"Wang Sai Phun","PostCode":"66180","LatLong":"16.2722,100.35"},{"Name":"Pho Prathap Chang","PostCode":"66190","Accuracy":4,"LatLong":"16.3,100.3167"},{"Name":"Dong Charoen","PostCode":"66210","LatLong":"16.2952,100.3524"}]},{"Name":"Ratchaburi","Code":"70","Places":[{"Name":"Muang Ratchaburi","PostCode":"70000","LatLong":"13.5854,99.7875"},{"Name":"Ban Pong","PostCode":"70110","Accuracy":4,"LatLong":"13.8167,99.8833"},{"Name":"Photharam","PostCode":"70120","Accuracy":4,"LatLong":"13.6833,99.85"},{"Name":"Damnoen Saduak","PostCode":"70130","Accuracy":4,"LatLong":"13.5167,99.9333"},{"Name":"Pak Tho","PostCode":"70140","Accuracy":4,"LatLong":"13.3833,99.85"},{"Name":"Chom Bung","PostCode":"70150","Accuracy":4,"LatLong":"13.6167,99.6"},{"Name":"Bang Phae","PostCode":"70160","Accuracy":4,"LatLong":"13.7,99.9333"},{"Name":"Wat Phleng","PostCode":"70170","Accuracy":4,"LatLong":"13.45,99.9"},{"Name":"Suan Phung","PostCode":"70180","Accuracy":4,"LatLong":"13.5167,99.35"},{"Name":"Ban Ka","PostCode":"70180","LatLong":"13.5167,99.35"}]},{"Name":"Khanchanaburi","Code":"71","Places":[{"Name":"Muang Kanchanaburi","PostCode":"71000","LatLong":"14.2617,99.4036"},{"Name":"Tha Muang","PostCode":"71110","Accuracy":4,"LatLong":"13.9667,99.6333"},{"Name":"Tha Maka","PostCode":"71120","Accuracy":4,"LatLong":"13.9,99.7667"},{"Name":"Phanom Thuan","PostCode":"71140","Accuracy":4,"LatLong":"14.1258,99.7011"},{"Name":"Sai Yok","PostCode":"71150","Accuracy":4,"LatLong":"14.1169,99.1375"},{"Name":"Bo Phloi","PostCode":"71160","Accuracy":4,"LatLong":"14.3236,99.5161"},{"Name":"Huai Khaiaw","PostCode":"71170","LatLong":"14.0866,99.5509"},{"Name":"Thong Phaphum","PostCode":"71180","LatLong":"14.0866,99.5509"},{"Name":"Lao Khwan","PostCode":"71210","Accuracy":4,"LatLong":"14.65,99.8"},{"Name":"Nong Prue","PostCode":"71220","LatLong":"14.4806,99.2194"},{"Name":"Sangkhla Buri","PostCode":"71240","Accuracy":4,"LatLong":"14.7333,98.6333"},{"Name":"Si Sawat","PostCode":"71250","Accuracy":4,"LatLong":"14.6892,99.0275"},{"Name":"Dan Makham Tia","PostCode":"71260","Accuracy":4,"LatLong":"13.85,99.4167"}]},{"Name":"Suphanburi","Code":"72","Places":[{"Name":"Muang Suphan Buri","PostCode":"72000","LatLong":"14.576,100.0286"},{"Name":"Song Phi Nong","PostCode":"72110","Accuracy":4,"LatLong":"14.2167,100.05"},{"Name":"Doembang Nangbuat","PostCode":"72120","LatLong":"14.576,100.0286"},{"Name":"Sam Chuk","PostCode":"72130","Accuracy":4,"LatLong":"14.75,100.1"},{"Name":"Si Prachan","PostCode":"72140","Accuracy":4,"LatLong":"14.6167,100.15"},{"Name":"Bang Pla Ma","PostCode":"72150","Accuracy":4,"LatLong":"14.4228,100.1381"},{"Name":"U-Thong","PostCode":"72160","LatLong":"14.576,100.0286"},{"Name":"Don Chedi","PostCode":"72170","Accuracy":4,"LatLong":"14.6333,100.0333"},{"Name":"Dan Chang","PostCode":"72180","Accuracy":4,"LatLong":"14.8167,99.7"},{"Name":"Nong Yasai","PostCode":"72240","LatLong":"14.576,100.0286"}]},{"Name":"Nakhon Pathom","Code":"73","Places":[{"Name":"Muang Nakhon Pathom","PostCode":"73000","LatLong":"13.8667,100.1917"},{"Name":"Sam Phran","PostCode":"73110","Accuracy":4,"LatLong":"13.7167,100.2167"},{"Name":"Nakhon Chaisi","PostCode":"73120","LatLong":"13.8667,100.1917"},{"Name":"Bang Len","PostCode":"73130","Accuracy":4,"LatLong":"14.0167,100.1667"},{"Name":"Khamphaeng Saen","PostCode":"73140","LatLong":"13.8667,100.1917"},{"Name":"Don Tum","PostCode":"73150","LatLong":"13.8667,100.1917"},{"Name":"Phutha Monthon","PostCode":"73170","LatLong":"13.8667,100.1917"}]},{"Name":"Samut Sakhon","Code":"74","Places":[{"Name":"Muang Samut Sakhon","PostCode":"74000","Accuracy":4,"LatLong":"13.5333,100.2833"},{"Name":"Krathum Baen","PostCode":"74110","Accuracy":4,"LatLong":"13.65,100.2667"},{"Name":"Ban Phaeo","PostCode":"74120","Accuracy":4,"LatLong":"13.5833,100.1167"}]},{"Name":"Samut Songkhram","Code":"75","Places":[{"Name":"Muang Samut Songkhram","PostCode":"75000","Accuracy":4,"LatLong":"13.4,100"},{"Name":"Amphawa","PostCode":"75110","Accuracy":4,"LatLong":"13.4167,99.95"},{"Name":"Bang Khonthi","PostCode":"75120","Accuracy":4,"LatLong":"13.4667,99.9333"}]},{"Name":"Phetchabun","Code":"76","Places":[{"Name":"Muang Phetchabun","PostCode":"67000","Accuracy":4,"LatLong":"16.4167,101.1333"},{"Name":"Lom Sak","PostCode":"67110","Accuracy":4,"LatLong":"16.7833,101.25"},{"Name":"Lom Kao","PostCode":"67120","Accuracy":4,"LatLong":"16.8833,101.2333"},{"Name":"Wichian Buri","PostCode":"67130","Accuracy":4,"LatLong":"15.6589,101.1125"},{"Name":"Nong Phai","PostCode":"67140","Accuracy":4,"LatLong":"15.9825,101.0622"},{"Name":"Chon Daen","PostCode":"67150","Accuracy":4,"LatLong":"16.1833,100.85"},{"Name":"Bung Sam Phan","PostCode":"67160","Accuracy":4,"LatLong":"15.7833,101.0333"},{"Name":"Si Thep","PostCode":"67170","Accuracy":4,"LatLong":"15.4469,101.0725"},{"Name":"Wang Pong","PostCode":"67240","Accuracy":4,"LatLong":"16.3333,100.8"},{"Name":"Nam Nao","PostCode":"67260","Accuracy":4,"LatLong":"16.75,101.75"},{"Name":"Khao Kho","PostCode":"67270","Accuracy":4,"LatLong":"16.6667,100.9667"}]},{"Name":"Phetchaburi","Code":"76","Places":[{"Name":"Muang Phetchaburi","PostCode":"76000","LatLong":"13.0694,100.0528"},{"Name":"Ban Laem","PostCode":"76110","Accuracy":4,"LatLong":"13.2167,99.9833"},{"Name":"Cha-Am","PostCode":"76120","Accuracy":4,"LatLong":"12.8,99.9667"},{"Name":"Tha Yang","PostCode":"76130","Accuracy":4,"LatLong":"12.9667,100.9"},{"Name":"Khao Yoi","PostCode":"76140","Accuracy":4,"LatLong":"13.2333,99.8333"},{"Name":"Ban Lat","PostCode":"76150","Accuracy":4,"LatLong":"13.05,99.9333"},{"Name":"Nong Ya Plong","PostCode":"76160","Accuracy":4,"LatLong":"13.15,99.7"},{"Name":"Kang Krachan","PostCode":"76170","LatLong":"13.0694,100.0528"}]},{"Name":"Prachuap Khirikhan","Code":"77","Places":[{"Name":"Muang prachuap Khirikan","PostCode":"77000","LatLong":"11.7972,99.7278"},{"Name":"Hua Hin","PostCode":"77110","Accuracy":4,"LatLong":"12.5667,99.9667"},{"Name":"Pran Buri","PostCode":"77120","Accuracy":4,"LatLong":"12.3833,99.9167"},{"Name":"Thap Sakae","PostCode":"77130","Accuracy":4,"LatLong":"11.5,99.6167"},{"Name":"Bang Saphan","PostCode":"77140","Accuracy":4,"LatLong":"11.2,99.5167"},{"Name":"Kui Buri","PostCode":"77150","Accuracy":4,"LatLong":"12.05,99.8667"},{"Name":"Bang Saphan Noi","PostCode":"77170","Accuracy":4,"LatLong":"11.0833,99.4833"},{"Name":"Samaroiyod","PostCode":"77180","LatLong":"11.7972,99.7278"}]},{"Name":"Nakhon Sie Thammarat","Code":"80","Places":[{"Name":"Phra Phrom","PostCode":"80000","Accuracy":4,"LatLong":"14.65,100.6"},{"Name":"Muang Nakhon Si Thammarat","PostCode":"80000","LatLong":"14.65,100.6"},{"Name":"Thung Song","PostCode":"80110","Accuracy":4,"LatLong":"8.15,99.7333"},{"Name":"Sichon","PostCode":"80120","Accuracy":4,"LatLong":"9,99.9"},{"Name":"Ron Phibun","PostCode":"80130","Accuracy":4,"LatLong":"8.15,99.85"},{"Name":"Chula Phon","PostCode":"80130","LatLong":"8.15,99.85"},{"Name":"Pak Phanang","PostCode":"80140","Accuracy":4,"LatLong":"8.35,100.2"},{"Name":"Chawang","PostCode":"80150","Accuracy":4,"LatLong":"8.4167,99.5"},{"Name":"Tha Sala","PostCode":"80160","Accuracy":4,"LatLong":"8.6667,99.9333"},{"Name":"Nob Pitam","PostCode":"80160","LatLong":"8.6667,99.9333"},{"Name":"Hua Sai","PostCode":"80170","Accuracy":4,"LatLong":"8.0333,100.3"},{"Name":"Cha-uat","PostCode":"80180","Accuracy":4,"LatLong":"7.9667,100"},{"Name":"Chian Yai","PostCode":"80190","Accuracy":4,"LatLong":"8.1667,100.15"},{"Name":"Chaloem Phrakiat","PostCode":"80190","LatLong":"8.1667,100.15"},{"Name":"Khanom","PostCode":"80210","Accuracy":4,"LatLong":"9.2,99.8667"},{"Name":"Na Bon","PostCode":"80220","Accuracy":4,"LatLong":"8.25,99.5833"},{"Name":"Lan Saka","PostCode":"80230","Accuracy":4,"LatLong":"8.35,99.8"},{"Name":"Thung Yai","PostCode":"80240","Accuracy":4,"LatLong":"8.3,99.3667"},{"Name":"Chang Khlang","PostCode":"80250","LatLong":"8.54,99.65"},{"Name":"Tham Punnara","PostCode":"80260","LatLong":"8.54,99.65"},{"Name":"Phipun","PostCode":"80270","Accuracy":4,"LatLong":"8.6,99.6333"},{"Name":"Phromkhiri","PostCode":"80320","LatLong":"8,99.5333"},{"Name":"Bang Khan","PostCode":"80360","Accuracy":4,"LatLong":"8,99.5333"},{"Name":"Lamai Beach","PostCode":"84310","Accuracy":4,"LatLong":"9.4659,100.045"}]},{"Name":"Krabi","Code":"81","Places":[{"Name":"Muang Krabi","PostCode":"81000","LatLong":"8.119,99.0214"},{"Name":"Ao Luk","PostCode":"81110","Accuracy":4,"LatLong":"8.3833,98.7167"},{"Name":"Khlong Thom","PostCode":"81120","Accuracy":4,"LatLong":"7.9333,99.15"},{"Name":"Lam Thap","PostCode":"81120","Accuracy":4,"LatLong":"8.0667,99.3"},{"Name":"Nua Khlong","PostCode":"81130","Accuracy":4,"LatLong":"8.0667,99"},{"Name":"Khao Phanom","PostCode":"81140","Accuracy":4,"LatLong":"8.25,99.0333"},{"Name":"Ko Lanta","PostCode":"81150","Accuracy":4,"LatLong":"7.55,99.0833"},{"Name":"Plai Phraya","PostCode":"81160","Accuracy":4,"LatLong":"8.5833,98.8667"}]},{"Name":"Phang Nga","Code":"82","Places":[{"Name":"Muang Phang Nga","PostCode":"82000","LatLong":"8.6944,98.4389"},{"Name":"Takua Pa","PostCode":"82110","Accuracy":4,"LatLong":"8.8333,98.3667"},{"Name":"Thai Muang","PostCode":"82120","Accuracy":4,"LatLong":"8.5333,98.3"},{"Name":"Takua Thung","PostCode":"82130","Accuracy":4,"LatLong":"8.4,98.45"},{"Name":"Khura Buri","PostCode":"82150","Accuracy":4,"LatLong":"9.2,98.4333"},{"Name":"Koh Yao","PostCode":"82160","LatLong":"8.6944,98.4389"},{"Name":"Kapong","PostCode":"82170","Accuracy":4,"LatLong":"8.6833,98.45"},{"Name":"Thap Put","PostCode":"82180","Accuracy":4,"LatLong":"8.5167,98.6333"}]},{"Name":"Phuket","Code":"83","Places":[{"Name":"Muang Phuket","PostCode":"83000","LatLong":"7.95,98.3583"},{"Name":"Thalang","PostCode":"83110","Accuracy":4,"LatLong":"7.9833,98.3667"},{"Name":"Kathu","PostCode":"83120","Accuracy":4,"LatLong":"7.9167,98.35"}]},{"Name":"Surat Thani","Code":"84","Places":[{"Name":"Muang Surat Thani","PostCode":"84000","LatLong":"9.1308,99.3628"},{"Name":"Chaiya","PostCode":"84110","Accuracy":4,"LatLong":"9.3833,99.2333"},{"Name":"Ban Na San","PostCode":"84120","Accuracy":4,"LatLong":"8.8,99.3667"},{"Name":"Phunphin","PostCode":"84130","Accuracy":4,"LatLong":"9.1167,99.2"},{"Name":"Ko Samui","PostCode":"84140","Accuracy":4,"LatLong":"9.4333,99.9667"},{"Name":"Tha Chang","PostCode":"84150","LatLong":"9.1417,99.3313"},{"Name":"Kanchanadit","PostCode":"84160","Accuracy":4,"LatLong":"9.1667,99.4667"},{"Name":"Tha Chana","PostCode":"84170","Accuracy":4,"LatLong":"9.5667,99.15"},{"Name":"Khiri Ratthanikhom","PostCode":"84180","Accuracy":4,"LatLong":"9.0333,98.9167"},{"Name":"Wiphawadi","PostCode":"84180","LatLong":"9.0333,98.9167"},{"Name":"Wiang Sa","PostCode":"84190","Accuracy":4,"LatLong":"8.6333,99.35"},{"Name":"Phrasaeng","PostCode":"84210","LatLong":"9.1133,99.4133"},{"Name":"Chai Buri","PostCode":"84210","LatLong":"9.1133,99.4133"},{"Name":"Don Sak","PostCode":"84220","Accuracy":4,"LatLong":"9.3,99.6833"},{"Name":"Ban Ta Khun","PostCode":"84230","LatLong":"9.1133,99.4133"},{"Name":"Ban Na Doem","PostCode":"84240","Accuracy":4,"LatLong":"8.8833,99.3167"},{"Name":"Phanom","PostCode":"84250","Accuracy":4,"LatLong":"8.8167,98.8333"},{"Name":"Khian Sa","PostCode":"84260","Accuracy":4,"LatLong":"8.85,99.2333"},{"Name":"Ko Phangan","PostCode":"84280","Accuracy":4,"LatLong":"9.7167,100"}]},{"Name":"Ranong","Code":"85","Places":[{"Name":"Muang Ranong","PostCode":"85000","Accuracy":4,"LatLong":"9.9667,98.6333"},{"Name":"Kra Buri","PostCode":"85110","Accuracy":4,"LatLong":"10.4,98.7833"},{"Name":"Kapoe","PostCode":"85120","Accuracy":4,"LatLong":"9.5833,98.6"},{"Name":"Suk Samran","PostCode":"85120","LatLong":"9.5833,98.6"},{"Name":"La-Un","PostCode":"85130","Accuracy":4,"LatLong":"10.1167,98.7667"}]},{"Name":"Chumphon","Code":"86","Places":[{"Name":"Muang Chumphon","PostCode":"86000","LatLong":"10.1905,99.0905"},{"Name":"Lang Suan","PostCode":"86110","Accuracy":4,"LatLong":"9.95,99.0667"},{"Name":"Sawi","PostCode":"86130","Accuracy":4,"LatLong":"10.2333,99.0833"},{"Name":"Tha Sae","PostCode":"86140","Accuracy":4,"LatLong":"10.6667,99.1667"},{"Name":"Pathiu","PostCode":"86160","Accuracy":4,"LatLong":"10.7,99.3167"},{"Name":"Lamae","PostCode":"86170","Accuracy":4,"LatLong":"9.85,99.0833"},{"Name":"Phato","PostCode":"86180","Accuracy":4,"LatLong":"9.8,98.8"},{"Name":"Thung Tako","PostCode":"86220","Accuracy":4,"LatLong":"10.1333,99.1167"}]},{"Name":"Songkhla","Code":"90","Places":[{"Name":"Muang Songkhla","PostCode":"90000","LatLong":"7.0167,100.6619"},{"Name":"Bang Klam","PostCode":"90110","Accuracy":4,"LatLong":"7.1,100.4167"},{"Name":"Hat Yai","PostCode":"90110","Accuracy":4,"LatLong":"7.0167,100.4667"},{"Name":"Sa Dao","PostCode":"90120","LatLong":"7.0694,100.6"},{"Name":"Chana","PostCode":"90130","Accuracy":4,"LatLong":"6.9167,100.7333"},{"Name":"Ranot","PostCode":"90140","Accuracy":4,"LatLong":"7.7667,100.3167"},{"Name":"Thepha","PostCode":"90150","Accuracy":4,"LatLong":"6.8667,100.9667"},{"Name":"Na Thawi","PostCode":"90160","Accuracy":4,"LatLong":"6.75,100.7"},{"Name":"Rattapum","PostCode":"90180","LatLong":"7.0694,100.6"},{"Name":"Sating Phra","PostCode":"90190","LatLong":"7.0694,100.6"},{"Name":"Sabayoi","PostCode":"90210","LatLong":"6.7,101.0333"},{"Name":"Kuan Niang","PostCode":"90220","Accuracy":4,"LatLong":"6.7,101.0333"},{"Name":"Khlong Hoykhong","PostCode":"90230","LatLong":"6.7,101.0333"},{"Name":"Krasae Sin","PostCode":"90270","LatLong":"6.7,101.0333"},{"Name":"Na Mom","PostCode":"90310","LatLong":"7.0167,100.6619"},{"Name":"Singha Nakorn","PostCode":"90330","LatLong":"7.0167,100.6619"}]},{"Name":"Satun","Code":"91","Places":[{"Name":"Muang Satun","PostCode":"91000","LatLong":"6.9292,99.8708"},{"Name":"Langu","PostCode":"91110","Accuracy":4,"LatLong":"6.8833,99.7833"},{"Name":"Thung Wa","PostCode":"91120","Accuracy":4,"LatLong":"7.1,99.7667"},{"Name":"Manung","PostCode":"91130","LatLong":"6.8667,100.0167"},{"Name":"Khuan Ka Long","PostCode":"91130","Accuracy":4,"LatLong":"6.8667,100.0167"},{"Name":"Tha Phae","PostCode":"91150","Accuracy":4,"LatLong":"6.8667,99.9167"},{"Name":"Khuan Doan","PostCode":"91160","LatLong":"6.9292,99.8708"}]},{"Name":"Trang","Code":"92","Places":[{"Name":"Muang Trang","PostCode":"92000","LatLong":"7.5611,99.5417"},{"Name":"Kantang","PostCode":"92110","Accuracy":4,"LatLong":"7.4167,99.5167"},{"Name":"Palian","PostCode":"92120","Accuracy":4,"LatLong":"7.3333,99.8"},{"Name":"Had Samran","PostCode":"92120","LatLong":"7.3333,99.8"},{"Name":"Huai Yot","PostCode":"92130","Accuracy":4,"LatLong":"7.75,99.6167"},{"Name":"Yan Tak Kao","PostCode":"92140","LatLong":"7.5267,99.5933"},{"Name":"Sikao","PostCode":"92150","Accuracy":4,"LatLong":"7.5667,99.35"},{"Name":"Rachada","PostCode":"92160","LatLong":"7.5267,99.5933"},{"Name":"Na Yong","PostCode":"92170","Accuracy":4,"LatLong":"7.5667,99.6833"},{"Name":"Wang Wiset","PostCode":"92220","Accuracy":4,"LatLong":"7.7333,99.2833"}]},{"Name":"Phatthalung","Code":"93","Places":[{"Name":"Sri Nakharin","PostCode":"93000","LatLong":"7.4944,100.0583"},{"Name":"Muang Phatthalung","PostCode":"93000","LatLong":"7.4944,100.0583"},{"Name":"Khuan Khanun","PostCode":"93110","Accuracy":4,"LatLong":"7.7333,100.0167"},{"Name":"Pa Payam","PostCode":"93110","LatLong":"7.7333,100.0167"},{"Name":"Pak Phayun","PostCode":"93120","Accuracy":4,"LatLong":"7.35,100.3167"},{"Name":"Khao Chaison","PostCode":"93130","Accuracy":4,"LatLong":"7.4167,100.0833"},{"Name":"Bang Kaeo","PostCode":"93140","LatLong":"7.4944,100.0583"},{"Name":"Tamot","PostCode":"93160","Accuracy":4,"LatLong":"7.2833,100.05"},{"Name":"Pa Bon","PostCode":"93170","LatLong":"7.4944,100.0583"},{"Name":"Kong Ra","PostCode":"93180","Accuracy":4,"LatLong":"7.4667,99.95"},{"Name":"Si Ban Phot","PostCode":"93190","Accuracy":4,"LatLong":"7.7167,99.9333"}]},{"Name":"Pattani","Code":"94","Places":[{"Name":"Muang Pattani","PostCode":"94000","LatLong":"6.758,101.3775"},{"Name":"Sai Buri","PostCode":"94110","Accuracy":4,"LatLong":"6.7031,101.6203"},{"Name":"Khok Pho","PostCode":"94120","Accuracy":4,"LatLong":"6.7314,101.1053"},{"Name":"Panare","PostCode":"94130","Accuracy":4,"LatLong":"6.86,101.4903"},{"Name":"Mayo","PostCode":"94140","LatLong":"6.7794,101.3362"},{"Name":"Thung Yan Daeng","PostCode":"94140","LatLong":"6.7794,101.3362"},{"Name":"Yaring","PostCode":"94150","Accuracy":4,"LatLong":"6.8617,101.365"},{"Name":"Yarang","PostCode":"94160","Accuracy":4,"LatLong":"6.7728,101.3133"},{"Name":"Nong Chik","PostCode":"94170","Accuracy":4,"LatLong":"6.8453,101.1881"},{"Name":"Mae Lan","PostCode":"94180","Accuracy":4,"LatLong":"6.6819,101.2714"},{"Name":"Mai Kaen","PostCode":"94220","Accuracy":4,"LatLong":"6.6078,101.6667"},{"Name":"Kpho","PostCode":"94230","LatLong":"6.6078,101.6667"}]},{"Name":"Yala","Code":"95","Places":[{"Name":"Muang Yala","PostCode":"95000","Accuracy":4,"LatLong":"6.5428,101.2836"},{"Name":"Kung Pinung","PostCode":"95000","LatLong":"6.5428,101.2836"},{"Name":"Betong","PostCode":"95110","Accuracy":4,"LatLong":"5.75,101.0833"},{"Name":"Ka Bung","PostCode":"95120","LatLong":"6.4778,101.135"},{"Name":"Yaha","PostCode":"95120","Accuracy":4,"LatLong":"6.4778,101.135"},{"Name":"Bannang Sata","PostCode":"95130","Accuracy":4,"LatLong":"6.2667,101.2667"},{"Name":"Raman","PostCode":"95140","Accuracy":4,"LatLong":"6.4797,101.4225"},{"Name":"Than To","PostCode":"95150","Accuracy":4,"LatLong":"6.2167,101.15"}]},{"Name":"Narathiwat","Code":"96","Places":[{"Name":"Muang Narathiwat","PostCode":"96000","Accuracy":4,"LatLong":"6.25,102.0333"},{"Name":"Tak Bai","PostCode":"96110","Accuracy":4,"LatLong":"6.2667,102.05"},{"Name":"Sungai Kolok","PostCode":"96120","Accuracy":4,"LatLong":"6.0267,101.9678"},{"Name":"Rangae","PostCode":"96130","Accuracy":4,"LatLong":"6.2908,101.7119"},{"Name":"Jao I Rong","PostCode":"96130","LatLong":"6.2908,101.7119"},{"Name":"Sungai Padi","PostCode":"96140","Accuracy":4,"LatLong":"6.15,101.9"},{"Name":"Ruso","PostCode":"96150","Accuracy":4,"LatLong":"6.3936,101.5197"},{"Name":"Waeng","PostCode":"96160","Accuracy":4,"LatLong":"5.9333,101.9"},{"Name":"Bacho","PostCode":"96170","Accuracy":4,"LatLong":"6.6167,101.65"},{"Name":"Yi-Ngo","PostCode":"96180","LatLong":"6.2014,101.8103"},{"Name":"Sukhirin","PostCode":"96190","Accuracy":4,"LatLong":"5.9333,101.7833"},{"Name":"Si Sakhon","PostCode":"96210","Accuracy":4,"LatLong":"6.15,101.55"},{"Name":"Chanae","PostCode":"96220","Accuracy":4,"LatLong":"6.1106,101.6897"}]},{"Name":"Na Tan","Places":[{"Name":"Phibun Mangsahan","PostCode":"34110","Accuracy":4,"LatLong":"15.2333,105.2333"},{"Name":"Trakan Puetphon","PostCode":"34130","LatLong":"15.6417,105.225"},{"Name":"Thung Sriudom","PostCode":"34160","LatLong":"15.6417,105.225"},{"Name":"Na Year","PostCode":"34160","LatLong":"15.6417,105.225"},{"Name":"Sawang Werarong","PostCode":"34190","LatLong":"15.6417,105.225"},{"Name":"Warin Chamrabp","PostCode":"34190","LatLong":"15.6417,105.225"},{"Name":"Si Muang Mai","PostCode":"34250","Accuracy":4,"LatLong":"15.4833,105.2833"},{"Name":"Nam Khun","PostCode":"34260","Accuracy":4,"LatLong":"12.9167,102.0333"},{"Name":"Nam Yuen","PostCode":"34260","LatLong":"12.9167,102.0333"},{"Name":"Tan Sum","PostCode":"34330","Accuracy":4,"LatLong":"15.3833,105.1167"},{"Name":"Po Sai","PostCode":"34340","LatLong":"14.5167,102.85"},{"Name":"Sirinhon","PostCode":"34350","LatLong":"14.5167,102.85"},{"Name":"Samrong","PostCode":"34360","Accuracy":4,"LatLong":"13.65,100.5833"}]}]}