{"Structure":"State/Province/Community/Place","States":[{"Name":"Alaska","Code":"AK","Provinces":[{"Name":"Aleutians East","Code":"013","Communities":[{"Places":[{"Name":"Akutan","PostCode":"99553","Accuracy":1,"LatLong":"54.143,-165.7854"},{"Name":"Cold Bay","PostCode":"99571","Accuracy":1,"LatLong":"55.1858,-162.7211"},{"Name":"False Pass","PostCode":"99583","Accuracy":1,"LatLong":"54.8542,-163.4113"},{"Name":"King Cove","PostCode":"99612","Accuracy":1,"LatLong":"55.0628,-162.3056"},{"Name":"Sand Point","PostCode":"99661","Accuracy":1,"LatLong":"55.3192,-160.4914"}]}]},{"Name":"Aleutians West (CA)","Code":"016","Communities":[{"Places":[{"Name":"Adak","PostCode":"99546","Accuracy":1,"LatLong":"51.874,-176.634"},{"Name":"Atka","PostCode":"99547","Accuracy":1,"LatLong":"52.1961,-174.2006"},{"Name":"Saint George Island","PostCode":"99591","Accuracy":1,"LatLong":"56.5944,-169.6186"},{"Name":"Nikolski","PostCode":"99638","Accuracy":1,"LatLong":"52.9381,-168.8678"},{"Name":"Saint Paul Island","PostCode":"99660","Accuracy":1,"LatLong":"57.1842,-170.2764"},{"Name":"Unalaska","PostCode":"99685","Accuracy":1,"LatLong":"53.8871,-166.5199"},{"Name":"Dutch Harbor","PostCode":"99692","Accuracy":1,"LatLong":"53.8898,-166.5422"}]}]},{"Name":"Anchorage Municipality","Code":"020","Communities":[{"Places":[{"Name":"Anchorage","PostCode":"99501","Accuracy":1,"LatLong":"61.2116,-149.8761"},{"Name":"Anchorage","PostCode":"99502","Accuracy":1,"LatLong":"61.1661,-149.96"},{"Name":"Anchorage","PostCode":"99503","Accuracy":1,"LatLong":"61.19,-149.8938"},{"Name":"Anchorage","PostCode":"99504","Accuracy":1,"LatLong":"61.2037,-149.7447"},{"Name":"Jber","PostCode":"99505","Accuracy":1,"LatLong":"59.8666,-158.5996"},{"Name":"Jber","PostCode":"99506","Accuracy":1,"LatLong":"59.8666,-158.5996"},{"Name":"Anchorage","PostCode":"99507","Accuracy":1,"LatLong":"61.1535,-149.8289"},{"Name":"Anchorage","PostCode":"99508","Accuracy":1,"LatLong":"61.206,-149.8101"},{"Name":"Anchorage","PostCode":"99509","Accuracy":1,"LatLong":"61.2181,-149.9003"},{"Name":"Anchorage","PostCode":"99510","Accuracy":1,"LatLong":"61.1446,-149.8784"},{"Name":"Anchorage","PostCode":"99511","Accuracy":1,"LatLong":"61.0683,-149.8005"},{"Name":"Anchorage","PostCode":"99513","Accuracy":1,"LatLong":"61.2149,-149.8862"},{"Name":"Anchorage","PostCode":"99514","Accuracy":1,"LatLong":"61.2181,-149.9003"},{"Name":"Anchorage","PostCode":"99515","Accuracy":1,"LatLong":"61.1194,-149.8974"},{"Name":"Anchorage","PostCode":"99516","Accuracy":1,"LatLong":"61.1054,-149.78"},{"Name":"Anchorage","PostCode":"99517","Accuracy":1,"LatLong":"61.1901,-149.9361"},{"Name":"Anchorage","PostCode":"99518","Accuracy":1,"LatLong":"61.1549,-149.8866"},{"Name":"Anchorage","PostCode":"99519","Accuracy":1,"LatLong":"61.1089,-149.4403"},{"Name":"Anchorage","PostCode":"99520","Accuracy":1,"LatLong":"61.2181,-149.9003"},{"Name":"Anchorage","PostCode":"99521","Accuracy":1,"LatLong":"61.2181,-149.9003"},{"Name":"Anchorage","PostCode":"99522","Accuracy":1,"LatLong":"61.2181,-149.9003"},{"Name":"Anchorage","PostCode":"99523","Accuracy":1,"LatLong":"61.2181,-149.9003"},{"Name":"Anchorage","PostCode":"99524","Accuracy":1,"LatLong":"61.2181,-149.9003"},{"Name":"Anchorage","PostCode":"99529","Accuracy":1,"LatLong":"61.1515,-149.9443"},{"Name":"Anchorage","PostCode":"99530","Accuracy":1,"LatLong":"61.1515,-149.9443"},{"Name":"Indian","PostCode":"99540","Accuracy":1,"LatLong":"61.1089,-149.4403"},{"Name":"Chugiak","PostCode":"99567","Accuracy":1,"LatLong":"61.4098,-149.4537"},{"Name":"Eagle River","PostCode":"99577","Accuracy":1,"LatLong":"61.3114,-149.5085"},{"Name":"Girdwood","PostCode":"99587","Accuracy":1,"LatLong":"60.9577,-149.1406"},{"Name":"Anchorage","PostCode":"99599","Accuracy":1,"LatLong":"61.1872,-149.8804"},{"Name":"Anchorage","PostCode":"99695","Accuracy":1,"LatLong":"61.1089,-149.4403"}]}]},{"Name":"Bethel Census Area","Code":"050","Communities":[{"Places":[{"Name":"Kongiganak","PostCode":"99545","Accuracy":1,"LatLong":"59.9599,-162.8919"},{"Name":"Akiachak","PostCode":"99551","Accuracy":4,"LatLong":"60.9094,-161.4314"},{"Name":"Akiak","PostCode":"99552","Accuracy":4,"LatLong":"60.9122,-161.2139"},{"Name":"Aniak","PostCode":"99557","Accuracy":4,"LatLong":"61.5783,-159.5222"},{"Name":"Bethel","PostCode":"99559","Accuracy":4,"LatLong":"60.7922,-161.7558"},{"Name":"Chefornak","PostCode":"99561","Accuracy":1,"LatLong":"60.1537,-164.2103"},{"Name":"Crooked Creek","PostCode":"99575","Accuracy":1,"LatLong":"61.8181,-158.0025"},{"Name":"Eek","PostCode":"99578","Accuracy":1,"LatLong":"60.2151,-162.0323"},{"Name":"Goodnews Bay","PostCode":"99589","Accuracy":1,"LatLong":"59.1189,-161.5875"},{"Name":"Kalskag","PostCode":"99607","Accuracy":1,"LatLong":"61.541,-160.3261"},{"Name":"Kasigluk","PostCode":"99609","Accuracy":1,"LatLong":"60.8956,-162.5181"},{"Name":"Kipnuk","PostCode":"99614","Accuracy":1,"LatLong":"59.9232,-164.101"},{"Name":"Kwethluk","PostCode":"99621","Accuracy":4,"LatLong":"60.8122,-161.4358"},{"Name":"Kwigillingok","PostCode":"99622","Accuracy":1,"LatLong":"59.8644,-163.1342"},{"Name":"Lower Kalskag","PostCode":"99626","Accuracy":1,"LatLong":"61.5138,-160.36"},{"Name":"Mekoryuk","PostCode":"99630","Accuracy":1,"LatLong":"60.3657,-166.2836"},{"Name":"Napakiak","PostCode":"99634","Accuracy":1,"LatLong":"60.6967,-161.9519"},{"Name":"Toksook Bay","PostCode":"99637","Accuracy":1,"LatLong":"60.5338,-165.1037"},{"Name":"Nunapitchuk","PostCode":"99641","Accuracy":1,"LatLong":"60.8969,-162.4594"},{"Name":"Platinum","PostCode":"99651","Accuracy":1,"LatLong":"59.0131,-161.8164"},{"Name":"Quinhagak","PostCode":"99655","Accuracy":1,"LatLong":"59.7381,-161.8749"},{"Name":"Red Devil","PostCode":"99656","Accuracy":1,"LatLong":"61.7611,-157.3125"},{"Name":"Sleetmute","PostCode":"99668","Accuracy":1,"LatLong":"61.7025,-157.1697"},{"Name":"Tuluksak","PostCode":"99679","Accuracy":4,"LatLong":"61.1088,-160.9389"},{"Name":"Tuntutuliak","PostCode":"99680","Accuracy":4,"LatLong":"60.3431,-162.6631"},{"Name":"Tununak","PostCode":"99681","Accuracy":1,"LatLong":"60.5856,-165.2558"},{"Name":"Nightmute","PostCode":"99690","Accuracy":1,"LatLong":"60.4794,-164.7239"}]}]},{"Name":"Bristol Bay","Code":"060","Communities":[{"Places":[{"Name":"King Salmon","PostCode":"99613","Accuracy":1,"LatLong":"58.6883,-156.6614"},{"Name":"Naknek","PostCode":"99633","Accuracy":1,"LatLong":"58.783,-156.8992"},{"Name":"South Naknek","PostCode":"99670","Accuracy":1,"LatLong":"58.6639,-156.9756"}]}]},{"Name":"Denali","Code":"068","Communities":[{"Places":[{"Name":"Clear","PostCode":"99704","Accuracy":4,"LatLong":"64.2966,-149.1608"},{"Name":"Cantwell","PostCode":"99729","Accuracy":1,"LatLong":"63.3955,-148.8973"},{"Name":"Healy","PostCode":"99743","Accuracy":4,"LatLong":"63.9171,-149.0111"},{"Name":"Anderson","PostCode":"99744","Accuracy":4,"LatLong":"64.3442,-149.1869"},{"Name":"Denali National Park","PostCode":"99755","Accuracy":4,"LatLong":"63.5436,-149.9867"}]}]},{"Name":"Dillingham (CA)","Code":"070","Communities":[{"Places":[{"Name":"Aleknagik","PostCode":"99555","Accuracy":1,"LatLong":"59.2697,-158.6199"},{"Name":"Clarks Point","PostCode":"99569","Accuracy":1,"LatLong":"58.8173,-158.5299"},{"Name":"Dillingham","PostCode":"99576","Accuracy":1,"LatLong":"59.0402,-158.5231"},{"Name":"Ekwok","PostCode":"99580","Accuracy":4,"LatLong":"59.3628,-157.4782"},{"Name":"Manokotak","PostCode":"99628","Accuracy":1,"LatLong":"59.0096,-158.9897"},{"Name":"New Stuyahok","PostCode":"99636","Accuracy":1,"LatLong":"59.4882,-157.2905"},{"Name":"Togiak","PostCode":"99678","Accuracy":1,"LatLong":"59.0619,-160.3764"}]}]},{"Name":"Fairbanks North Star","Code":"090","Communities":[{"Places":[{"Name":"Fairbanks","PostCode":"99701","Accuracy":4,"LatLong":"64.8378,-147.7164"},{"Name":"Eielson Afb","PostCode":"99702","Accuracy":1,"LatLong":"64.6735,-147.0805"},{"Name":"Fort Wainwright","PostCode":"99703","Accuracy":1,"LatLong":"64.8283,-147.6557"},{"Name":"North Pole","PostCode":"99705","Accuracy":4,"LatLong":"64.7805,-147.3694"},{"Name":"Fairbanks","PostCode":"99706","Accuracy":4,"LatLong":"64.8521,-147.9377"},{"Name":"Fairbanks","PostCode":"99707","Accuracy":4,"LatLong":"64.8378,-147.7164"},{"Name":"Fairbanks","PostCode":"99708","Accuracy":4,"LatLong":"64.9475,-147.8564"},{"Name":"Fairbanks","PostCode":"99709","Accuracy":4,"LatLong":"64.8544,-147.8469"},{"Name":"Fairbanks","PostCode":"99710","Accuracy":4,"LatLong":"64.8378,-147.7164"},{"Name":"Fairbanks","PostCode":"99711","Accuracy":4,"LatLong":"64.8378,-147.7164"},{"Name":"Fairbanks","PostCode":"99712","Accuracy":4,"LatLong":"64.9109,-147.5105"},{"Name":"Salcha","PostCode":"99714","Accuracy":1,"LatLong":"64.5091,-146.953"},{"Name":"Two Rivers","PostCode":"99716","Accuracy":4,"LatLong":"64.8746,-146.8982"},{"Name":"Ester","PostCode":"99725","Accuracy":4,"LatLong":"64.871,-148.0949"},{"Name":"Fairbanks","PostCode":"99775","Accuracy":4,"LatLong":"64.8591,-147.8267"},{"Name":"Fairbanks","PostCode":"99790","Accuracy":1,"LatLong":"64.8378,-147.7164"}]}]},{"Name":"Haines","Code":"100","Communities":[{"Places":[{"Name":"Haines","PostCode":"99827","Accuracy":4,"LatLong":"59.2519,-135.542"}]}]},{"Name":"Juneau City and Borough","Code":"110","Communities":[{"Places":[{"Name":"Juneau","PostCode":"99801","Accuracy":4,"LatLong":"58.3628,-134.5294"},{"Name":"Juneau","PostCode":"99802","Accuracy":4,"LatLong":"58.3019,-134.4197"},{"Name":"Juneau","PostCode":"99803","Accuracy":4,"LatLong":"58.3019,-134.4197"},{"Name":"Juneau","PostCode":"99811","Accuracy":4,"LatLong":"58.3019,-134.4197"},{"Name":"Juneau","PostCode":"99812","Accuracy":4,"LatLong":"58.3271,-134.4742"},{"Name":"Auke Bay","PostCode":"99821","Accuracy":4,"LatLong":"58.4494,-134.7003"},{"Name":"Douglas","PostCode":"99824","Accuracy":4,"LatLong":"58.2756,-134.395"},{"Name":"Juneau","PostCode":"99850","Accuracy":4,"LatLong":"58.3019,-134.4197"}]}]},{"Name":"Kenai Peninsula","Code":"122","Communities":[{"Places":[{"Name":"Anchor Point","PostCode":"99556","Accuracy":1,"LatLong":"59.8371,-151.7078"},{"Name":"Clam Gulch","PostCode":"99568","Accuracy":4,"LatLong":"60.2311,-151.3936"},{"Name":"Cooper Landing","PostCode":"99572","Accuracy":1,"LatLong":"60.4767,-149.8235"},{"Name":"Homer","PostCode":"99603","Accuracy":1,"LatLong":"59.5374,-151.2356"},{"Name":"Hope","PostCode":"99605","Accuracy":1,"LatLong":"60.8726,-149.4683"},{"Name":"Kasilof","PostCode":"99610","Accuracy":4,"LatLong":"60.3164,-151.2896"},{"Name":"Kenai","PostCode":"99611","Accuracy":4,"LatLong":"60.6145,-151.2546"},{"Name":"Moose Pass","PostCode":"99631","Accuracy":1,"LatLong":"60.6148,-149.4056"},{"Name":"Nikiski","PostCode":"99635","Accuracy":1,"LatLong":"60.7007,-151.2766"},{"Name":"Ninilchik","PostCode":"99639","Accuracy":1,"LatLong":"60.0108,-151.6396"},{"Name":"Seldovia","PostCode":"99663","Accuracy":4,"LatLong":"59.4495,-151.7009"},{"Name":"Seward","PostCode":"99664","Accuracy":1,"LatLong":"60.1329,-149.3985"},{"Name":"Soldotna","PostCode":"99669","Accuracy":1,"LatLong":"60.4818,-151.1358"},{"Name":"Sterling","PostCode":"99672","Accuracy":4,"LatLong":"60.5136,-150.8532"},{"Name":"Tyonek","PostCode":"99682","Accuracy":4,"LatLong":"61.0681,-151.1369"}]}]},{"Name":"Ketchikan Gateway","Code":"130","Communities":[{"Places":[{"Name":"Ketchikan","PostCode":"99901","Accuracy":4,"LatLong":"55.372,-131.6832"},{"Name":"Ward Cove","PostCode":"99928","Accuracy":4,"LatLong":"55.3954,-131.6754"},{"Name":"Ketchikan","PostCode":"99950","Accuracy":4,"LatLong":"55.3422,-131.6478"}]}]},{"Name":"Kodiak Island","Code":"150","Communities":[{"Places":[{"Name":"Port Lions","PostCode":"99550","Accuracy":1,"LatLong":"57.8675,-152.8822"},{"Name":"Karluk","PostCode":"99608","Accuracy":1,"LatLong":"57.5689,-154.4551"},{"Name":"Kodiak","PostCode":"99615","Accuracy":1,"LatLong":"57.6036,-153.3751"},{"Name":"Kodiak","PostCode":"99619","Accuracy":1,"LatLong":"57.79,-152.4072"},{"Name":"Larsen Bay","PostCode":"99624","Accuracy":1,"LatLong":"57.54,-153.9786"},{"Name":"Old Harbor","PostCode":"99643","Accuracy":1,"LatLong":"57.2028,-153.3039"},{"Name":"Ouzinkie","PostCode":"99644","Accuracy":4,"LatLong":"57.9236,-152.5022"},{"Name":"Kodiak","PostCode":"99697","Accuracy":1,"LatLong":"57.79,-152.4072"}]}]},{"Name":"Kusilvak","Code":"158","Communities":[{"Places":[{"Name":"Alakanuk","PostCode":"99554","Accuracy":1,"LatLong":"62.6944,-164.6475"},{"Name":"Chevak","PostCode":"99563","Accuracy":1,"LatLong":"61.529,-165.5905"},{"Name":"Emmonak","PostCode":"99581","Accuracy":1,"LatLong":"62.7818,-164.5335"},{"Name":"Marshall","PostCode":"99585","Accuracy":1,"LatLong":"61.9287,-162.268"},{"Name":"Hooper Bay","PostCode":"99604","Accuracy":1,"LatLong":"61.527,-166.1151"},{"Name":"Kotlik","PostCode":"99620","Accuracy":1,"LatLong":"63.0295,-163.5542"},{"Name":"Mountain Village","PostCode":"99632","Accuracy":1,"LatLong":"62.1123,-163.6644"},{"Name":"Pilot Station","PostCode":"99650","Accuracy":1,"LatLong":"61.9462,-162.8747"},{"Name":"Russian Mission","PostCode":"99657","Accuracy":4,"LatLong":"61.7744,-161.3939"},{"Name":"Saint Marys","PostCode":"99658","Accuracy":1,"LatLong":"62.1172,-163.2376"},{"Name":"Scammon Bay","PostCode":"99662","Accuracy":1,"LatLong":"61.845,-165.5819"},{"Name":"Nunam Iqua","PostCode":"99666","Accuracy":1,"LatLong":"62.5309,-164.8496"}]}]},{"Name":"Lake and Peninsula","Code":"164","Communities":[{"Places":[{"Name":"Chignik Lake","PostCode":"99548","Accuracy":1,"LatLong":"56.2448,-158.7578"},{"Name":"Port Heiden","PostCode":"99549","Accuracy":4,"LatLong":"56.9643,-158.5664"},{"Name":"Chignik","PostCode":"99564","Accuracy":1,"LatLong":"56.3016,-158.4157"},{"Name":"Chignik Lagoon","PostCode":"99565","Accuracy":1,"LatLong":"58.2687,-156.6484"},{"Name":"Egegik","PostCode":"99579","Accuracy":4,"LatLong":"58.2062,-157.3422"},{"Name":"Iliamna","PostCode":"99606","Accuracy":1,"LatLong":"59.7525,-154.8236"},{"Name":"Levelock","PostCode":"99625","Accuracy":1,"LatLong":"59.2905,-156.6503"},{"Name":"Nondalton","PostCode":"99640","Accuracy":1,"LatLong":"59.9736,-154.8458"},{"Name":"Pedro Bay","PostCode":"99647","Accuracy":1,"LatLong":"59.8681,-154.0757"},{"Name":"Perryville","PostCode":"99648","Accuracy":1,"LatLong":"55.9453,-159.2593"},{"Name":"Pilot Point","PostCode":"99649","Accuracy":1,"LatLong":"57.5642,-157.5792"},{"Name":"Port Alsworth","PostCode":"99653","Accuracy":1,"LatLong":"60.2025,-154.3128"}]}]},{"Name":"Matanuska-Susitna Borough","Code":"170","Communities":[{"Places":[{"Name":"Wasilla","PostCode":"99623","Accuracy":1,"LatLong":"61.5463,-149.5901"},{"Name":"Wasilla","PostCode":"99629","Accuracy":1,"LatLong":"61.5841,-149.4436"},{"Name":"Palmer","PostCode":"99645","Accuracy":1,"LatLong":"61.6303,-148.9872"},{"Name":"Big Lake","PostCode":"99652","Accuracy":1,"LatLong":"61.5214,-149.9544"},{"Name":"Wasilla","PostCode":"99654","Accuracy":1,"LatLong":"61.5923,-149.3959"},{"Name":"Skwentna","PostCode":"99667","Accuracy":1,"LatLong":"61.9903,-151.3978"},{"Name":"Sutton","PostCode":"99674","Accuracy":1,"LatLong":"61.7327,-148.7837"},{"Name":"Talkeetna","PostCode":"99676","Accuracy":1,"LatLong":"62.2605,-150.1101"},{"Name":"Trapper Creek","PostCode":"99683","Accuracy":1,"LatLong":"62.3167,-150.2314"},{"Name":"Wasilla","PostCode":"99687","Accuracy":1,"LatLong":"61.5313,-149.4784"},{"Name":"Willow","PostCode":"99688","Accuracy":1,"LatLong":"61.8966,-150.0038"},{"Name":"Houston","PostCode":"99694","Accuracy":1,"LatLong":"61.6303,-149.8181"}]}]},{"Name":"Nome (CA)","Code":"180","Communities":[{"Places":[{"Name":"Saint Michael","PostCode":"99659","Accuracy":1,"LatLong":"63.4776,-162.1091"},{"Name":"Stebbins","PostCode":"99671","Accuracy":1,"LatLong":"63.5222,-162.2881"},{"Name":"Unalakleet","PostCode":"99684","Accuracy":1,"LatLong":"63.8835,-160.7884"},{"Name":"Elim","PostCode":"99739","Accuracy":1,"LatLong":"64.6217,-162.2604"},{"Name":"Gambell","PostCode":"99742","Accuracy":1,"LatLong":"63.7766,-171.7017"},{"Name":"Koyuk","PostCode":"99753","Accuracy":4,"LatLong":"64.9319,-161.1569"},{"Name":"Nome","PostCode":"99762","Accuracy":1,"LatLong":"64.5011,-165.4064"},{"Name":"Savoonga","PostCode":"99769","Accuracy":1,"LatLong":"63.6797,-170.4709"},{"Name":"Shaktoolik","PostCode":"99771","Accuracy":1,"LatLong":"64.3537,-161.1932"},{"Name":"Shishmaref","PostCode":"99772","Accuracy":1,"LatLong":"66.2306,-166.1373"},{"Name":"Teller","PostCode":"99778","Accuracy":1,"LatLong":"65.2402,-166.3833"},{"Name":"Wales","PostCode":"99783","Accuracy":1,"LatLong":"65.6092,-168.0875"},{"Name":"White Mountain","PostCode":"99784","Accuracy":1,"LatLong":"64.6814,-163.4056"},{"Name":"Brevig Mission","PostCode":"99785","Accuracy":1,"LatLong":"65.3342,-166.4786"}]}]},{"Name":"North Slope","Code":"185","Communities":[{"Places":[{"Name":"Anaktuvuk Pass","PostCode":"99721","Accuracy":1,"LatLong":"68.1433,-151.7358"},{"Name":"Barrow","PostCode":"99723","Accuracy":1,"LatLong":"71.2346,-156.8174"},{"Name":"Prudhoe Bay","PostCode":"99734","Accuracy":1,"LatLong":"70.2922,-148.6694"},{"Name":"Kaktovik","PostCode":"99747","Accuracy":1,"LatLong":"70.1319,-143.6239"},{"Name":"Point Lay","PostCode":"99759","Accuracy":1,"LatLong":"69.7439,-163.0084"},{"Name":"Point Hope","PostCode":"99766","Accuracy":1,"LatLong":"68.3486,-166.7347"},{"Name":"Wainwright","PostCode":"99782","Accuracy":1,"LatLong":"70.6369,-160.0383"},{"Name":"Nuiqsut","PostCode":"99789","Accuracy":1,"LatLong":"70.1927,-150.9971"},{"Name":"Atqasuk","PostCode":"99791","Accuracy":1,"LatLong":"70.4947,-157.4411"}]}]},{"Name":"Northwest Arctic","Code":"188","Communities":[{"Places":[{"Name":"Buckland","PostCode":"99727","Accuracy":1,"LatLong":"65.9789,-161.1262"},{"Name":"Deering","PostCode":"99736","Accuracy":1,"LatLong":"66.0737,-162.714"},{"Name":"Kiana","PostCode":"99749","Accuracy":1,"LatLong":"66.975,-160.4228"},{"Name":"Kivalina","PostCode":"99750","Accuracy":1,"LatLong":"67.7269,-164.5333"},{"Name":"Kobuk","PostCode":"99751","Accuracy":1,"LatLong":"66.9072,-156.8811"},{"Name":"Kotzebue","PostCode":"99752","Accuracy":1,"LatLong":"66.8985,-162.5981"},{"Name":"Noatak","PostCode":"99761","Accuracy":1,"LatLong":"67.5711,-162.9653"},{"Name":"Noorvik","PostCode":"99763","Accuracy":1,"LatLong":"66.8364,-161.0441"},{"Name":"Selawik","PostCode":"99770","Accuracy":1,"LatLong":"66.6039,-160.0069"},{"Name":"Shungnak","PostCode":"99773","Accuracy":1,"LatLong":"66.8881,-157.1364"},{"Name":"Ambler","PostCode":"99786","Accuracy":1,"LatLong":"67.0861,-157.8514"}]}]},{"Name":"Prince of Wales-Hyder","Code":"198","Communities":[{"Places":[{"Name":"Meyers Chuck","PostCode":"99903","Accuracy":4,"LatLong":"55.7408,-132.2564"},{"Name":"Coffman Cove","PostCode":"99918","Accuracy":4,"LatLong":"55.9524,-132.7503"},{"Name":"Thorne Bay","PostCode":"99919","Accuracy":4,"LatLong":"55.6609,-132.5138"},{"Name":"Craig","PostCode":"99921","Accuracy":4,"LatLong":"55.4732,-133.1171"},{"Name":"Hydaburg","PostCode":"99922","Accuracy":4,"LatLong":"55.2087,-132.8259"},{"Name":"Hyder","PostCode":"99923","Accuracy":1,"LatLong":"55.9169,-130.0247"},{"Name":"Klawock","PostCode":"99925","Accuracy":4,"LatLong":"55.5526,-133.0555"},{"Name":"Metlakatla","PostCode":"99926","Accuracy":4,"LatLong":"55.1215,-131.579"},{"Name":"Point Baker","PostCode":"99927","Accuracy":4,"LatLong":"56.3528,-133.6211"}]}]},{"Name":"Sitka City and Borough","Code":"220","Communities":[{"Places":[{"Name":"Sitka","PostCode":"99835","Accuracy":4,"LatLong":"57.0514,-135.3166"}]}]},{"Name":"Skagway-Hoonah-Angoon","Code":"232","Communities":[{"Places":[{"Name":"Yakutat","PostCode":"99689","Accuracy":1,"LatLong":"59.812,-139.5505"},{"Name":"Angoon","PostCode":"99820","Accuracy":4,"LatLong":"57.5005,-134.586"},{"Name":"Elfin Cove","PostCode":"99825","Accuracy":4,"LatLong":"58.1944,-136.3433"},{"Name":"Gustavus","PostCode":"99826","Accuracy":4,"LatLong":"58.4284,-135.7615"},{"Name":"Hoonah","PostCode":"99829","Accuracy":4,"LatLong":"58.0977,-135.4316"},{"Name":"Pelican","PostCode":"99832","Accuracy":4,"LatLong":"57.9608,-136.2275"},{"Name":"Skagway","PostCode":"99840","Accuracy":1,"LatLong":"59.4685,-135.3018"},{"Name":"Tenakee Springs","PostCode":"99841","Accuracy":4,"LatLong":"57.7808,-135.2189"}]}]},{"Name":"Southeast Fairbanks Census Area","Code":"240","Communities":[{"Places":[{"Name":"Fort Greely","PostCode":"99731","Accuracy":1,"LatLong":"63.952,-146.451"},{"Name":"Chicken","PostCode":"99732","Accuracy":1,"LatLong":"64.0733,-141.9361"},{"Name":"Delta Junction","PostCode":"99737","Accuracy":1,"LatLong":"64.0378,-145.7322"},{"Name":"Eagle","PostCode":"99738","Accuracy":1,"LatLong":"64.7881,-141.2"},{"Name":"Northway","PostCode":"99764","Accuracy":1,"LatLong":"62.9617,-141.9372"},{"Name":"Tanacross","PostCode":"99776","Accuracy":1,"LatLong":"63.3853,-143.3464"},{"Name":"Tok","PostCode":"99780","Accuracy":1,"LatLong":"63.3367,-142.9856"}]}]},{"Name":"Valdez-Cordova (CA)","Code":"261","Communities":[{"Places":[{"Name":"Chitina","PostCode":"99566","Accuracy":1,"LatLong":"61.5156,-144.4396"},{"Name":"Copper Center","PostCode":"99573","Accuracy":1,"LatLong":"61.977,-145.3297"},{"Name":"Cordova","PostCode":"99574","Accuracy":1,"LatLong":"60.5362,-145.7534"},{"Name":"Gakona","PostCode":"99586","Accuracy":1,"LatLong":"62.3014,-145.3027"},{"Name":"Glennallen","PostCode":"99588","Accuracy":1,"LatLong":"62.1039,-145.6617"},{"Name":"Tatitlek","PostCode":"99677","Accuracy":1,"LatLong":"60.8906,-146.6703"},{"Name":"Valdez","PostCode":"99686","Accuracy":1,"LatLong":"61.101,-146.9"},{"Name":"Whittier","PostCode":"99693","Accuracy":1,"LatLong":"60.7734,-148.6839"}]}]},{"Name":"Wrangell-Petersburg (C","Code":"280","Communities":[{"Places":[{"Name":"Kake","PostCode":"99830","Accuracy":4,"LatLong":"56.9736,-133.936"},{"Name":"Petersburg","PostCode":"99833","Accuracy":4,"LatLong":"56.8271,-133.1607"},{"Name":"Port Alexander","PostCode":"99836","Accuracy":4,"LatLong":"56.2497,-134.6444"},{"Name":"Wrangell","PostCode":"99929","Accuracy":4,"LatLong":"56.4335,-132.3529"}]}]},{"Name":"Yukon-Koyukuk (CA)","Code":"290","Communities":[{"Places":[{"Name":"Anvik","PostCode":"99558","Accuracy":1,"LatLong":"62.6561,-160.2067"},{"Name":"Grayling","PostCode":"99590","Accuracy":1,"LatLong":"62.9036,-160.0647"},{"Name":"Holy Cross","PostCode":"99602","Accuracy":1,"LatLong":"62.1926,-159.8251"},{"Name":"Mc Grath","PostCode":"99627","Accuracy":1,"LatLong":"62.9457,-155.5712"},{"Name":"Shageluk","PostCode":"99665","Accuracy":1,"LatLong":"62.6822,-159.5619"},{"Name":"Takotna","PostCode":"99675","Accuracy":1,"LatLong":"62.9886,-156.0642"},{"Name":"Nikolai","PostCode":"99691","Accuracy":1,"LatLong":"63.0133,-154.375"},{"Name":"Allakaket","PostCode":"99720","Accuracy":1,"LatLong":"66.5656,-152.6456"},{"Name":"Arctic Village","PostCode":"99722","Accuracy":1,"LatLong":"68.1269,-145.5378"},{"Name":"Beaver","PostCode":"99724","Accuracy":4,"LatLong":"66.3594,-147.3964"},{"Name":"Bettles Field","PostCode":"99726","Accuracy":1,"LatLong":"65.2264,-151.0251"},{"Name":"Central","PostCode":"99730","Accuracy":1,"LatLong":"65.4681,-144.7489"},{"Name":"Circle","PostCode":"99733","Accuracy":1,"LatLong":"65.8245,-144.0826"},{"Name":"Fort Yukon","PostCode":"99740","Accuracy":1,"LatLong":"66.5647,-145.2739"},{"Name":"Galena","PostCode":"99741","Accuracy":1,"LatLong":"64.7333,-156.9275"},{"Name":"Hughes","PostCode":"99745","Accuracy":4,"LatLong":"66.0382,-154.2644"},{"Name":"Huslia","PostCode":"99746","Accuracy":4,"LatLong":"65.6899,-156.292"},{"Name":"Kaltag","PostCode":"99748","Accuracy":1,"LatLong":"64.3305,-158.7243"},{"Name":"Koyukuk","PostCode":"99754","Accuracy":4,"LatLong":"64.8803,-157.7008"},{"Name":"Manley Hot Springs","PostCode":"99756","Accuracy":4,"LatLong":"65.0011,-150.6339"},{"Name":"Lake Minchumina","PostCode":"99757","Accuracy":4,"LatLong":"63.8828,-152.3122"},{"Name":"Minto","PostCode":"99758","Accuracy":1,"LatLong":"65.0584,-149.6912"},{"Name":"Nenana","PostCode":"99760","Accuracy":1,"LatLong":"64.5577,-149.0867"},{"Name":"Nulato","PostCode":"99765","Accuracy":1,"LatLong":"64.7194,-158.1031"},{"Name":"Rampart","PostCode":"99767","Accuracy":1,"LatLong":"65.509,-150.1619"},{"Name":"Ruby","PostCode":"99768","Accuracy":1,"LatLong":"64.7201,-155.5039"},{"Name":"Stevens Village","PostCode":"99774","Accuracy":4,"LatLong":"66.0064,-149.0908"},{"Name":"Tanana","PostCode":"99777","Accuracy":1,"LatLong":"65.1719,-152.0789"},{"Name":"Venetie","PostCode":"99781","Accuracy":1,"LatLong":"67.0104,-146.4137"},{"Name":"Chalkyitsik","PostCode":"99788","Accuracy":1,"LatLong":"66.6544,-143.7222"}]}]}]},{"Name":"Alabama","Code":"AL","Provinces":[{"Name":"Autauga","Code":"001","Communities":[{"Places":[{"Name":"Autaugaville","PostCode":"36003","Accuracy":4,"LatLong":"32.4625,-86.7149"},{"Name":"Billingsley","PostCode":"36006","Accuracy":4,"LatLong":"32.6596,-86.7178"},{"Name":"Booth","PostCode":"36008","Accuracy":4,"LatLong":"32.5016,-86.5727"},{"Name":"Marbury","PostCode":"36051","Accuracy":4,"LatLong":"32.6841,-86.4946"},{"Name":"Prattville","PostCode":"36066","Accuracy":4,"LatLong":"32.4787,-86.43"},{"Name":"Prattville","PostCode":"36067","Accuracy":4,"LatLong":"32.4715,-86.4831"},{"Name":"Prattville","PostCode":"36068","Accuracy":4,"LatLong":"32.464,-86.4597"},{"Name":"Jones","PostCode":"36749","Accuracy":4,"LatLong":"32.5104,-86.8138"}]}]},{"Name":"Baldwin","Code":"003","Communities":[{"Places":[{"Name":"Bay Minette","PostCode":"36507","Accuracy":4,"LatLong":"30.8635,-87.7644"},{"Name":"Bon Secour","PostCode":"36511","Accuracy":4,"LatLong":"30.3128,-87.7431"},{"Name":"Daphne","PostCode":"36526","Accuracy":4,"LatLong":"30.6197,-87.8895"},{"Name":"Spanish Fort","PostCode":"36527","Accuracy":4,"LatLong":"30.6959,-87.8867"},{"Name":"Elberta","PostCode":"36530","Accuracy":4,"LatLong":"30.3942,-87.589"},{"Name":"Fairhope","PostCode":"36532","Accuracy":4,"LatLong":"30.5012,-87.8835"},{"Name":"Fairhope","PostCode":"36533","Accuracy":4,"LatLong":"30.4841,-87.8606"},{"Name":"Foley","PostCode":"36535","Accuracy":4,"LatLong":"30.4007,-87.6857"},{"Name":"Foley","PostCode":"36536","Accuracy":4,"LatLong":"30.4222,-87.7064"},{"Name":"Gulf Shores","PostCode":"36542","Accuracy":4,"LatLong":"30.2717,-87.7589"},{"Name":"Gulf Shores","PostCode":"36547","Accuracy":4,"LatLong":"30.246,-87.7008"},{"Name":"Lillian","PostCode":"36549","Accuracy":4,"LatLong":"30.3972,-87.4745"},{"Name":"Little River","PostCode":"36550","Accuracy":4,"LatLong":"31.2246,-87.7548"},{"Name":"Loxley","PostCode":"36551","Accuracy":4,"LatLong":"30.618,-87.7562"},{"Name":"Magnolia Springs","PostCode":"36555","Accuracy":4,"LatLong":"30.3996,-87.7761"},{"Name":"Montrose","PostCode":"36559","Accuracy":4,"LatLong":"30.5623,-87.9005"},{"Name":"Orange Beach","PostCode":"36561","Accuracy":4,"LatLong":"30.281,-87.5815"},{"Name":"Perdido","PostCode":"36562","Accuracy":4,"LatLong":"31.0403,-87.6667"},{"Name":"Point Clear","PostCode":"36564","Accuracy":4,"LatLong":"30.4741,-87.9192"},{"Name":"Robertsdale","PostCode":"36567","Accuracy":4,"LatLong":"30.5616,-87.6373"},{"Name":"Seminole","PostCode":"36574","Accuracy":4,"LatLong":"30.5048,-87.4659"},{"Name":"Silverhill","PostCode":"36576","Accuracy":4,"LatLong":"30.5222,-87.7457"},{"Name":"Spanish Fort","PostCode":"36577","Accuracy":4,"LatLong":"30.6749,-87.9153"},{"Name":"Stapleton","PostCode":"36578","Accuracy":4,"LatLong":"30.7476,-87.7787"},{"Name":"Stockton","PostCode":"36579","Accuracy":4,"LatLong":"31.0129,-87.8633"},{"Name":"Summerdale","PostCode":"36580","Accuracy":4,"LatLong":"30.4752,-87.6992"}]}]},{"Name":"Barbour","Code":"005","Communities":[{"Places":[{"Name":"Clayton","PostCode":"36016","Accuracy":4,"LatLong":"31.8874,-85.4509"},{"Name":"Clio","PostCode":"36017","Accuracy":4,"LatLong":"31.6852,-85.5904"},{"Name":"Eufaula","PostCode":"36027","Accuracy":4,"LatLong":"31.9051,-85.1656"},{"Name":"Louisville","PostCode":"36048","Accuracy":4,"LatLong":"31.7943,-85.5581"},{"Name":"Eufaula","PostCode":"36072","Accuracy":4,"LatLong":"31.8913,-85.1455"}]}]},{"Name":"Bibb","Code":"007","Communities":[{"Places":[{"Name":"Brent","PostCode":"35034","Accuracy":4,"LatLong":"32.9357,-87.2114"},{"Name":"Brierfield","PostCode":"35035","Accuracy":4,"LatLong":"33.0427,-86.9517"},{"Name":"Centreville","PostCode":"35042","Accuracy":4,"LatLong":"32.9503,-87.1192"},{"Name":"Green Pond","PostCode":"35074","Accuracy":4,"LatLong":"33.2251,-87.1264"},{"Name":"West Blocton","PostCode":"35184","Accuracy":4,"LatLong":"33.1424,-87.1369"},{"Name":"Woodstock","PostCode":"35188","Accuracy":4,"LatLong":"33.2068,-87.15"},{"Name":"Randolph","PostCode":"36792","Accuracy":4,"LatLong":"32.8888,-86.907"},{"Name":"Lawley","PostCode":"36793","Accuracy":4,"LatLong":"32.8646,-86.9567"}]}]},{"Name":"Blount","Code":"009","Communities":[{"Places":[{"Name":"Allgood","PostCode":"35013","Accuracy":4,"LatLong":"33.9222,-86.4493"},{"Name":"Blountsville","PostCode":"35031","Accuracy":4,"LatLong":"34.0929,-86.5686"},{"Name":"Cleveland","PostCode":"35049","Accuracy":4,"LatLong":"33.9778,-86.5598"},{"Name":"Hayden","PostCode":"35079","Accuracy":4,"LatLong":"33.9534,-86.7455"},{"Name":"Locust Fork","PostCode":"35097","Accuracy":4,"LatLong":"33.905,-86.6261"},{"Name":"Oneonta","PostCode":"35121","Accuracy":4,"LatLong":"33.9259,-86.4741"},{"Name":"Remlap","PostCode":"35133","Accuracy":4,"LatLong":"33.8168,-86.6008"}]}]},{"Name":"Bullock","Code":"011","Communities":[{"Places":[{"Name":"Fitzpatrick","PostCode":"36029","Accuracy":4,"LatLong":"32.2165,-85.8888"},{"Name":"Midway","PostCode":"36053","Accuracy":4,"LatLong":"32.0955,-85.5315"},{"Name":"Perote","PostCode":"36061","Accuracy":4,"LatLong":"32.0928,-85.7046"},{"Name":"Union Springs","PostCode":"36089","Accuracy":4,"LatLong":"32.1443,-85.7149"}]}]},{"Name":"Butler","Code":"013","Communities":[{"Places":[{"Name":"Chapman","PostCode":"36015","Accuracy":4,"LatLong":"31.6427,-86.7343"},{"Name":"Forest Home","PostCode":"36030","Accuracy":4,"LatLong":"31.8501,-86.8372"},{"Name":"Georgiana","PostCode":"36033","Accuracy":4,"LatLong":"31.6287,-86.734"},{"Name":"Greenville","PostCode":"36037","Accuracy":4,"LatLong":"31.81,-86.6229"},{"Name":"Mc Kenzie","PostCode":"36456","Accuracy":1,"LatLong":"31.545,-86.7356"}]}]},{"Name":"Calhoun","Code":"015","Communities":[{"Places":[{"Name":"Anniston","PostCode":"36201","Accuracy":4,"LatLong":"33.6539,-85.8382"},{"Name":"Anniston","PostCode":"36202","Accuracy":4,"LatLong":"33.7622,-85.8378"},{"Name":"Oxford","PostCode":"36203","Accuracy":4,"LatLong":"33.5815,-85.8328"},{"Name":"Anniston","PostCode":"36204","Accuracy":4,"LatLong":"33.7622,-85.8378"},{"Name":"Anniston","PostCode":"36205","Accuracy":4,"LatLong":"33.7358,-85.7933"},{"Name":"Anniston","PostCode":"36206","Accuracy":4,"LatLong":"33.7191,-85.8389"},{"Name":"Anniston","PostCode":"36207","Accuracy":4,"LatLong":"33.6803,-85.7137"},{"Name":"Alexandria","PostCode":"36250","Accuracy":4,"LatLong":"33.7808,-85.8924"},{"Name":"Bynum","PostCode":"36253","Accuracy":4,"LatLong":"33.7622,-85.8378"},{"Name":"Choccolocco","PostCode":"36254","Accuracy":4,"LatLong":"33.6573,-85.6991"},{"Name":"De Armanville","PostCode":"36257","Accuracy":1,"LatLong":"33.7622,-85.8378"},{"Name":"Eastaboga","PostCode":"36260","Accuracy":4,"LatLong":"33.6031,-85.9608"},{"Name":"Jacksonville","PostCode":"36265","Accuracy":4,"LatLong":"33.831,-85.7752"},{"Name":"Ohatchee","PostCode":"36271","Accuracy":4,"LatLong":"33.7788,-86.0254"},{"Name":"Piedmont","PostCode":"36272","Accuracy":4,"LatLong":"33.8389,-85.646"},{"Name":"Weaver","PostCode":"36277","Accuracy":4,"LatLong":"33.7563,-85.8107"},{"Name":"Wellington","PostCode":"36279","Accuracy":4,"LatLong":"33.8226,-85.8927"}]}]},{"Name":"Chambers","Code":"017","Communities":[{"Places":[{"Name":"Cusseta","PostCode":"36852","Accuracy":4,"LatLong":"32.7831,-85.2756"},{"Name":"Valley","PostCode":"36854","Accuracy":4,"LatLong":"32.8113,-85.1749"},{"Name":"Five Points","PostCode":"36855","Accuracy":4,"LatLong":"33.0424,-85.3243"},{"Name":"Lafayette","PostCode":"36862","Accuracy":4,"LatLong":"32.9252,-85.4426"},{"Name":"Lanett","PostCode":"36863","Accuracy":4,"LatLong":"32.8616,-85.2161"}]}]},{"Name":"Cherokee","Code":"019","Communities":[{"Places":[{"Name":"Cedar Bluff","PostCode":"35959","Accuracy":4,"LatLong":"34.2417,-85.6026"},{"Name":"Centre","PostCode":"35960","Accuracy":4,"LatLong":"34.1116,-85.6092"},{"Name":"Gaylesville","PostCode":"35973","Accuracy":4,"LatLong":"34.3573,-85.5589"},{"Name":"Leesburg","PostCode":"35983","Accuracy":4,"LatLong":"34.1911,-85.7705"},{"Name":"Spring Garden","PostCode":"36275","Accuracy":4,"LatLong":"33.9778,-85.5521"}]}]},{"Name":"Chilton","Code":"021","Communities":[{"Places":[{"Name":"Clanton","PostCode":"35045","Accuracy":4,"LatLong":"32.8355,-86.6425"},{"Name":"Clanton","PostCode":"35046","Accuracy":4,"LatLong":"32.9229,-86.545"},{"Name":"Jemison","PostCode":"35085","Accuracy":4,"LatLong":"32.9805,-86.7181"},{"Name":"Thorsby","PostCode":"35171","Accuracy":4,"LatLong":"32.9157,-86.7158"},{"Name":"Verbena","PostCode":"36091","Accuracy":4,"LatLong":"32.7499,-86.5114"},{"Name":"Maplesville","PostCode":"36750","Accuracy":4,"LatLong":"32.8045,-86.8717"},{"Name":"Stanton","PostCode":"36790","Accuracy":4,"LatLong":"32.7332,-86.8963"}]}]},{"Name":"Choctaw","Code":"023","Communities":[{"Places":[{"Name":"Butler","PostCode":"36904","Accuracy":4,"LatLong":"32.0829,-88.2064"},{"Name":"Gilbertown","PostCode":"36908","Accuracy":4,"LatLong":"31.8666,-88.3265"},{"Name":"Jachin","PostCode":"36910","Accuracy":4,"LatLong":"32.2299,-88.1684"},{"Name":"Lisman","PostCode":"36912","Accuracy":4,"LatLong":"32.2177,-88.3234"},{"Name":"Melvin","PostCode":"36913","Accuracy":4,"LatLong":"31.9304,-88.4589"},{"Name":"Needham","PostCode":"36915","Accuracy":4,"LatLong":"31.9879,-88.3367"},{"Name":"Pennington","PostCode":"36916","Accuracy":4,"LatLong":"32.2094,-88.049"},{"Name":"Silas","PostCode":"36919","Accuracy":4,"LatLong":"31.7668,-88.3091"},{"Name":"Toxey","PostCode":"36921","Accuracy":4,"LatLong":"31.9155,-88.151"},{"Name":"Ward","PostCode":"36922","Accuracy":4,"LatLong":"32.3038,-88.1476"}]}]},{"Name":"Clarke","Code":"025","Communities":[{"Places":[{"Name":"Dickinson","PostCode":"36436","Accuracy":4,"LatLong":"31.7635,-87.7106"},{"Name":"Fulton","PostCode":"36446","Accuracy":4,"LatLong":"31.7925,-87.72"},{"Name":"Grove Hill","PostCode":"36451","Accuracy":4,"LatLong":"31.7088,-87.7772"},{"Name":"Whatley","PostCode":"36482","Accuracy":4,"LatLong":"31.6395,-87.6565"},{"Name":"Coffeeville","PostCode":"36524","Accuracy":4,"LatLong":"31.7843,-88.0715"},{"Name":"Gainestown","PostCode":"36540","Accuracy":4,"LatLong":"31.4258,-87.6822"},{"Name":"Jackson","PostCode":"36545","Accuracy":4,"LatLong":"31.5131,-87.8672"},{"Name":"Campbell","PostCode":"36727","Accuracy":4,"LatLong":"31.9213,-88.008"},{"Name":"Thomasville","PostCode":"36784","Accuracy":4,"LatLong":"31.9067,-87.7598"}]}]},{"Name":"Clay","Code":"027","Communities":[{"Places":[{"Name":"Hollins","PostCode":"35082","Accuracy":4,"LatLong":"33.1162,-86.1386"},{"Name":"Ashland","PostCode":"36251","Accuracy":4,"LatLong":"33.2474,-85.829"},{"Name":"Cragford","PostCode":"36255","Accuracy":4,"LatLong":"33.2171,-85.7108"},{"Name":"Delta","PostCode":"36258","Accuracy":4,"LatLong":"33.4573,-85.6793"},{"Name":"Lineville","PostCode":"36266","Accuracy":4,"LatLong":"33.3286,-85.7346"},{"Name":"Millerville","PostCode":"36267","Accuracy":4,"LatLong":"33.1915,-85.9258"}]}]},{"Name":"Cleburne","Code":"029","Communities":[{"Places":[{"Name":"Edwardsville","PostCode":"36261","Accuracy":4,"LatLong":"33.7066,-85.5099"},{"Name":"Fruithurst","PostCode":"36262","Accuracy":4,"LatLong":"33.7717,-85.4381"},{"Name":"Heflin","PostCode":"36264","Accuracy":4,"LatLong":"33.6115,-85.5885"},{"Name":"Muscadine","PostCode":"36269","Accuracy":4,"LatLong":"33.7529,-85.3789"},{"Name":"Ranburne","PostCode":"36273","Accuracy":4,"LatLong":"33.5616,-85.3786"}]}]},{"Name":"Coffee","Code":"031","Communities":[{"Places":[{"Name":"Elba","PostCode":"36323","Accuracy":4,"LatLong":"31.4137,-86.0777"},{"Name":"Enterprise","PostCode":"36330","Accuracy":4,"LatLong":"31.3408,-85.8421"},{"Name":"Enterprise","PostCode":"36331","Accuracy":4,"LatLong":"31.2978,-85.9036"},{"Name":"Jack","PostCode":"36346","Accuracy":4,"LatLong":"31.5652,-85.971"},{"Name":"New Brockton","PostCode":"36351","Accuracy":4,"LatLong":"31.369,-85.9404"},{"Name":"Kinston","PostCode":"36453","Accuracy":4,"LatLong":"31.1926,-86.1514"}]}]},{"Name":"Colbert","Code":"033","Communities":[{"Places":[{"Name":"Cherokee","PostCode":"35616","Accuracy":4,"LatLong":"34.7442,-87.9724"},{"Name":"Leighton","PostCode":"35646","Accuracy":4,"LatLong":"34.711,-87.5221"},{"Name":"Sheffield","PostCode":"35660","Accuracy":4,"LatLong":"34.7578,-87.6971"},{"Name":"Muscle Shoals","PostCode":"35661","Accuracy":4,"LatLong":"34.7561,-87.6304"},{"Name":"Muscle Shoals","PostCode":"35662","Accuracy":4,"LatLong":"34.7448,-87.6675"},{"Name":"Tuscumbia","PostCode":"35674","Accuracy":4,"LatLong":"34.6874,-87.6833"}]}]},{"Name":"Conecuh","Code":"035","Communities":[{"Places":[{"Name":"Evergreen","PostCode":"36401","Accuracy":4,"LatLong":"31.458,-86.9258"},{"Name":"Brooklyn","PostCode":"36429","Accuracy":4,"LatLong":"31.2627,-86.7711"},{"Name":"Castleberry","PostCode":"36432","Accuracy":4,"LatLong":"31.2991,-87.0225"},{"Name":"Lenox","PostCode":"36454","Accuracy":4,"LatLong":"31.3366,-87.1855"},{"Name":"Range","PostCode":"36473","Accuracy":4,"LatLong":"31.3058,-87.2137"},{"Name":"Repton","PostCode":"36475","Accuracy":4,"LatLong":"31.4256,-87.172"}]}]},{"Name":"Coosa","Code":"037","Communities":[{"Places":[{"Name":"Goodwater","PostCode":"35072","Accuracy":4,"LatLong":"33.0746,-86.0781"},{"Name":"Kellyton","PostCode":"35089","Accuracy":4,"LatLong":"32.9791,-86.0484"},{"Name":"Rockford","PostCode":"35136","Accuracy":4,"LatLong":"32.878,-86.24"},{"Name":"Weogufka","PostCode":"35183","Accuracy":4,"LatLong":"33.0238,-86.3042"},{"Name":"Equality","PostCode":"36026","Accuracy":4,"LatLong":"32.8139,-86.1051"}]}]},{"Name":"Covington","Code":"039","Communities":[{"Places":[{"Name":"Gantt","PostCode":"36038","Accuracy":4,"LatLong":"31.4068,-86.4841"},{"Name":"Andalusia","PostCode":"36420","Accuracy":4,"LatLong":"31.2971,-86.4905"},{"Name":"Florala","PostCode":"36442","Accuracy":4,"LatLong":"31.0172,-86.3385"},{"Name":"Lockhart","PostCode":"36455","Accuracy":4,"LatLong":"31.0105,-86.3497"},{"Name":"Opp","PostCode":"36467","Accuracy":4,"LatLong":"31.2799,-86.2571"},{"Name":"Red Level","PostCode":"36474","Accuracy":4,"LatLong":"31.4399,-86.6121"},{"Name":"River Falls","PostCode":"36476","Accuracy":4,"LatLong":"31.3533,-86.541"},{"Name":"Wing","PostCode":"36483","Accuracy":4,"LatLong":"31.0223,-86.6293"}]}]},{"Name":"Crenshaw","Code":"041","Communities":[{"Places":[{"Name":"Brantley","PostCode":"36009","Accuracy":4,"LatLong":"31.571,-86.2743"},{"Name":"Dozier","PostCode":"36028","Accuracy":4,"LatLong":"31.5066,-86.3663"},{"Name":"Glenwood","PostCode":"36034","Accuracy":4,"LatLong":"31.6641,-86.171"},{"Name":"Highland Home","PostCode":"36041","Accuracy":4,"LatLong":"31.9283,-86.2971"},{"Name":"Honoraville","PostCode":"36042","Accuracy":4,"LatLong":"31.8784,-86.3981"},{"Name":"Luverne","PostCode":"36049","Accuracy":4,"LatLong":"31.7074,-86.2566"},{"Name":"Petrey","PostCode":"36062","Accuracy":4,"LatLong":"31.8488,-86.2077"},{"Name":"Rutledge","PostCode":"36071","Accuracy":4,"LatLong":"31.7062,-86.3715"}]}]},{"Name":"Cullman","Code":"043","Communities":[{"Places":[{"Name":"Baileyton","PostCode":"35019","Accuracy":4,"LatLong":"34.2683,-86.6213"},{"Name":"Bremen","PostCode":"35033","Accuracy":4,"LatLong":"33.9737,-87.0043"},{"Name":"Crane Hill","PostCode":"35053","Accuracy":4,"LatLong":"34.0821,-87.0484"},{"Name":"Cullman","PostCode":"35055","Accuracy":4,"LatLong":"34.1761,-86.8298"},{"Name":"Cullman","PostCode":"35056","Accuracy":4,"LatLong":"34.1748,-86.8436"},{"Name":"Cullman","PostCode":"35057","Accuracy":4,"LatLong":"34.0878,-86.9447"},{"Name":"Cullman","PostCode":"35058","Accuracy":4,"LatLong":"34.2098,-86.752"},{"Name":"Garden City","PostCode":"35070","Accuracy":4,"LatLong":"34.0058,-86.7499"},{"Name":"Hanceville","PostCode":"35077","Accuracy":4,"LatLong":"34.0516,-86.7848"},{"Name":"Holly Pond","PostCode":"35083","Accuracy":4,"LatLong":"34.1901,-86.6174"},{"Name":"Joppa","PostCode":"35087","Accuracy":4,"LatLong":"34.2837,-86.5519"},{"Name":"Logan","PostCode":"35098","Accuracy":4,"LatLong":"34.1377,-87.0266"},{"Name":"Vinemont","PostCode":"35179","Accuracy":4,"LatLong":"34.2621,-86.9125"}]}]},{"Name":"Dale","Code":"045","Communities":[{"Places":[{"Name":"Ariton","PostCode":"36311","Accuracy":4,"LatLong":"31.583,-85.7077"},{"Name":"Clopton","PostCode":"36317","Accuracy":4,"LatLong":"31.6446,-85.3911"},{"Name":"Daleville","PostCode":"36322","Accuracy":4,"LatLong":"31.2811,-85.7305"},{"Name":"Midland City","PostCode":"36350","Accuracy":4,"LatLong":"31.3191,-85.4938"},{"Name":"Newton","PostCode":"36352","Accuracy":4,"LatLong":"31.3311,-85.5992"},{"Name":"Ozark","PostCode":"36360","Accuracy":4,"LatLong":"31.4391,-85.6436"},{"Name":"Ozark","PostCode":"36361","Accuracy":4,"LatLong":"31.4591,-85.6405"},{"Name":"Fort Rucker","PostCode":"36362","Accuracy":4,"LatLong":"31.348,-85.7214"},{"Name":"Pinckard","PostCode":"36371","Accuracy":4,"LatLong":"31.3074,-85.5263"},{"Name":"Skipperville","PostCode":"36374","Accuracy":4,"LatLong":"31.5748,-85.537"}]}]},{"Name":"Dallas","Code":"047","Communities":[{"Places":[{"Name":"Selma","PostCode":"36701","Accuracy":4,"LatLong":"32.4197,-87.0245"},{"Name":"Selma","PostCode":"36702","Accuracy":4,"LatLong":"32.4074,-87.0211"},{"Name":"Selma","PostCode":"36703","Accuracy":4,"LatLong":"32.4156,-87.0135"},{"Name":"Plantersville","PostCode":"36758","Accuracy":4,"LatLong":"32.6176,-86.9475"},{"Name":"Marion Junction","PostCode":"36759","Accuracy":4,"LatLong":"32.4266,-87.2702"},{"Name":"Minter","PostCode":"36761","Accuracy":4,"LatLong":"32.1899,-87.0633"},{"Name":"Orrville","PostCode":"36767","Accuracy":4,"LatLong":"32.2949,-87.2214"},{"Name":"Safford","PostCode":"36773","Accuracy":4,"LatLong":"32.3002,-87.3693"},{"Name":"Sardis","PostCode":"36775","Accuracy":4,"LatLong":"32.2844,-86.992"},{"Name":"Tyler","PostCode":"36785","Accuracy":4,"LatLong":"32.3239,-86.8646"}]}]},{"Name":"DeKalb","Code":"049","Communities":[{"Places":[{"Name":"Collinsville","PostCode":"35961","Accuracy":4,"LatLong":"34.268,-85.862"},{"Name":"Crossville","PostCode":"35962","Accuracy":4,"LatLong":"34.2588,-86.0306"},{"Name":"Dawson","PostCode":"35963","Accuracy":4,"LatLong":"34.3568,-85.9292"},{"Name":"Fort Payne","PostCode":"35967","Accuracy":4,"LatLong":"34.4368,-85.7124"},{"Name":"Fort Payne","PostCode":"35968","Accuracy":4,"LatLong":"34.4898,-85.7657"},{"Name":"Fyffe","PostCode":"35971","Accuracy":4,"LatLong":"34.4373,-85.9288"},{"Name":"Geraldine","PostCode":"35974","Accuracy":4,"LatLong":"34.3592,-86.024"},{"Name":"Groveoak","PostCode":"35975","Accuracy":1,"LatLong":"34.4359,-86.04"},{"Name":"Henagar","PostCode":"35978","Accuracy":4,"LatLong":"34.6186,-85.7274"},{"Name":"Ider","PostCode":"35981","Accuracy":4,"LatLong":"34.7351,-85.6416"},{"Name":"Mentone","PostCode":"35984","Accuracy":4,"LatLong":"34.5872,-85.5777"},{"Name":"Rainsville","PostCode":"35986","Accuracy":4,"LatLong":"34.4989,-85.8446"},{"Name":"Sylvania","PostCode":"35988","Accuracy":4,"LatLong":"34.559,-85.7921"},{"Name":"Valley Head","PostCode":"35989","Accuracy":4,"LatLong":"34.5697,-85.6272"}]}]},{"Name":"Elmore","Code":"051","Communities":[{"Places":[{"Name":"Coosada","PostCode":"36020","Accuracy":4,"LatLong":"32.5056,-86.3322"},{"Name":"Deatsville","PostCode":"36022","Accuracy":4,"LatLong":"32.6082,-86.3958"},{"Name":"Eclectic","PostCode":"36024","Accuracy":4,"LatLong":"32.6542,-86.0316"},{"Name":"Elmore","PostCode":"36025","Accuracy":4,"LatLong":"32.5454,-86.3161"},{"Name":"Kent","PostCode":"36045","Accuracy":4,"LatLong":"32.619,-85.9486"},{"Name":"Millbrook","PostCode":"36054","Accuracy":4,"LatLong":"32.4995,-86.3641"},{"Name":"Tallassee","PostCode":"36078","Accuracy":4,"LatLong":"32.551,-85.8978"},{"Name":"Titus","PostCode":"36080","Accuracy":4,"LatLong":"32.69,-86.2393"},{"Name":"Wetumpka","PostCode":"36092","Accuracy":4,"LatLong":"32.5927,-86.2153"},{"Name":"Wetumpka","PostCode":"36093","Accuracy":4,"LatLong":"32.5622,-86.0994"}]}]},{"Name":"Escambia","Code":"053","Communities":[{"Places":[{"Name":"Brewton","PostCode":"36426","Accuracy":4,"LatLong":"31.1294,-87.0961"},{"Name":"Brewton","PostCode":"36427","Accuracy":4,"LatLong":"31.1052,-87.0722"},{"Name":"Flomaton","PostCode":"36441","Accuracy":4,"LatLong":"31.0402,-87.2664"},{"Name":"Atmore","PostCode":"36502","Accuracy":4,"LatLong":"31.0572,-87.4873"},{"Name":"Atmore","PostCode":"36503","Accuracy":4,"LatLong":"31.0238,-87.4939"},{"Name":"Atmore","PostCode":"36504","Accuracy":4,"LatLong":"31.0158,-87.4972"},{"Name":"Huxford","PostCode":"36543","Accuracy":4,"LatLong":"31.2202,-87.4619"}]}]},{"Name":"Etowah","Code":"055","Communities":[{"Places":[{"Name":"Gadsden","PostCode":"35901","Accuracy":4,"LatLong":"34.048,-85.9246"},{"Name":"Gadsden","PostCode":"35902","Accuracy":4,"LatLong":"34.0143,-86.0066"},{"Name":"Gadsden","PostCode":"35903","Accuracy":4,"LatLong":"33.9845,-85.9077"},{"Name":"Gadsden","PostCode":"35904","Accuracy":4,"LatLong":"34.0217,-86.0495"},{"Name":"Gadsden","PostCode":"35905","Accuracy":4,"LatLong":"33.9352,-85.9576"},{"Name":"Rainbow City","PostCode":"35906","Accuracy":4,"LatLong":"33.9318,-86.0898"},{"Name":"Gadsden","PostCode":"35907","Accuracy":4,"LatLong":"33.8979,-86.0245"},{"Name":"Altoona","PostCode":"35952","Accuracy":4,"LatLong":"34.071,-86.2096"},{"Name":"Attalla","PostCode":"35954","Accuracy":4,"LatLong":"34.0296,-86.0967"},{"Name":"Gallant","PostCode":"35972","Accuracy":4,"LatLong":"33.9976,-86.2346"},{"Name":"Walnut Grove","PostCode":"35990","Accuracy":4,"LatLong":"34.0657,-86.3064"}]}]},{"Name":"Fayette","Code":"057","Communities":[{"Places":[{"Name":"Bankston","PostCode":"35542","Accuracy":4,"LatLong":"33.7008,-87.6897"},{"Name":"Belk","PostCode":"35545","Accuracy":4,"LatLong":"33.6476,-87.9314"},{"Name":"Berry","PostCode":"35546","Accuracy":4,"LatLong":"33.6945,-87.6226"},{"Name":"Fayette","PostCode":"35555","Accuracy":4,"LatLong":"33.6974,-87.8346"},{"Name":"Glen Allen","PostCode":"35559","Accuracy":4,"LatLong":"33.9151,-87.7417"}]}]},{"Name":"Franklin","Code":"059","Communities":[{"Places":[{"Name":"Hodges","PostCode":"35571","Accuracy":4,"LatLong":"34.3417,-87.959"},{"Name":"Phil Campbell","PostCode":"35581","Accuracy":4,"LatLong":"34.347,-87.7154"},{"Name":"Red Bay","PostCode":"35582","Accuracy":4,"LatLong":"34.4513,-88.1129"},{"Name":"Spruce Pine","PostCode":"35585","Accuracy":4,"LatLong":"34.4246,-87.8145"},{"Name":"Vina","PostCode":"35593","Accuracy":4,"LatLong":"34.3712,-88.0774"},{"Name":"Russellville","PostCode":"35653","Accuracy":4,"LatLong":"34.5066,-87.7257"},{"Name":"Russellville","PostCode":"35654","Accuracy":4,"LatLong":"34.4675,-87.6478"}]}]},{"Name":"Geneva","Code":"061","Communities":[{"Places":[{"Name":"Bellwood","PostCode":"36313","Accuracy":4,"LatLong":"31.1732,-85.7933"},{"Name":"Black","PostCode":"36314","Accuracy":4,"LatLong":"31.0132,-85.7456"},{"Name":"Chancellor","PostCode":"36316","Accuracy":4,"LatLong":"31.1767,-85.8135"},{"Name":"Coffee Springs","PostCode":"36318","Accuracy":4,"LatLong":"31.1388,-85.9182"},{"Name":"Geneva","PostCode":"36340","Accuracy":4,"LatLong":"31.0414,-85.8847"},{"Name":"Hartford","PostCode":"36344","Accuracy":4,"LatLong":"31.086,-85.7192"},{"Name":"Malvern","PostCode":"36349","Accuracy":4,"LatLong":"31.1212,-85.5592"},{"Name":"Slocomb","PostCode":"36375","Accuracy":4,"LatLong":"31.0956,-85.583"},{"Name":"Samson","PostCode":"36477","Accuracy":4,"LatLong":"31.1049,-86.0674"}]}]},{"Name":"Greene","Code":"063","Communities":[{"Places":[{"Name":"Boligee","PostCode":"35443","Accuracy":4,"LatLong":"32.7746,-88.0267"},{"Name":"Clinton","PostCode":"35448","Accuracy":4,"LatLong":"32.9137,-87.9925"},{"Name":"Eutaw","PostCode":"35462","Accuracy":4,"LatLong":"32.8889,-87.9303"},{"Name":"Knoxville","PostCode":"35469","Accuracy":4,"LatLong":"32.9824,-87.7919"},{"Name":"West Greene","PostCode":"35491","Accuracy":4,"LatLong":"32.9237,-88.0853"},{"Name":"Forkland","PostCode":"36740","Accuracy":4,"LatLong":"32.6108,-87.8441"}]}]},{"Name":"Hale","Code":"065","Communities":[{"Places":[{"Name":"Akron","PostCode":"35441","Accuracy":4,"LatLong":"32.8553,-87.7219"},{"Name":"Moundville","PostCode":"35474","Accuracy":4,"LatLong":"32.9108,-87.5935"},{"Name":"Gallion","PostCode":"36742","Accuracy":4,"LatLong":"32.5298,-87.6985"},{"Name":"Greensboro","PostCode":"36744","Accuracy":4,"LatLong":"32.7167,-87.5905"},{"Name":"Newbern","PostCode":"36765","Accuracy":4,"LatLong":"32.5515,-87.5615"},{"Name":"Sawyerville","PostCode":"36776","Accuracy":4,"LatLong":"32.7578,-87.7402"}]}]},{"Name":"Henry","Code":"067","Communities":[{"Places":[{"Name":"Abbeville","PostCode":"36310","Accuracy":4,"LatLong":"31.5755,-85.279"},{"Name":"Headland","PostCode":"36345","Accuracy":4,"LatLong":"31.3534,-85.3323"},{"Name":"Newville","PostCode":"36353","Accuracy":4,"LatLong":"31.4403,-85.3287"},{"Name":"Shorterville","PostCode":"36373","Accuracy":4,"LatLong":"31.501,-85.1135"}]}]},{"Name":"Houston","Code":"069","Communities":[{"Places":[{"Name":"Dothan","PostCode":"36301","Accuracy":4,"LatLong":"31.1481,-85.3718"},{"Name":"Dothan","PostCode":"36302","Accuracy":4,"LatLong":"31.2232,-85.3905"},{"Name":"Dothan","PostCode":"36303","Accuracy":4,"LatLong":"31.2668,-85.3971"},{"Name":"Dothan","PostCode":"36304","Accuracy":4,"LatLong":"31.156,-85.3559"},{"Name":"Dothan","PostCode":"36305","Accuracy":4,"LatLong":"31.2197,-85.4828"},{"Name":"Ashford","PostCode":"36312","Accuracy":4,"LatLong":"31.1888,-85.2535"},{"Name":"Columbia","PostCode":"36319","Accuracy":4,"LatLong":"31.3352,-85.1455"},{"Name":"Cottonwood","PostCode":"36320","Accuracy":4,"LatLong":"31.0507,-85.3154"},{"Name":"Cowarts","PostCode":"36321","Accuracy":4,"LatLong":"31.2025,-85.3014"},{"Name":"Gordon","PostCode":"36343","Accuracy":4,"LatLong":"31.1002,-85.1234"},{"Name":"Pansey","PostCode":"36370","Accuracy":4,"LatLong":"31.1403,-85.1573"},{"Name":"Webb","PostCode":"36376","Accuracy":4,"LatLong":"31.2656,-85.2544"}]}]},{"Name":"Jackson","Code":"071","Communities":[{"Places":[{"Name":"Bridgeport","PostCode":"35740","Accuracy":4,"LatLong":"34.9446,-85.7277"},{"Name":"Dutton","PostCode":"35744","Accuracy":4,"LatLong":"34.6046,-85.9067"},{"Name":"Estillfork","PostCode":"35745","Accuracy":4,"LatLong":"34.913,-86.1716"},{"Name":"Fackler","PostCode":"35746","Accuracy":4,"LatLong":"34.8259,-85.9846"},{"Name":"Hollytree","PostCode":"35751","Accuracy":4,"LatLong":"34.7955,-86.2743"},{"Name":"Hollywood","PostCode":"35752","Accuracy":4,"LatLong":"34.7304,-85.9532"},{"Name":"Langston","PostCode":"35755","Accuracy":4,"LatLong":"34.5001,-86.1353"},{"Name":"Paint Rock","PostCode":"35764","Accuracy":4,"LatLong":"34.7031,-86.3068"},{"Name":"Pisgah","PostCode":"35765","Accuracy":4,"LatLong":"34.6809,-85.8478"},{"Name":"Princeton","PostCode":"35766","Accuracy":4,"LatLong":"34.8713,-86.2513"},{"Name":"Scottsboro","PostCode":"35768","Accuracy":4,"LatLong":"34.7507,-86.1422"},{"Name":"Scottsboro","PostCode":"35769","Accuracy":4,"LatLong":"34.618,-86.0562"},{"Name":"Section","PostCode":"35771","Accuracy":4,"LatLong":"34.5433,-85.994"},{"Name":"Stevenson","PostCode":"35772","Accuracy":4,"LatLong":"34.8769,-85.8508"},{"Name":"Trenton","PostCode":"35774","Accuracy":4,"LatLong":"34.7632,-86.2295"},{"Name":"Woodville","PostCode":"35776","Accuracy":4,"LatLong":"34.6689,-86.2296"},{"Name":"Bryant","PostCode":"35958","Accuracy":4,"LatLong":"34.945,-85.6324"},{"Name":"Flat Rock","PostCode":"35966","Accuracy":4,"LatLong":"34.8076,-85.7084"},{"Name":"Higdon","PostCode":"35979","Accuracy":4,"LatLong":"34.8391,-85.6196"}]}]},{"Name":"Jefferson","Code":"073","Communities":[{"Places":[{"Name":"Adamsville","PostCode":"35005","Accuracy":4,"LatLong":"33.5884,-86.9597"},{"Name":"Adger","PostCode":"35006","Accuracy":4,"LatLong":"33.4343,-87.1675"},{"Name":"Alton","PostCode":"35015","Accuracy":4,"LatLong":"33.5793,-86.6375"},{"Name":"Bessemer","PostCode":"35020","Accuracy":4,"LatLong":"33.409,-86.9475"},{"Name":"Bessemer","PostCode":"35021","Accuracy":4,"LatLong":"33.5446,-86.9292"},{"Name":"Bessemer","PostCode":"35022","Accuracy":4,"LatLong":"33.3224,-86.9657"},{"Name":"Bessemer","PostCode":"35023","Accuracy":4,"LatLong":"33.468,-87.0924"},{"Name":"Brookside","PostCode":"35036","Accuracy":4,"LatLong":"33.6379,-86.9167"},{"Name":"Clay","PostCode":"35048","Accuracy":4,"LatLong":"33.7026,-86.5997"},{"Name":"Docena","PostCode":"35060","Accuracy":4,"LatLong":"33.5589,-86.9294"},{"Name":"Dolomite","PostCode":"35061","Accuracy":4,"LatLong":"33.4654,-86.9564"},{"Name":"Fairfield","PostCode":"35064","Accuracy":4,"LatLong":"33.4735,-86.9183"},{"Name":"Fultondale","PostCode":"35068","Accuracy":4,"LatLong":"33.6017,-86.8265"},{"Name":"Gardendale","PostCode":"35071","Accuracy":4,"LatLong":"33.7189,-86.8225"},{"Name":"Graysville","PostCode":"35073","Accuracy":4,"LatLong":"33.6539,-86.9803"},{"Name":"Kimberly","PostCode":"35091","Accuracy":4,"LatLong":"33.7684,-86.8084"},{"Name":"Leeds","PostCode":"35094","Accuracy":4,"LatLong":"33.5283,-86.5748"},{"Name":"Mc Calla","PostCode":"35111","Accuracy":1,"LatLong":"33.2845,-87.1024"},{"Name":"Morris","PostCode":"35116","Accuracy":4,"LatLong":"33.7392,-86.7726"},{"Name":"Mount Olive","PostCode":"35117","Accuracy":4,"LatLong":"33.6768,-86.8717"},{"Name":"Mulga","PostCode":"35118","Accuracy":4,"LatLong":"33.5363,-87.051"},{"Name":"New Castle","PostCode":"35119","Accuracy":4,"LatLong":"33.649,-86.7686"},{"Name":"Palmerdale","PostCode":"35123","Accuracy":4,"LatLong":"33.7387,-86.6461"},{"Name":"Pinson","PostCode":"35126","Accuracy":4,"LatLong":"33.7299,-86.6451"},{"Name":"Pleasant Grove","PostCode":"35127","Accuracy":4,"LatLong":"33.4883,-86.9766"},{"Name":"Sayre","PostCode":"35139","Accuracy":4,"LatLong":"33.7111,-86.9759"},{"Name":"Shannon","PostCode":"35142","Accuracy":4,"LatLong":"33.4069,-86.8735"},{"Name":"Trafford","PostCode":"35172","Accuracy":4,"LatLong":"33.819,-86.7434"},{"Name":"Trussville","PostCode":"35173","Accuracy":4,"LatLong":"33.6339,-86.5981"},{"Name":"Warrior","PostCode":"35180","Accuracy":4,"LatLong":"33.8529,-86.8198"},{"Name":"Watson","PostCode":"35181","Accuracy":4,"LatLong":"33.5446,-86.9292"},{"Name":"Birmingham","PostCode":"35201","Accuracy":4,"LatLong":"33.5207,-86.8025"},{"Name":"Birmingham","PostCode":"35202","Accuracy":4,"LatLong":"33.5207,-86.8025"},{"Name":"Birmingham","PostCode":"35203","Accuracy":4,"LatLong":"33.521,-86.8066"},{"Name":"Birmingham","PostCode":"35204","Accuracy":4,"LatLong":"33.5179,-86.8372"},{"Name":"Birmingham","PostCode":"35205","Accuracy":4,"LatLong":"33.4951,-86.8059"},{"Name":"Birmingham","PostCode":"35206","Accuracy":4,"LatLong":"33.5678,-86.7199"},{"Name":"Birmingham","PostCode":"35207","Accuracy":4,"LatLong":"33.5594,-86.8153"},{"Name":"Birmingham","PostCode":"35208","Accuracy":4,"LatLong":"33.4977,-86.8799"},{"Name":"Birmingham","PostCode":"35209","Accuracy":4,"LatLong":"33.4653,-86.8082"},{"Name":"Birmingham","PostCode":"35210","Accuracy":4,"LatLong":"33.5452,-86.6655"},{"Name":"Birmingham","PostCode":"35211","Accuracy":4,"LatLong":"33.4816,-86.859"},{"Name":"Birmingham","PostCode":"35212","Accuracy":4,"LatLong":"33.5409,-86.7495"},{"Name":"Birmingham","PostCode":"35213","Accuracy":4,"LatLong":"33.5066,-86.7428"},{"Name":"Birmingham","PostCode":"35214","Accuracy":4,"LatLong":"33.5554,-86.887"},{"Name":"Birmingham","PostCode":"35215","Accuracy":4,"LatLong":"33.6493,-86.7057"},{"Name":"Birmingham","PostCode":"35216","Accuracy":4,"LatLong":"33.4188,-86.7867"},{"Name":"Birmingham","PostCode":"35217","Accuracy":4,"LatLong":"33.5887,-86.765"},{"Name":"Birmingham","PostCode":"35218","Accuracy":4,"LatLong":"33.506,-86.893"},{"Name":"Birmingham","PostCode":"35219","Accuracy":4,"LatLong":"33.5446,-86.9292"},{"Name":"Birmingham","PostCode":"35220","Accuracy":4,"LatLong":"33.5446,-86.9292"},{"Name":"Birmingham","PostCode":"35221","Accuracy":4,"LatLong":"33.4523,-86.8935"},{"Name":"Birmingham","PostCode":"35222","Accuracy":4,"LatLong":"33.5219,-86.7666"},{"Name":"Birmingham","PostCode":"35223","Accuracy":4,"LatLong":"33.4995,-86.7268"},{"Name":"Birmingham","PostCode":"35224","Accuracy":4,"LatLong":"33.5191,-86.9342"},{"Name":"Birmingham","PostCode":"35226","Accuracy":4,"LatLong":"33.3967,-86.8346"},{"Name":"Birmingham","PostCode":"35228","Accuracy":4,"LatLong":"33.4558,-86.9118"},{"Name":"Birmingham","PostCode":"35229","Accuracy":4,"LatLong":"33.4629,-86.7904"},{"Name":"Birmingham","PostCode":"35231","Accuracy":4,"LatLong":"33.5446,-86.9292"},{"Name":"Birmingham","PostCode":"35232","Accuracy":4,"LatLong":"33.5446,-86.9292"},{"Name":"Birmingham","PostCode":"35233","Accuracy":4,"LatLong":"33.5062,-86.8003"},{"Name":"Birmingham","PostCode":"35234","Accuracy":4,"LatLong":"33.5378,-86.8068"},{"Name":"Birmingham","PostCode":"35235","Accuracy":4,"LatLong":"33.6328,-86.6493"},{"Name":"Birmingham","PostCode":"35236","Accuracy":4,"LatLong":"33.5446,-86.9292"},{"Name":"Birmingham","PostCode":"35237","Accuracy":4,"LatLong":"33.5207,-86.8025"},{"Name":"Birmingham","PostCode":"35238","Accuracy":4,"LatLong":"33.5446,-86.9292"},{"Name":"Birmingham","PostCode":"35243","Accuracy":4,"LatLong":"33.4459,-86.7502"},{"Name":"Birmingham","PostCode":"35244","Accuracy":4,"LatLong":"33.3538,-86.8254"},{"Name":"Birmingham","PostCode":"35246","Accuracy":4,"LatLong":"33.5207,-86.8025"},{"Name":"Birmingham","PostCode":"35249","Accuracy":4,"LatLong":"33.5207,-86.8025"},{"Name":"Birmingham","PostCode":"35253","Accuracy":4,"LatLong":"33.5446,-86.9292"},{"Name":"Birmingham","PostCode":"35254","Accuracy":4,"LatLong":"33.5446,-86.9292"},{"Name":"Birmingham","PostCode":"35255","Accuracy":4,"LatLong":"33.5446,-86.9292"},{"Name":"Birmingham","PostCode":"35259","Accuracy":4,"LatLong":"33.5446,-86.9292"},{"Name":"Birmingham","PostCode":"35260","Accuracy":4,"LatLong":"33.5446,-86.9292"},{"Name":"Birmingham","PostCode":"35261","Accuracy":4,"LatLong":"33.5446,-86.9292"},{"Name":"Birmingham","PostCode":"35266","Accuracy":4,"LatLong":"33.3729,-86.8531"},{"Name":"Birmingham","PostCode":"35270","LatLong":"33.5206,-86.8025"},{"Name":"Birmingham","PostCode":"35282","Accuracy":4,"LatLong":"33.5446,-86.9292"},{"Name":"Birmingham","PostCode":"35283","Accuracy":4,"LatLong":"33.5207,-86.8025"},{"Name":"Birmingham","PostCode":"35285","Accuracy":4,"LatLong":"33.5446,-86.9292"},{"Name":"Birmingham","PostCode":"35287","Accuracy":4,"LatLong":"33.5207,-86.8025"},{"Name":"Birmingham","PostCode":"35288","Accuracy":4,"LatLong":"33.4458,-86.9285"},{"Name":"Birmingham","PostCode":"35290","Accuracy":4,"LatLong":"33.5446,-86.9292"},{"Name":"Birmingham","PostCode":"35291","Accuracy":4,"LatLong":"33.5207,-86.8025"},{"Name":"Birmingham","PostCode":"35292","Accuracy":4,"LatLong":"33.5207,-86.8025"},{"Name":"Birmingham","PostCode":"35293","Accuracy":4,"LatLong":"33.5446,-86.9292"},{"Name":"Birmingham","PostCode":"35294","Accuracy":4,"LatLong":"33.5446,-86.9292"},{"Name":"Birmingham","PostCode":"35295","Accuracy":4,"LatLong":"33.5207,-86.8025"},{"Name":"Birmingham","PostCode":"35296","Accuracy":4,"LatLong":"33.5446,-86.9292"},{"Name":"Birmingham","PostCode":"35297","Accuracy":4,"LatLong":"33.5446,-86.9292"},{"Name":"Birmingham","PostCode":"35298","Accuracy":4,"LatLong":"33.5446,-86.9292"}]}]},{"Name":"Lamar","Code":"075","Communities":[{"Places":[{"Name":"Beaverton","PostCode":"35544","Accuracy":4,"LatLong":"33.9429,-88.0157"},{"Name":"Detroit","PostCode":"35552","Accuracy":4,"LatLong":"34.0282,-88.17"},{"Name":"Kennedy","PostCode":"35574","Accuracy":4,"LatLong":"33.6153,-87.9948"},{"Name":"Millport","PostCode":"35576","Accuracy":4,"LatLong":"33.5401,-88.2"},{"Name":"Sulligent","PostCode":"35586","Accuracy":4,"LatLong":"33.8549,-88.1508"},{"Name":"Vernon","PostCode":"35592","Accuracy":4,"LatLong":"33.7613,-88.0979"}]}]},{"Name":"Lauderdale","Code":"077","Communities":[{"Places":[{"Name":"Anderson","PostCode":"35610","Accuracy":4,"LatLong":"34.9424,-87.2734"},{"Name":"Cloverdale","PostCode":"35617","Accuracy":4,"LatLong":"34.9387,-87.7714"},{"Name":"Florence","PostCode":"35630","Accuracy":4,"LatLong":"34.8305,-87.656"},{"Name":"Florence","PostCode":"35631","Accuracy":4,"LatLong":"34.87,-87.7069"},{"Name":"Florence","PostCode":"35632","Accuracy":4,"LatLong":"34.87,-87.7069"},{"Name":"Florence","PostCode":"35633","Accuracy":4,"LatLong":"34.8825,-87.7398"},{"Name":"Florence","PostCode":"35634","Accuracy":4,"LatLong":"34.9186,-87.6136"},{"Name":"Killen","PostCode":"35645","Accuracy":4,"LatLong":"34.9016,-87.5082"},{"Name":"Lexington","PostCode":"35648","Accuracy":4,"LatLong":"34.9559,-87.3935"},{"Name":"Rogersville","PostCode":"35652","Accuracy":4,"LatLong":"34.8495,-87.3237"},{"Name":"Waterloo","PostCode":"35677","Accuracy":4,"LatLong":"34.9357,-87.9624"}]}]},{"Name":"Lawrence","Code":"079","Communities":[{"Places":[{"Name":"Courtland","PostCode":"35618","Accuracy":4,"LatLong":"34.6719,-87.3143"},{"Name":"Hillsboro","PostCode":"35643","Accuracy":4,"LatLong":"34.6476,-87.1804"},{"Name":"Moulton","PostCode":"35650","Accuracy":4,"LatLong":"34.5058,-87.2224"},{"Name":"Mount Hope","PostCode":"35651","Accuracy":4,"LatLong":"34.4793,-87.4769"},{"Name":"Town Creek","PostCode":"35672","Accuracy":4,"LatLong":"34.6491,-87.4262"}]}]},{"Name":"Lee","Code":"081","Communities":[{"Places":[{"Name":"Opelika","PostCode":"36801","Accuracy":4,"LatLong":"32.6454,-85.3783"},{"Name":"Opelika","PostCode":"36802","Accuracy":4,"LatLong":"32.5782,-85.349"},{"Name":"Opelika","PostCode":"36803","Accuracy":4,"LatLong":"32.6454,-85.3783"},{"Name":"Opelika","PostCode":"36804","Accuracy":4,"LatLong":"32.5768,-85.312"},{"Name":"Auburn","PostCode":"36830","Accuracy":4,"LatLong":"32.5475,-85.4682"},{"Name":"Auburn","PostCode":"36831","Accuracy":4,"LatLong":"32.6099,-85.4808"},{"Name":"Auburn","PostCode":"36832","Accuracy":4,"LatLong":"32.592,-85.5189"},{"Name":"Auburn University","PostCode":"36849","Accuracy":4,"LatLong":"32.6024,-85.4873"},{"Name":"Loachapoka","PostCode":"36865","Accuracy":4,"LatLong":"32.6043,-85.5933"},{"Name":"Valley","PostCode":"36872","Accuracy":4,"LatLong":"32.5782,-85.349"},{"Name":"Salem","PostCode":"36874","Accuracy":4,"LatLong":"32.6212,-85.184"},{"Name":"Smiths Station","PostCode":"36877","Accuracy":4,"LatLong":"32.5401,-85.0985"},{"Name":"Waverly","PostCode":"36879","Accuracy":4,"LatLong":"32.7632,-85.5144"}]}]},{"Name":"Limestone","Code":"083","Communities":[{"Places":[{"Name":"Athens","PostCode":"35611","Accuracy":4,"LatLong":"34.8036,-86.9707"},{"Name":"Athens","PostCode":"35612","Accuracy":4,"LatLong":"34.7749,-87.0305"},{"Name":"Athens","PostCode":"35613","Accuracy":4,"LatLong":"34.8317,-86.8867"},{"Name":"Athens","PostCode":"35614","Accuracy":4,"LatLong":"34.8474,-87.0607"},{"Name":"Belle Mina","PostCode":"35615","Accuracy":4,"LatLong":"34.6568,-86.8792"},{"Name":"Elkmont","PostCode":"35620","Accuracy":4,"LatLong":"34.929,-86.9739"},{"Name":"Lester","PostCode":"35647","Accuracy":4,"LatLong":"34.9596,-87.1006"},{"Name":"Mooresville","PostCode":"35649","Accuracy":4,"LatLong":"34.6259,-86.8746"},{"Name":"Tanner","PostCode":"35671","Accuracy":4,"LatLong":"34.6796,-86.9625"},{"Name":"Ardmore","PostCode":"35739","Accuracy":4,"LatLong":"34.9804,-86.8346"},{"Name":"Capshaw","PostCode":"35742","Accuracy":4,"LatLong":"34.7731,-86.7928"}]}]},{"Name":"Lowndes","Code":"085","Communities":[{"Places":[{"Name":"Fort Deposit","PostCode":"36032","Accuracy":4,"LatLong":"31.996,-86.5761"},{"Name":"Hayneville","PostCode":"36040","Accuracy":4,"LatLong":"32.1957,-86.655"},{"Name":"Letohatchee","PostCode":"36047","Accuracy":4,"LatLong":"32.0862,-86.488"},{"Name":"Lowndesboro","PostCode":"36752","Accuracy":4,"LatLong":"32.2943,-86.6471"}]}]},{"Name":"Macon","Code":"087","Communities":[{"Places":[{"Name":"Fort Davis","PostCode":"36031","Accuracy":4,"LatLong":"32.2507,-85.7524"},{"Name":"Hardaway","PostCode":"36039","Accuracy":4,"LatLong":"32.3129,-85.8838"},{"Name":"Shorter","PostCode":"36075","Accuracy":4,"LatLong":"32.3836,-85.9162"},{"Name":"Tuskegee","PostCode":"36083","Accuracy":4,"LatLong":"32.4316,-85.6861"},{"Name":"Tuskegee Institute","PostCode":"36087","Accuracy":1,"LatLong":"32.4093,-85.738"},{"Name":"Tuskegee Institute","PostCode":"36088","Accuracy":1,"LatLong":"32.4145,-85.7253"},{"Name":"Notasulga","PostCode":"36866","Accuracy":4,"LatLong":"32.5437,-85.6871"}]}]},{"Name":"Madison","Code":"089","Communities":[{"Places":[{"Name":"Brownsboro","PostCode":"35741","Accuracy":4,"LatLong":"34.7167,-86.4687"},{"Name":"Gurley","PostCode":"35748","Accuracy":4,"LatLong":"34.714,-86.394"},{"Name":"Harvest","PostCode":"35749","Accuracy":4,"LatLong":"34.8273,-86.7499"},{"Name":"Hazel Green","PostCode":"35750","Accuracy":4,"LatLong":"34.9496,-86.5935"},{"Name":"Madison","PostCode":"35756","Accuracy":4,"LatLong":"34.643,-86.8168"},{"Name":"Madison","PostCode":"35757","Accuracy":4,"LatLong":"34.7782,-86.7442"},{"Name":"Madison","PostCode":"35758","Accuracy":4,"LatLong":"34.7108,-86.7425"},{"Name":"Meridianville","PostCode":"35759","Accuracy":4,"LatLong":"34.8618,-86.5789"},{"Name":"New Hope","PostCode":"35760","Accuracy":4,"LatLong":"34.5494,-86.3961"},{"Name":"New Market","PostCode":"35761","Accuracy":4,"LatLong":"34.9,-86.4487"},{"Name":"Normal","PostCode":"35762","Accuracy":4,"LatLong":"34.789,-86.5719"},{"Name":"Owens Cross Roads","PostCode":"35763","Accuracy":4,"LatLong":"34.6215,-86.4644"},{"Name":"Ryland","PostCode":"35767","Accuracy":4,"LatLong":"34.7698,-86.4808"},{"Name":"Toney","PostCode":"35773","Accuracy":4,"LatLong":"34.9116,-86.7"},{"Name":"Huntsville","PostCode":"35801","Accuracy":4,"LatLong":"34.7269,-86.5673"},{"Name":"Huntsville","PostCode":"35802","Accuracy":4,"LatLong":"34.6679,-86.5603"},{"Name":"Huntsville","PostCode":"35803","Accuracy":4,"LatLong":"34.6205,-86.551"},{"Name":"Huntsville","PostCode":"35804","Accuracy":4,"LatLong":"34.7284,-86.5853"},{"Name":"Huntsville","PostCode":"35805","Accuracy":4,"LatLong":"34.7059,-86.6165"},{"Name":"Huntsville","PostCode":"35806","Accuracy":4,"LatLong":"34.7448,-86.6704"},{"Name":"Huntsville","PostCode":"35807","Accuracy":4,"LatLong":"34.734,-86.5229"},{"Name":"Huntsville","PostCode":"35808","Accuracy":4,"LatLong":"34.6845,-86.6538"},{"Name":"Huntsville","PostCode":"35809","Accuracy":4,"LatLong":"34.734,-86.5229"},{"Name":"Huntsville","PostCode":"35810","Accuracy":4,"LatLong":"34.7784,-86.6091"},{"Name":"Huntsville","PostCode":"35811","Accuracy":4,"LatLong":"34.7789,-86.5438"},{"Name":"Huntsville","PostCode":"35812","Accuracy":4,"LatLong":"34.734,-86.5229"},{"Name":"Huntsville","PostCode":"35813","Accuracy":4,"LatLong":"34.734,-86.5229"},{"Name":"Huntsville","PostCode":"35814","Accuracy":4,"LatLong":"34.734,-86.5229"},{"Name":"Huntsville","PostCode":"35815","Accuracy":4,"LatLong":"34.734,-86.5229"},{"Name":"Huntsville","PostCode":"35816","Accuracy":4,"LatLong":"34.7389,-86.6249"},{"Name":"Huntsville","PostCode":"35824","Accuracy":4,"LatLong":"34.6583,-86.7295"},{"Name":"Huntsville","PostCode":"35893","Accuracy":4,"LatLong":"34.7304,-86.5861"},{"Name":"Huntsville","PostCode":"35894","Accuracy":4,"LatLong":"34.734,-86.5229"},{"Name":"Huntsville","PostCode":"35895","Accuracy":4,"LatLong":"34.7304,-86.5861"},{"Name":"Huntsville","PostCode":"35896","Accuracy":4,"LatLong":"34.7543,-86.6546"},{"Name":"Huntsville","PostCode":"35897","Accuracy":4,"LatLong":"34.734,-86.5229"},{"Name":"Huntsville","PostCode":"35898","Accuracy":4,"LatLong":"34.734,-86.5229"},{"Name":"Huntsville","PostCode":"35899","Accuracy":4,"LatLong":"34.7339,-86.6456"}]}]},{"Name":"Marengo","Code":"091","Communities":[{"Places":[{"Name":"Demopolis","PostCode":"36732","Accuracy":4,"LatLong":"32.4908,-87.8397"},{"Name":"Dixons Mills","PostCode":"36736","Accuracy":4,"LatLong":"32.0672,-87.7454"},{"Name":"Faunsdale","PostCode":"36738","Accuracy":4,"LatLong":"32.4233,-87.6181"},{"Name":"Jefferson","PostCode":"36745","Accuracy":4,"LatLong":"32.414,-87.8986"},{"Name":"Linden","PostCode":"36748","Accuracy":4,"LatLong":"32.3053,-87.7954"},{"Name":"Magnolia","PostCode":"36754","Accuracy":4,"LatLong":"32.1419,-87.6998"},{"Name":"Myrtlewood","PostCode":"36763","Accuracy":4,"LatLong":"32.2516,-87.9494"},{"Name":"Nanafalia","PostCode":"36764","Accuracy":4,"LatLong":"32.1129,-87.9881"},{"Name":"Sweet Water","PostCode":"36782","Accuracy":4,"LatLong":"32.0773,-87.9228"},{"Name":"Thomaston","PostCode":"36783","Accuracy":4,"LatLong":"32.2538,-87.5974"}]}]},{"Name":"Marion","Code":"093","Communities":[{"Places":[{"Name":"Bear Creek","PostCode":"35543","Accuracy":4,"LatLong":"34.1649,-87.7396"},{"Name":"Brilliant","PostCode":"35548","Accuracy":4,"LatLong":"34.0377,-87.7563"},{"Name":"Guin","PostCode":"35563","Accuracy":4,"LatLong":"33.9676,-87.9024"},{"Name":"Hackleburg","PostCode":"35564","Accuracy":4,"LatLong":"34.2678,-87.8608"},{"Name":"Hamilton","PostCode":"35570","Accuracy":4,"LatLong":"34.1534,-88.0085"},{"Name":"Winfield","PostCode":"35594","Accuracy":4,"LatLong":"33.9303,-87.7972"}]}]},{"Name":"Marshall","Code":"095","Communities":[{"Places":[{"Name":"Arab","PostCode":"35016","Accuracy":4,"LatLong":"34.3283,-86.4896"},{"Name":"Union Grove","PostCode":"35175","Accuracy":4,"LatLong":"34.4093,-86.4628"},{"Name":"Grant","PostCode":"35747","Accuracy":4,"LatLong":"34.4959,-86.259"},{"Name":"Albertville","PostCode":"35950","Accuracy":4,"LatLong":"34.2739,-86.2064"},{"Name":"Albertville","PostCode":"35951","Accuracy":4,"LatLong":"34.3223,-86.1935"},{"Name":"Boaz","PostCode":"35956","Accuracy":4,"LatLong":"34.1437,-86.148"},{"Name":"Boaz","PostCode":"35957","Accuracy":4,"LatLong":"34.1921,-86.1941"},{"Name":"Douglas","PostCode":"35964","Accuracy":4,"LatLong":"34.1737,-86.3236"},{"Name":"Guntersville","PostCode":"35976","Accuracy":4,"LatLong":"34.3449,-86.2752"},{"Name":"Horton","PostCode":"35980","Accuracy":4,"LatLong":"34.19,-86.3173"}]}]},{"Name":"Mobile","Code":"097","Communities":[{"Places":[{"Name":"Andalusia","PostCode":"36421","Accuracy":4,"LatLong":"31.3247,-86.5067"},{"Name":"Axis","PostCode":"36505","Accuracy":4,"LatLong":"30.9394,-88.0159"},{"Name":"Bayou La Batre","PostCode":"36509","Accuracy":4,"LatLong":"30.408,-88.2507"},{"Name":"Bucks","PostCode":"36512","Accuracy":4,"LatLong":"31.0105,-88.0242"},{"Name":"Chunchula","PostCode":"36521","Accuracy":4,"LatLong":"30.9912,-88.1311"},{"Name":"Citronelle","PostCode":"36522","Accuracy":4,"LatLong":"31.0425,-88.2549"},{"Name":"Coden","PostCode":"36523","Accuracy":4,"LatLong":"30.3903,-88.2076"},{"Name":"Creola","PostCode":"36525","Accuracy":4,"LatLong":"30.9013,-88.0174"},{"Name":"Dauphin Island","PostCode":"36528","Accuracy":4,"LatLong":"30.2521,-88.1096"},{"Name":"Grand Bay","PostCode":"36541","Accuracy":4,"LatLong":"30.4983,-88.3282"},{"Name":"Irvington","PostCode":"36544","Accuracy":4,"LatLong":"30.4802,-88.2396"},{"Name":"Mount Vernon","PostCode":"36560","Accuracy":4,"LatLong":"31.0974,-88.035"},{"Name":"Saint Elmo","PostCode":"36568","Accuracy":4,"LatLong":"30.5035,-88.2542"},{"Name":"Saraland","PostCode":"36571","Accuracy":4,"LatLong":"30.8332,-88.0934"},{"Name":"Satsuma","PostCode":"36572","Accuracy":4,"LatLong":"30.8516,-88.0533"},{"Name":"Semmes","PostCode":"36575","Accuracy":4,"LatLong":"30.7544,-88.2667"},{"Name":"Theodore","PostCode":"36582","Accuracy":4,"LatLong":"30.5444,-88.1807"},{"Name":"Wilmer","PostCode":"36587","Accuracy":4,"LatLong":"30.8137,-88.3332"},{"Name":"Theodore","PostCode":"36590","Accuracy":4,"LatLong":"30.488,-88.2533"},{"Name":"Mobile","PostCode":"36601","Accuracy":4,"LatLong":"30.6944,-88.0431"},{"Name":"Mobile","PostCode":"36602","Accuracy":4,"LatLong":"30.6888,-88.0453"},{"Name":"Mobile","PostCode":"36603","Accuracy":4,"LatLong":"30.6921,-88.0562"},{"Name":"Mobile","PostCode":"36604","Accuracy":4,"LatLong":"30.682,-88.0678"},{"Name":"Mobile","PostCode":"36605","Accuracy":4,"LatLong":"30.6341,-88.0846"},{"Name":"Mobile","PostCode":"36606","Accuracy":4,"LatLong":"30.6729,-88.1009"},{"Name":"Mobile","PostCode":"36607","Accuracy":4,"LatLong":"30.6975,-88.1029"},{"Name":"Mobile","PostCode":"36608","Accuracy":4,"LatLong":"30.6817,-88.2945"},{"Name":"Mobile","PostCode":"36609","Accuracy":4,"LatLong":"30.6605,-88.1618"},{"Name":"Mobile","PostCode":"36610","Accuracy":4,"LatLong":"30.7309,-88.0789"},{"Name":"Mobile","PostCode":"36611","Accuracy":4,"LatLong":"30.7705,-88.0781"},{"Name":"Mobile","PostCode":"36612","Accuracy":4,"LatLong":"30.7518,-88.1131"},{"Name":"Eight Mile","PostCode":"36613","Accuracy":4,"LatLong":"30.7951,-88.1823"},{"Name":"Mobile","PostCode":"36615","Accuracy":4,"LatLong":"30.6411,-88.0622"},{"Name":"Mobile","PostCode":"36616","Accuracy":4,"LatLong":"30.671,-88.1267"},{"Name":"Mobile","PostCode":"36617","Accuracy":4,"LatLong":"30.7145,-88.0918"},{"Name":"Mobile","PostCode":"36618","Accuracy":4,"LatLong":"30.7322,-88.1758"},{"Name":"Mobile","PostCode":"36619","Accuracy":4,"LatLong":"30.5928,-88.1946"},{"Name":"Mobile","PostCode":"36628","Accuracy":4,"LatLong":"30.6944,-88.0431"},{"Name":"Mobile","PostCode":"36633","Accuracy":4,"LatLong":"30.6589,-88.178"},{"Name":"Mobile","PostCode":"36640","Accuracy":4,"LatLong":"30.6589,-88.178"},{"Name":"Mobile","PostCode":"36641","Accuracy":4,"LatLong":"30.6589,-88.178"},{"Name":"Mobile","PostCode":"36644","Accuracy":4,"LatLong":"30.6944,-88.0431"},{"Name":"Mobile","PostCode":"36652","Accuracy":4,"LatLong":"30.6944,-88.0431"},{"Name":"Mobile","PostCode":"36660","Accuracy":4,"LatLong":"30.6589,-88.178"},{"Name":"Mobile","PostCode":"36663","Accuracy":4,"LatLong":"30.6944,-88.0431"},{"Name":"Mobile","PostCode":"36670","Accuracy":4,"LatLong":"30.6589,-88.178"},{"Name":"Mobile","PostCode":"36671","Accuracy":4,"LatLong":"30.6589,-88.178"},{"Name":"Mobile","PostCode":"36675","Accuracy":4,"LatLong":"30.6944,-88.0431"},{"Name":"Mobile","PostCode":"36685","Accuracy":4,"LatLong":"30.6589,-88.178"},{"Name":"Mobile","PostCode":"36688","Accuracy":4,"LatLong":"30.6962,-88.1821"},{"Name":"Mobile","PostCode":"36689","Accuracy":4,"LatLong":"30.6589,-88.178"},{"Name":"Mobile","PostCode":"36691","Accuracy":4,"LatLong":"30.6944,-88.0431"},{"Name":"Mobile","PostCode":"36693","Accuracy":4,"LatLong":"30.6311,-88.1588"},{"Name":"Mobile","PostCode":"36695","Accuracy":4,"LatLong":"30.6474,-88.2292"}]}]},{"Name":"Monroe","Code":"099","Communities":[{"Places":[{"Name":"Beatrice","PostCode":"36425","Accuracy":4,"LatLong":"31.7273,-87.1719"},{"Name":"Excel","PostCode":"36439","Accuracy":4,"LatLong":"31.4279,-87.3414"},{"Name":"Franklin","PostCode":"36444","Accuracy":4,"LatLong":"31.7238,-87.4412"},{"Name":"Frisco City","PostCode":"36445","Accuracy":4,"LatLong":"31.4235,-87.3817"},{"Name":"Goodway","PostCode":"36449","Accuracy":4,"LatLong":"31.3368,-87.4258"},{"Name":"Megargel","PostCode":"36457","Accuracy":4,"LatLong":"31.3612,-87.4353"},{"Name":"Mexia","PostCode":"36458","Accuracy":4,"LatLong":"31.5147,-87.4084"},{"Name":"Monroeville","PostCode":"36460","Accuracy":4,"LatLong":"31.5153,-87.341"},{"Name":"Monroeville","PostCode":"36461","Accuracy":4,"LatLong":"31.5221,-87.3411"},{"Name":"Perdue Hill","PostCode":"36470","Accuracy":4,"LatLong":"31.5141,-87.4933"},{"Name":"Peterman","PostCode":"36471","Accuracy":4,"LatLong":"31.59,-87.26"},{"Name":"Uriah","PostCode":"36480","Accuracy":4,"LatLong":"31.3135,-87.5705"},{"Name":"Vredenburgh","PostCode":"36481","Accuracy":4,"LatLong":"31.8085,-87.3164"}]}]},{"Name":"Montgomery","Code":"101","Communities":[{"Places":[{"Name":"Cecil","PostCode":"36013","Accuracy":4,"LatLong":"32.2937,-85.9827"},{"Name":"Grady","PostCode":"36036","Accuracy":4,"LatLong":"32.0194,-86.1292"},{"Name":"Hope Hull","PostCode":"36043","Accuracy":4,"LatLong":"32.2243,-86.3932"},{"Name":"Lapine","PostCode":"36046","Accuracy":4,"LatLong":"31.9657,-86.2844"},{"Name":"Mathews","PostCode":"36052","Accuracy":1,"LatLong":"32.1283,-86.0413"},{"Name":"Mount Meigs","PostCode":"36057","Accuracy":4,"LatLong":"32.2334,-86.2085"},{"Name":"Pike Road","PostCode":"36064","Accuracy":4,"LatLong":"32.3357,-86.0959"},{"Name":"Pine Level","PostCode":"36065","Accuracy":4,"LatLong":"32.0726,-86.0606"},{"Name":"Ramer","PostCode":"36069","Accuracy":4,"LatLong":"32.0677,-86.2463"},{"Name":"Montgomery","PostCode":"36101","Accuracy":4,"LatLong":"32.357,-86.2578"},{"Name":"Montgomery","PostCode":"36102","Accuracy":4,"LatLong":"32.2334,-86.2085"},{"Name":"Montgomery","PostCode":"36103","Accuracy":4,"LatLong":"32.3462,-86.2873"},{"Name":"Montgomery","PostCode":"36104","Accuracy":4,"LatLong":"32.373,-86.3081"},{"Name":"Montgomery","PostCode":"36105","Accuracy":4,"LatLong":"32.3257,-86.3104"},{"Name":"Montgomery","PostCode":"36106","Accuracy":4,"LatLong":"32.3543,-86.2673"},{"Name":"Montgomery","PostCode":"36107","Accuracy":4,"LatLong":"32.3804,-86.2799"},{"Name":"Montgomery","PostCode":"36108","Accuracy":4,"LatLong":"32.3417,-86.3529"},{"Name":"Montgomery","PostCode":"36109","Accuracy":4,"LatLong":"32.3834,-86.2434"},{"Name":"Montgomery","PostCode":"36110","Accuracy":4,"LatLong":"32.4217,-86.275"},{"Name":"Montgomery","PostCode":"36111","Accuracy":4,"LatLong":"32.3374,-86.2715"},{"Name":"Montgomery","PostCode":"36112","Accuracy":4,"LatLong":"32.3808,-86.3491"},{"Name":"Montgomery","PostCode":"36113","Accuracy":4,"LatLong":"32.3846,-86.3039"},{"Name":"Montgomery","PostCode":"36114","Accuracy":4,"LatLong":"32.404,-86.2539"},{"Name":"Montgomery","PostCode":"36115","Accuracy":4,"LatLong":"32.4076,-86.2474"},{"Name":"Montgomery","PostCode":"36116","Accuracy":4,"LatLong":"32.3129,-86.2421"},{"Name":"Montgomery","PostCode":"36117","Accuracy":4,"LatLong":"32.3736,-86.1833"},{"Name":"Montgomery","PostCode":"36118","Accuracy":4,"LatLong":"32.2334,-86.2085"},{"Name":"Montgomery","PostCode":"36119","Accuracy":4,"LatLong":"32.2334,-86.2085"},{"Name":"Montgomery","PostCode":"36120","Accuracy":4,"LatLong":"32.2334,-86.2085"},{"Name":"Montgomery","PostCode":"36121","Accuracy":4,"LatLong":"32.2334,-86.2085"},{"Name":"Montgomery","PostCode":"36123","Accuracy":4,"LatLong":"32.3668,-86.3"},{"Name":"Montgomery","PostCode":"36124","Accuracy":4,"LatLong":"32.2334,-86.2085"},{"Name":"Montgomery","PostCode":"36125","Accuracy":4,"LatLong":"32.2334,-86.2085"},{"Name":"Montgomery","PostCode":"36130","Accuracy":4,"LatLong":"32.2334,-86.2085"},{"Name":"Montgomery","PostCode":"36131","Accuracy":4,"LatLong":"32.2334,-86.2085"},{"Name":"Montgomery","PostCode":"36132","Accuracy":4,"LatLong":"32.2334,-86.2085"},{"Name":"Montgomery","PostCode":"36135","Accuracy":4,"LatLong":"32.2334,-86.2085"},{"Name":"Montgomery","PostCode":"36140","Accuracy":4,"LatLong":"32.2334,-86.2085"},{"Name":"Montgomery","PostCode":"36141","Accuracy":4,"LatLong":"32.2334,-86.2085"},{"Name":"Montgomery","PostCode":"36142","Accuracy":4,"LatLong":"32.2334,-86.2085"},{"Name":"Montgomery","PostCode":"36177","Accuracy":4,"LatLong":"32.2334,-86.2085"},{"Name":"Montgomery","PostCode":"36191","Accuracy":4,"LatLong":"32.2334,-86.2085"}]}]},{"Name":"Morgan","Code":"103","Communities":[{"Places":[{"Name":"Decatur","PostCode":"35601","Accuracy":4,"LatLong":"34.5896,-86.9887"},{"Name":"Decatur","PostCode":"35602","Accuracy":4,"LatLong":"34.6059,-86.9833"},{"Name":"Decatur","PostCode":"35603","Accuracy":4,"LatLong":"34.5484,-87.0004"},{"Name":"Decatur","PostCode":"35609","Accuracy":4,"LatLong":"34.6059,-86.9833"},{"Name":"Danville","PostCode":"35619","Accuracy":4,"LatLong":"34.3873,-87.1454"},{"Name":"Eva","PostCode":"35621","Accuracy":4,"LatLong":"34.3323,-86.7589"},{"Name":"Falkville","PostCode":"35622","Accuracy":4,"LatLong":"34.3477,-86.9131"},{"Name":"Hartselle","PostCode":"35640","Accuracy":4,"LatLong":"34.4482,-86.9242"},{"Name":"Somerville","PostCode":"35670","Accuracy":4,"LatLong":"34.4995,-86.8009"},{"Name":"Trinity","PostCode":"35673","Accuracy":4,"LatLong":"34.5918,-87.0913"},{"Name":"Decatur","PostCode":"35699","Accuracy":4,"LatLong":"34.6059,-86.9833"},{"Name":"Laceys Spring","PostCode":"35754","Accuracy":4,"LatLong":"34.4996,-86.6129"},{"Name":"Valhermoso Springs","PostCode":"35775","Accuracy":4,"LatLong":"34.542,-86.6871"}]}]},{"Name":"Perry","Code":"105","Communities":[{"Places":[{"Name":"Marion","PostCode":"36756","Accuracy":4,"LatLong":"32.6463,-87.3314"},{"Name":"Uniontown","PostCode":"36786","Accuracy":4,"LatLong":"32.447,-87.4934"}]}]},{"Name":"Pickens","Code":"107","Communities":[{"Places":[{"Name":"Aliceville","PostCode":"35442","Accuracy":4,"LatLong":"33.1228,-88.1667"},{"Name":"Carrollton","PostCode":"35447","Accuracy":4,"LatLong":"33.2485,-88.1321"},{"Name":"Ethelsville","PostCode":"35461","Accuracy":4,"LatLong":"33.4157,-88.2167"},{"Name":"Gordo","PostCode":"35466","Accuracy":4,"LatLong":"33.3469,-87.9005"},{"Name":"Mc Shan","PostCode":"35471","Accuracy":1,"LatLong":"33.2626,-88.0885"},{"Name":"Reform","PostCode":"35481","Accuracy":4,"LatLong":"33.3959,-88.0203"}]}]},{"Name":"Pike","Code":"109","Communities":[{"Places":[{"Name":"Banks","PostCode":"36005","Accuracy":4,"LatLong":"31.8368,-85.7998"},{"Name":"Brundidge","PostCode":"36010","Accuracy":4,"LatLong":"31.7013,-85.8177"},{"Name":"Goshen","PostCode":"36035","Accuracy":4,"LatLong":"31.7946,-86.1277"},{"Name":"Troy","PostCode":"36079","Accuracy":4,"LatLong":"31.7595,-86.0107"},{"Name":"Troy","PostCode":"36081","Accuracy":4,"LatLong":"31.7945,-85.9655"},{"Name":"Troy","PostCode":"36082","Accuracy":4,"LatLong":"31.8028,-85.9546"}]}]},{"Name":"Randolph","Code":"111","Communities":[{"Places":[{"Name":"Graham","PostCode":"36263","Accuracy":4,"LatLong":"33.463,-85.334"},{"Name":"Roanoke","PostCode":"36274","Accuracy":4,"LatLong":"33.1512,-85.3722"},{"Name":"Wadley","PostCode":"36276","Accuracy":4,"LatLong":"33.1492,-85.5513"},{"Name":"Wedowee","PostCode":"36278","Accuracy":4,"LatLong":"33.3019,-85.4737"},{"Name":"Woodland","PostCode":"36280","Accuracy":4,"LatLong":"33.3743,-85.3997"}]}]},{"Name":"Russell","Code":"113","Communities":[{"Places":[{"Name":"Cottonton","PostCode":"36851","Accuracy":4,"LatLong":"32.1468,-85.0738"},{"Name":"Fort Mitchell","PostCode":"36856","Accuracy":4,"LatLong":"32.2965,-84.9972"},{"Name":"Hatchechubbee","PostCode":"36858","Accuracy":4,"LatLong":"32.2845,-85.3029"},{"Name":"Holy Trinity","PostCode":"36859","Accuracy":4,"LatLong":"32.2298,-85.0082"},{"Name":"Hurtsboro","PostCode":"36860","Accuracy":4,"LatLong":"32.2454,-85.3959"},{"Name":"Phenix City","PostCode":"36867","Accuracy":4,"LatLong":"32.4978,-85.0234"},{"Name":"Phenix City","PostCode":"36868","Accuracy":4,"LatLong":"32.4646,-85.0206"},{"Name":"Phenix City","PostCode":"36869","Accuracy":4,"LatLong":"32.4204,-85.0796"},{"Name":"Phenix City","PostCode":"36870","Accuracy":4,"LatLong":"32.4781,-85.124"},{"Name":"Pittsview","PostCode":"36871","Accuracy":4,"LatLong":"32.1733,-85.1312"},{"Name":"Seale","PostCode":"36875","Accuracy":4,"LatLong":"32.3053,-85.1677"}]}]},{"Name":"St. Clair","Code":"115","Communities":[{"Places":[{"Name":"Moody","PostCode":"35004","Accuracy":4,"LatLong":"33.6035,-86.4668"},{"Name":"Cook Springs","PostCode":"35052","Accuracy":4,"LatLong":"33.5895,-86.3923"},{"Name":"Cropwell","PostCode":"35054","Accuracy":4,"LatLong":"33.5296,-86.3007"},{"Name":"Margaret","PostCode":"35112","Accuracy":4,"LatLong":"33.6862,-86.475"},{"Name":"Odenville","PostCode":"35120","Accuracy":4,"LatLong":"33.6756,-86.409"},{"Name":"Pell City","PostCode":"35125","Accuracy":4,"LatLong":"33.5979,-86.3432"},{"Name":"Pell City","PostCode":"35128","Accuracy":4,"LatLong":"33.5873,-86.3366"},{"Name":"Ragland","PostCode":"35131","Accuracy":4,"LatLong":"33.7367,-86.1619"},{"Name":"Riverside","PostCode":"35135","Accuracy":4,"LatLong":"33.6166,-86.1996"},{"Name":"Springville","PostCode":"35146","Accuracy":4,"LatLong":"33.7386,-86.4394"},{"Name":"Wattsville","PostCode":"35182","Accuracy":4,"LatLong":"33.7068,-86.2567"},{"Name":"Ashville","PostCode":"35953","Accuracy":4,"LatLong":"33.8374,-86.2552"},{"Name":"Steele","PostCode":"35987","Accuracy":4,"LatLong":"33.9417,-86.2289"}]}]},{"Name":"Shelby","Code":"117","Communities":[{"Places":[{"Name":"Alabaster","PostCode":"35007","Accuracy":4,"LatLong":"33.1934,-86.7944"},{"Name":"Calera","PostCode":"35040","Accuracy":4,"LatLong":"33.1098,-86.756"},{"Name":"Chelsea","PostCode":"35043","Accuracy":4,"LatLong":"33.2982,-86.6563"},{"Name":"Columbiana","PostCode":"35051","Accuracy":4,"LatLong":"33.177,-86.6161"},{"Name":"Harpersville","PostCode":"35078","Accuracy":4,"LatLong":"33.3234,-86.4424"},{"Name":"Helena","PostCode":"35080","Accuracy":4,"LatLong":"33.2663,-86.902"},{"Name":"Maylene","PostCode":"35114","Accuracy":4,"LatLong":"33.2317,-86.8727"},{"Name":"Montevallo","PostCode":"35115","Accuracy":4,"LatLong":"33.1248,-86.8622"},{"Name":"Pelham","PostCode":"35124","Accuracy":4,"LatLong":"33.2932,-86.768"},{"Name":"Saginaw","PostCode":"35137","Accuracy":4,"LatLong":"33.2063,-86.7812"},{"Name":"Shelby","PostCode":"35143","Accuracy":4,"LatLong":"33.0785,-86.5536"},{"Name":"Siluria","PostCode":"35144","Accuracy":4,"LatLong":"33.2293,-86.825"},{"Name":"Sterrett","PostCode":"35147","Accuracy":4,"LatLong":"33.4461,-86.4917"},{"Name":"Vandiver","PostCode":"35176","Accuracy":4,"LatLong":"33.4807,-86.5013"},{"Name":"Vincent","PostCode":"35178","Accuracy":4,"LatLong":"33.401,-86.3994"},{"Name":"Westover","PostCode":"35185","Accuracy":4,"LatLong":"33.3356,-86.5437"},{"Name":"Wilsonville","PostCode":"35186","Accuracy":4,"LatLong":"33.2293,-86.5299"},{"Name":"Wilton","PostCode":"35187","Accuracy":4,"LatLong":"33.081,-86.8793"},{"Name":"Birmingham","PostCode":"35242","Accuracy":4,"LatLong":"33.3813,-86.7046"}]}]},{"Name":"Sumter","Code":"119","Communities":[{"Places":[{"Name":"Emelle","PostCode":"35459","Accuracy":4,"LatLong":"32.755,-88.3057"},{"Name":"Epes","PostCode":"35460","Accuracy":4,"LatLong":"32.672,-88.1206"},{"Name":"Gainesville","PostCode":"35464","Accuracy":4,"LatLong":"32.821,-88.1589"},{"Name":"Livingston","PostCode":"35470","Accuracy":4,"LatLong":"32.5843,-88.1872"},{"Name":"Panola","PostCode":"35477","Accuracy":4,"LatLong":"32.8726,-88.2374"},{"Name":"Bellamy","PostCode":"36901","Accuracy":4,"LatLong":"32.449,-88.1336"},{"Name":"Cuba","PostCode":"36907","Accuracy":4,"LatLong":"32.411,-88.3611"},{"Name":"York","PostCode":"36925","Accuracy":4,"LatLong":"32.4728,-88.2683"}]}]},{"Name":"Talladega","Code":"121","Communities":[{"Places":[{"Name":"Alpine","PostCode":"35014","Accuracy":4,"LatLong":"33.404,-86.2339"},{"Name":"Bon Air","PostCode":"35032","Accuracy":4,"LatLong":"33.2649,-86.3364"},{"Name":"Childersburg","PostCode":"35044","Accuracy":4,"LatLong":"33.2459,-86.3641"},{"Name":"Lincoln","PostCode":"35096","Accuracy":4,"LatLong":"33.6059,-86.1112"},{"Name":"Sycamore","PostCode":"35149","Accuracy":4,"LatLong":"33.2512,-86.2025"},{"Name":"Sylacauga","PostCode":"35150","Accuracy":4,"LatLong":"33.1717,-86.2713"},{"Name":"Sylacauga","PostCode":"35151","Accuracy":4,"LatLong":"33.1756,-86.3574"},{"Name":"Talladega","PostCode":"35160","Accuracy":4,"LatLong":"33.4354,-86.1134"},{"Name":"Talladega","PostCode":"35161","Accuracy":4,"LatLong":"33.4202,-86.1028"},{"Name":"Munford","PostCode":"36268","Accuracy":4,"LatLong":"33.541,-85.9363"}]}]},{"Name":"Tallapoosa","Code":"123","Communities":[{"Places":[{"Name":"Alexander City","PostCode":"35010","Accuracy":4,"LatLong":"32.9164,-85.9368"},{"Name":"Alexander City","PostCode":"35011","Accuracy":4,"LatLong":"32.9902,-85.958"},{"Name":"East Tallassee","PostCode":"36023","Accuracy":1,"LatLong":"32.8002,-85.8034"},{"Name":"Daviston","PostCode":"36256","Accuracy":4,"LatLong":"33.0335,-85.7538"},{"Name":"Camp Hill","PostCode":"36850","Accuracy":4,"LatLong":"32.7827,-85.6474"},{"Name":"Dadeville","PostCode":"36853","Accuracy":4,"LatLong":"32.8224,-85.7704"},{"Name":"Jacksons Gap","PostCode":"36861","Accuracy":4,"LatLong":"32.8797,-85.8487"}]}]},{"Name":"Tuscaloosa","Code":"125","Communities":[{"Places":[{"Name":"Tuscaloosa","PostCode":"35401","Accuracy":4,"LatLong":"33.1969,-87.5627"},{"Name":"Tuscaloosa","PostCode":"35402","Accuracy":4,"LatLong":"33.3066,-87.4532"},{"Name":"Tuscaloosa","PostCode":"35403","Accuracy":4,"LatLong":"33.2045,-87.527"},{"Name":"Tuscaloosa","PostCode":"35404","Accuracy":4,"LatLong":"33.1826,-87.4827"},{"Name":"Tuscaloosa","PostCode":"35405","Accuracy":4,"LatLong":"33.1617,-87.5144"},{"Name":"Tuscaloosa","PostCode":"35406","Accuracy":4,"LatLong":"33.2722,-87.536"},{"Name":"Tuscaloosa","PostCode":"35407","Accuracy":4,"LatLong":"33.3066,-87.4532"},{"Name":"Abernant","PostCode":"35440","Accuracy":4,"LatLong":"33.311,-87.1898"},{"Name":"Brookwood","PostCode":"35444","Accuracy":4,"LatLong":"33.2775,-87.309"},{"Name":"Buhl","PostCode":"35446","Accuracy":4,"LatLong":"33.2306,-87.7547"},{"Name":"Coaling","PostCode":"35449","Accuracy":4,"LatLong":"33.1359,-87.3384"},{"Name":"Coker","PostCode":"35452","Accuracy":4,"LatLong":"33.2934,-87.6888"},{"Name":"Cottondale","PostCode":"35453","Accuracy":4,"LatLong":"33.1767,-87.3871"},{"Name":"Duncanville","PostCode":"35456","Accuracy":4,"LatLong":"33.0618,-87.4422"},{"Name":"Echola","PostCode":"35457","Accuracy":4,"LatLong":"33.294,-87.7766"},{"Name":"Elrod","PostCode":"35458","Accuracy":4,"LatLong":"33.2562,-87.7922"},{"Name":"Fosters","PostCode":"35463","Accuracy":4,"LatLong":"33.0843,-87.6975"},{"Name":"Kellerman","PostCode":"35468","Accuracy":4,"LatLong":"33.3407,-87.3047"},{"Name":"Northport","PostCode":"35473","Accuracy":4,"LatLong":"33.2723,-87.5825"},{"Name":"Northport","PostCode":"35475","Accuracy":4,"LatLong":"33.3992,-87.5599"},{"Name":"Northport","PostCode":"35476","Accuracy":4,"LatLong":"33.2273,-87.5943"},{"Name":"Peterson","PostCode":"35478","Accuracy":4,"LatLong":"33.3066,-87.4532"},{"Name":"Ralph","PostCode":"35480","Accuracy":4,"LatLong":"33.1274,-87.7624"},{"Name":"Samantha","PostCode":"35482","Accuracy":4,"LatLong":"33.3066,-87.4532"},{"Name":"Tuscaloosa","PostCode":"35486","Accuracy":4,"LatLong":"33.2098,-87.5692"},{"Name":"Tuscaloosa","PostCode":"35487","Accuracy":4,"LatLong":"33.3072,-87.5859"},{"Name":"Vance","PostCode":"35490","Accuracy":4,"LatLong":"33.175,-87.2574"}]}]},{"Name":"Walker","Code":"127","Communities":[{"Places":[{"Name":"Burnwell","PostCode":"35038","Accuracy":4,"LatLong":"33.7079,-87.0875"},{"Name":"Dora","PostCode":"35062","Accuracy":4,"LatLong":"33.7357,-87.0546"},{"Name":"Empire","PostCode":"35063","Accuracy":4,"LatLong":"33.8256,-87.0161"},{"Name":"Quinton","PostCode":"35130","Accuracy":4,"LatLong":"33.6561,-87.1007"},{"Name":"Sumiton","PostCode":"35148","Accuracy":4,"LatLong":"33.768,-87.0445"},{"Name":"Jasper","PostCode":"35501","Accuracy":4,"LatLong":"33.8312,-87.2775"},{"Name":"Jasper","PostCode":"35502","Accuracy":4,"LatLong":"33.8312,-87.2775"},{"Name":"Jasper","PostCode":"35503","Accuracy":4,"LatLong":"33.9152,-87.3074"},{"Name":"Jasper","PostCode":"35504","Accuracy":4,"LatLong":"33.8927,-87.1667"},{"Name":"Carbon Hill","PostCode":"35549","Accuracy":4,"LatLong":"33.9093,-87.5403"},{"Name":"Cordova","PostCode":"35550","Accuracy":4,"LatLong":"33.768,-87.1841"},{"Name":"Eldridge","PostCode":"35554","Accuracy":4,"LatLong":"33.9315,-87.6194"},{"Name":"Goodsprings","PostCode":"35560","Accuracy":4,"LatLong":"33.6795,-87.2374"},{"Name":"Kansas","PostCode":"35573","Accuracy":4,"LatLong":"33.9018,-87.552"},{"Name":"Nauvoo","PostCode":"35578","Accuracy":4,"LatLong":"33.9299,-87.4324"},{"Name":"Oakman","PostCode":"35579","Accuracy":4,"LatLong":"33.7002,-87.3686"},{"Name":"Parrish","PostCode":"35580","Accuracy":4,"LatLong":"33.7213,-87.2658"},{"Name":"Sipsey","PostCode":"35584","Accuracy":4,"LatLong":"33.8201,-87.0779"},{"Name":"Townley","PostCode":"35587","Accuracy":4,"LatLong":"33.847,-87.4372"}]}]},{"Name":"Washington","Code":"129","Communities":[{"Places":[{"Name":"Calvert","PostCode":"36513","Accuracy":4,"LatLong":"31.1552,-88.01"},{"Name":"Chatom","PostCode":"36518","Accuracy":4,"LatLong":"31.4876,-88.2699"},{"Name":"Deer Park","PostCode":"36529","Accuracy":4,"LatLong":"31.2168,-88.3172"},{"Name":"Frankville","PostCode":"36538","Accuracy":4,"LatLong":"31.6468,-88.1332"},{"Name":"Fruitdale","PostCode":"36539","Accuracy":4,"LatLong":"31.3488,-88.3766"},{"Name":"Leroy","PostCode":"36548","Accuracy":4,"LatLong":"31.491,-87.9687"},{"Name":"Mc Intosh","PostCode":"36553","Accuracy":1,"LatLong":"31.2361,-88.0511"},{"Name":"Malcolm","PostCode":"36556","Accuracy":4,"LatLong":"31.1913,-88.0075"},{"Name":"Millry","PostCode":"36558","Accuracy":4,"LatLong":"31.6269,-88.3559"},{"Name":"Saint Stephens","PostCode":"36569","Accuracy":4,"LatLong":"31.533,-88.0521"},{"Name":"Sunflower","PostCode":"36581","Accuracy":4,"LatLong":"31.3696,-88.0122"},{"Name":"Tibbie","PostCode":"36583","Accuracy":4,"LatLong":"31.4067,-88.1758"},{"Name":"Vinegar Bend","PostCode":"36584","Accuracy":4,"LatLong":"31.2584,-88.3865"},{"Name":"Wagarville","PostCode":"36585","Accuracy":4,"LatLong":"31.4102,-88.0705"}]}]},{"Name":"Wilcox","Code":"131","Communities":[{"Places":[{"Name":"Coy","PostCode":"36435","Accuracy":4,"LatLong":"31.8889,-87.3926"},{"Name":"Alberta","PostCode":"36720","Accuracy":4,"LatLong":"32.1585,-87.3468"},{"Name":"Arlington","PostCode":"36722","Accuracy":4,"LatLong":"32.0668,-87.5597"},{"Name":"Boykin","PostCode":"36723","Accuracy":4,"LatLong":"32.0779,-87.2814"},{"Name":"Camden","PostCode":"36726","Accuracy":4,"LatLong":"32.0047,-87.295"},{"Name":"Catherine","PostCode":"36728","Accuracy":4,"LatLong":"32.182,-87.4836"},{"Name":"Furman","PostCode":"36741","Accuracy":4,"LatLong":"32.0061,-86.9817"},{"Name":"Lower Peach Tree","PostCode":"36751","Accuracy":4,"LatLong":"31.8504,-87.5682"},{"Name":"Mc Williams","PostCode":"36753","Accuracy":1,"LatLong":"32.0481,-87.2623"},{"Name":"Oak Hill","PostCode":"36766","Accuracy":4,"LatLong":"31.947,-87.0745"},{"Name":"Pine Apple","PostCode":"36768","Accuracy":4,"LatLong":"31.9265,-87.0047"},{"Name":"Pine Hill","PostCode":"36769","Accuracy":4,"LatLong":"31.9735,-87.5771"}]}]},{"Name":"Winston","Code":"133","Communities":[{"Places":[{"Name":"Addison","PostCode":"35540","Accuracy":4,"LatLong":"34.2056,-87.1948"},{"Name":"Arley","PostCode":"35541","Accuracy":4,"LatLong":"34.0632,-87.1828"},{"Name":"Delmar","PostCode":"35551","Accuracy":4,"LatLong":"34.1701,-87.6059"},{"Name":"Double Springs","PostCode":"35553","Accuracy":4,"LatLong":"34.1387,-87.3974"},{"Name":"Haleyville","PostCode":"35565","Accuracy":4,"LatLong":"34.2314,-87.5938"},{"Name":"Houston","PostCode":"35572","Accuracy":4,"LatLong":"34.118,-87.2618"},{"Name":"Lynn","PostCode":"35575","Accuracy":4,"LatLong":"34.053,-87.5398"},{"Name":"Natural Bridge","PostCode":"35577","Accuracy":4,"LatLong":"34.0934,-87.6008"}]}]}]},{"Name":"Arkansas","Code":"AR","Provinces":[{"Name":"Arkansas","Code":"001","Communities":[{"Places":[{"Name":"Almyra","PostCode":"72003","Accuracy":4,"LatLong":"34.4146,-91.431"},{"Name":"Casscoe","PostCode":"72026","Accuracy":4,"LatLong":"34.5095,-91.299"},{"Name":"Crocketts Bluff","PostCode":"72038","Accuracy":4,"LatLong":"34.4528,-91.2692"},{"Name":"De Witt","PostCode":"72042","Accuracy":4,"LatLong":"34.2853,-91.3336"},{"Name":"Ethel","PostCode":"72048","Accuracy":4,"LatLong":"34.2435,-91.1398"},{"Name":"Gillett","PostCode":"72055","Accuracy":4,"LatLong":"34.1218,-91.38"},{"Name":"Humphrey","PostCode":"72073","Accuracy":4,"LatLong":"34.4034,-91.679"},{"Name":"Saint Charles","PostCode":"72140","Accuracy":4,"LatLong":"34.3878,-91.1463"},{"Name":"Stuttgart","PostCode":"72160","Accuracy":4,"LatLong":"34.4854,-91.5487"},{"Name":"Tichnor","PostCode":"72166","Accuracy":4,"LatLong":"34.0893,-91.2437"}]}]},{"Name":"Ashley","Code":"003","Communities":[{"Places":[{"Name":"Crossett","PostCode":"71635","Accuracy":4,"LatLong":"33.156,-91.9975"},{"Name":"Fountain Hill","PostCode":"71642","Accuracy":4,"LatLong":"33.3631,-91.9088"},{"Name":"Hamburg","PostCode":"71646","Accuracy":4,"LatLong":"33.2058,-91.8023"},{"Name":"Montrose","PostCode":"71658","Accuracy":4,"LatLong":"33.3075,-91.5228"},{"Name":"Parkdale","PostCode":"71661","Accuracy":4,"LatLong":"33.1213,-91.5428"},{"Name":"Portland","PostCode":"71663","Accuracy":4,"LatLong":"33.2318,-91.5139"},{"Name":"Wilmot","PostCode":"71676","Accuracy":4,"LatLong":"33.0576,-91.5723"}]}]},{"Name":"Baxter","Code":"005","Communities":[{"Places":[{"Name":"Gamaliel","PostCode":"72537","Accuracy":4,"LatLong":"36.4618,-92.2284"},{"Name":"Henderson","PostCode":"72544","Accuracy":4,"LatLong":"36.4105,-92.1951"},{"Name":"Big Flat","PostCode":"72617","Accuracy":4,"LatLong":"36.0068,-92.3917"},{"Name":"Clarkridge","PostCode":"72623","Accuracy":4,"LatLong":"36.4724,-92.3296"},{"Name":"Cotter","PostCode":"72626","Accuracy":4,"LatLong":"36.2712,-92.5354"},{"Name":"Gassville","PostCode":"72635","Accuracy":4,"LatLong":"36.3175,-92.4736"},{"Name":"Lakeview","PostCode":"72642","Accuracy":4,"LatLong":"36.373,-92.5422"},{"Name":"Midway","PostCode":"72651","Accuracy":4,"LatLong":"36.3933,-92.4881"},{"Name":"Mountain Home","PostCode":"72653","Accuracy":4,"LatLong":"36.3312,-92.3753"},{"Name":"Mountain Home","PostCode":"72654","Accuracy":4,"LatLong":"36.3353,-92.3852"},{"Name":"Norfork","PostCode":"72658","Accuracy":4,"LatLong":"36.2066,-92.273"},{"Name":"Norfork","PostCode":"72659","Accuracy":4,"LatLong":"36.2095,-92.2843"}]}]},{"Name":"Benton","Code":"007","Communities":[{"Places":[{"Name":"Avoca","PostCode":"72711","Accuracy":4,"LatLong":"36.4047,-94.0713"},{"Name":"Bentonville","PostCode":"72712","Accuracy":4,"LatLong":"36.3577,-94.2224"},{"Name":"Bella Vista","PostCode":"72714","Accuracy":4,"LatLong":"36.4676,-94.2166"},{"Name":"Bella Vista","PostCode":"72715","Accuracy":4,"LatLong":"36.4677,-94.3209"},{"Name":"Bentonville","PostCode":"72716","Accuracy":4,"LatLong":"36.3729,-94.2088"},{"Name":"Cave Springs","PostCode":"72718","Accuracy":4,"LatLong":"36.2738,-94.2183"},{"Name":"Centerton","PostCode":"72719","Accuracy":4,"LatLong":"36.367,-94.3089"},{"Name":"Decatur","PostCode":"72722","Accuracy":4,"LatLong":"36.3347,-94.4534"},{"Name":"Garfield","PostCode":"72732","Accuracy":4,"LatLong":"36.4288,-93.9512"},{"Name":"Gateway","PostCode":"72733","Accuracy":4,"LatLong":"36.4864,-93.9277"},{"Name":"Gentry","PostCode":"72734","Accuracy":4,"LatLong":"36.2652,-94.4751"},{"Name":"Gravette","PostCode":"72736","Accuracy":4,"LatLong":"36.4155,-94.4779"},{"Name":"Hiwasse","PostCode":"72739","Accuracy":4,"LatLong":"36.4416,-94.339"},{"Name":"Lowell","PostCode":"72745","Accuracy":4,"LatLong":"36.2554,-94.1308"},{"Name":"Maysville","PostCode":"72747","Accuracy":4,"LatLong":"36.3811,-94.5783"},{"Name":"Pea Ridge","PostCode":"72751","Accuracy":4,"LatLong":"36.4539,-94.118"},{"Name":"Rogers","PostCode":"72756","Accuracy":4,"LatLong":"36.3363,-94.1148"},{"Name":"Rogers","PostCode":"72757","Accuracy":4,"LatLong":"36.332,-94.1185"},{"Name":"Rogers","PostCode":"72758","Accuracy":4,"LatLong":"36.3169,-94.1545"},{"Name":"Siloam Springs","PostCode":"72761","Accuracy":4,"LatLong":"36.18,-94.528"},{"Name":"Sulphur Springs","PostCode":"72768","Accuracy":4,"LatLong":"36.4794,-94.4521"}]}]},{"Name":"Boone","Code":"009","Communities":[{"Places":[{"Name":"Little Rock","PostCode":"72260","Accuracy":4,"LatLong":"34.7399,-92.34"},{"Name":"Harrison","PostCode":"72601","Accuracy":4,"LatLong":"36.2417,-93.1062"},{"Name":"Harrison","PostCode":"72602","Accuracy":4,"LatLong":"36.2298,-93.1077"},{"Name":"Alpena","PostCode":"72611","Accuracy":4,"LatLong":"36.2998,-93.2792"},{"Name":"Bergman","PostCode":"72615","Accuracy":4,"LatLong":"36.3083,-93.0321"},{"Name":"Diamond City","PostCode":"72630","Accuracy":4,"LatLong":"36.4645,-92.9202"},{"Name":"Everton","PostCode":"72633","Accuracy":4,"LatLong":"36.1534,-92.915"},{"Name":"Lead Hill","PostCode":"72644","Accuracy":4,"LatLong":"36.3848,-93.0039"},{"Name":"Omaha","PostCode":"72662","Accuracy":4,"LatLong":"36.4612,-93.1888"},{"Name":"Valley Springs","PostCode":"72682","Accuracy":4,"LatLong":"36.1351,-92.7541"}]}]},{"Name":"Bradley","Code":"011","Communities":[{"Places":[{"Name":"Banks","PostCode":"71631","Accuracy":4,"LatLong":"33.5497,-92.2604"},{"Name":"Hermitage","PostCode":"71647","Accuracy":4,"LatLong":"33.39,-92.156"},{"Name":"Jersey","PostCode":"71651","Accuracy":4,"LatLong":"33.3889,-92.2966"},{"Name":"Warren","PostCode":"71671","Accuracy":4,"LatLong":"33.614,-92.0778"}]}]},